frame,pgsnh,gpsnl,gpseh,gpsel,heading_angle,yaw_rate,gps_state,gps_velocity,acceleration_forward,acceleration_lateral,acceleration_down,pitch_angle,velocity_down,velocity_lateral,velocity_forward,roll_angle,timestamp
1,36.000000,0.177729,120.000000,0.487605,178.340000,-0.580000,4.000000,0.640000,-3.930000,1.746000,-5.371000,-1.900000,-3.220000,0.010000,0.570000,-0.180000,1620812670616626336
2,36.000000,0.177729,120.000000,0.487605,178.330000,-0.150000,4.000000,0.640000,-3.213000,4.898000,-7.791000,-1.890000,-3.190000,0.010000,0.590000,-0.210000,1620812670636418944
3,36.000000,0.177729,120.000000,0.487605,178.330000,-0.210000,4.000000,0.580000,5.887000,0.279000,-9.453000,-1.920000,-3.230000,0.010000,0.650000,-0.230000,1620812670656377568
4,36.000000,0.177729,120.000000,0.487605,178.310000,0.280000,4.000000,0.580000,-1.751000,7.769000,-5.641000,-1.910000,-3.160000,0.010000,0.630000,-0.250000,1620812670678452032
5,36.000000,0.177729,120.000000,0.487605,178.280000,0.040000,4.000000,0.580000,-5.696000,-3.945000,-17.596000,-1.950000,-3.270000,0.010000,0.660000,-0.310000,1620812670698583744
6,36.000000,0.177729,120.000000,0.487605,178.260000,0.460000,4.000000,0.580000,1.537000,0.449000,-6.701000,-1.970000,-3.240000,0.010000,0.670000,-0.330000,1620812670716863840
7,36.000000,0.177728,120.000000,0.487605,178.330000,0.590000,4.000000,0.580000,0.757000,-4.501000,-14.439000,-2.040000,-3.270000,0.010000,0.710000,-0.400000,1620812670736691584
8,36.000000,0.177728,120.000000,0.487605,178.350000,0.650000,4.000000,0.580000,6.133000,-4.229000,-8.457000,-2.050000,-3.250000,0.010000,0.760000,-0.420000,1620812670756780704
9,36.000000,0.177728,120.000000,0.487605,178.430000,0.530000,4.000000,0.590000,4.094000,-5.603000,-9.819000,-2.010000,-3.150000,0.010000,0.710000,-0.390000,1620812670781160928
10,36.000000,0.177728,120.000000,0.487605,178.490000,1.080000,4.000000,0.590000,0.675000,-2.979000,-15.124000,-1.990000,-3.200000,0.010000,0.690000,-0.400000,1620812670797066720
11,36.000000,0.177728,120.000000,0.487605,178.560000,0.710000,4.000000,0.640000,-1.096000,-0.785000,-6.688000,-1.950000,-3.100000,0.010000,0.660000,-0.420000,1620812670817392320
12,36.000000,0.177728,120.000000,0.487605,178.630000,0.960000,4.000000,0.640000,-6.681000,-2.392000,-18.299000,-1.930000,-3.180000,0.010000,0.610000,-0.370000,1620812670837136800
13,36.000000,0.177728,120.000000,0.487605,178.690000,0.590000,4.000000,0.580000,-6.394000,4.987000,-10.656000,-1.880000,-3.220000,0.010000,0.610000,-0.340000,1620812670857028416
14,36.000000,0.177728,120.000000,0.487605,178.730000,0.590000,4.000000,0.580000,-1.957000,-4.220000,-16.934000,-1.870000,-3.290000,0.010000,0.590000,-0.290000,1620812670877072736
15,36.000000,0.177727,120.000000,0.487605,178.770000,0.590000,4.000000,0.580000,-4.589000,4.664000,-5.823000,-1.830000,-3.240000,0.010000,0.510000,-0.280000,1620812670897030048
16,36.000000,0.177727,120.000000,0.487605,178.820000,0.710000,4.000000,0.600000,3.831000,-0.895000,-6.078000,-1.820000,-3.200000,0.010000,0.570000,-0.250000,1620812670917161408
17,36.000000,0.177727,120.000000,0.487605,178.850000,0.590000,4.000000,0.600000,-4.264000,-3.431000,-13.016000,-1.790000,-3.170000,0.010000,0.500000,-0.200000,1620812670936979936
18,36.000000,0.177727,120.000000,0.487605,178.930000,0.460000,4.000000,0.570000,-3.872000,2.630000,-16.519000,-1.800000,-3.210000,0.010000,0.500000,-0.140000,1620812670957091392
19,36.000000,0.177727,120.000000,0.487605,178.940000,0.030000,4.000000,0.570000,6.155000,-4.070000,-14.074000,-1.780000,-3.180000,0.010000,0.500000,-0.140000,1620812670977142560
20,36.000000,0.177727,120.000000,0.487605,178.950000,0.210000,4.000000,0.570000,6.278000,2.805000,-3.707000,-1.820000,-3.270000,0.010000,0.450000,-0.110000,1620812670997241696
21,36.000000,0.177727,120.000000,0.487605,178.940000,-0.090000,4.000000,0.610000,-7.479000,5.524000,-7.095000,-1.860000,-3.180000,0.010000,0.540000,-0.140000,1620812671020008000
22,36.000000,0.177727,120.000000,0.487605,178.920000,-0.220000,4.000000,0.610000,1.942000,-8.629000,-15.224000,-1.910000,-3.230000,0.010000,0.580000,-0.070000,1620812671037950816
23,36.000000,0.177727,120.000000,0.487605,178.910000,-0.460000,4.000000,0.610000,-7.618000,-2.077000,-13.946000,-1.930000,-3.170000,0.010000,0.580000,-0.090000,1620812671058009184
24,36.000000,0.177727,120.000000,0.487605,178.890000,-0.270000,4.000000,0.590000,5.565000,-10.015000,-17.304000,-1.970000,-3.200000,0.010000,0.620000,0.000000,1620812671078039904
25,36.000000,0.177727,120.000000,0.487605,178.880000,-0.210000,4.000000,0.590000,-3.575000,-5.752000,-19.894000,-1.990000,-3.240000,0.010000,0.600000,-0.010000,1620812671097909728
26,36.000000,0.177726,120.000000,0.487605,178.870000,0.340000,4.000000,0.600000,4.198000,-10.005000,-19.631000,-2.010000,-3.260000,0.010000,0.680000,-0.030000,1620812671117965856
27,36.000000,0.177726,120.000000,0.487605,178.870000,-0.390000,4.000000,0.600000,-1.633000,-13.444000,-19.837000,-2.030000,-3.250000,0.010000,0.620000,0.030000,1620812671138017760
28,36.000000,0.177726,120.000000,0.487605,178.880000,0.640000,4.000000,0.590000,3.161000,-14.838000,-19.681000,-2.050000,-3.210000,0.010000,0.640000,0.040000,1620812671157908000
29,36.000000,0.177726,120.000000,0.487605,178.870000,-0.450000,4.000000,0.590000,-2.709000,-19.709000,-19.920000,-2.070000,-3.270000,0.010000,0.600000,0.140000,1620812671177970144
30,36.000000,0.177726,120.000000,0.487605,178.830000,0.530000,4.000000,0.590000,2.431000,-9.377000,-19.698000,-2.020000,-3.540000,0.010000,0.590000,0.070000,1620812671198005728
31,36.000000,0.177726,120.000000,0.487605,178.820000,-0.080000,4.000000,0.600000,-6.571000,-3.957000,-13.889000,-2.000000,-3.570000,0.010000,0.550000,0.180000,1620812671218595648
32,36.000000,0.177726,120.000000,0.487605,178.870000,0.290000,4.000000,0.600000,-0.019000,-19.724000,-19.807000,-1.950000,-3.590000,0.010000,0.630000,0.100000,1620812671235943552
33,36.000000,0.177726,120.000000,0.487605,178.880000,0.660000,4.000000,0.600000,1.070000,16.890000,-0.459000,-1.930000,-3.490000,0.010000,0.630000,0.170000,1620812671258032800
34,36.000000,0.177725,120.000000,0.487605,178.950000,0.660000,4.000000,0.610000,-1.258000,-19.541000,-19.918000,-1.870000,-3.490000,0.010000,0.640000,0.310000,1620812671278283712
35,36.000000,0.177725,120.000000,0.487605,179.000000,1.450000,4.000000,0.610000,5.288000,18.560000,11.080000,-1.890000,-3.280000,0.010000,0.690000,0.320000,1620812671295876928
36,36.000000,0.177725,120.000000,0.487605,179.050000,1.080000,4.000000,0.650000,-2.426000,-5.804000,-13.941000,-1.940000,-3.120000,0.010000,0.570000,0.420000,1620812671318248704
37,36.000000,0.177725,120.000000,0.487605,179.120000,1.380000,4.000000,0.650000,7.828000,4.429000,-18.925000,-1.960000,-3.210000,0.010000,0.650000,0.440000,1620812671335803680
38,36.000000,0.177725,120.000000,0.487605,179.190000,1.800000,4.000000,0.740000,4.251000,-8.853000,-10.719000,-1.920000,-3.300000,0.010000,0.690000,0.540000,1620812671358181696
39,36.000000,0.177725,120.000000,0.487605,179.270000,1.060000,4.000000,0.740000,0.069000,-5.060000,-19.819000,-1.910000,-3.390000,0.010000,0.700000,0.560000,1620812671377911520
40,36.000000,0.177725,120.000000,0.487605,179.330000,2.200000,4.000000,0.740000,-4.227000,6.498000,7.623000,-1.890000,-3.290000,0.010000,0.710000,0.600000,1620812671397975360
41,36.000000,0.177725,120.000000,0.487605,179.400000,1.300000,4.000000,0.780000,-9.294000,-19.533000,-19.731000,-1.920000,-3.370000,0.010000,0.650000,0.670000,1620812671417846208
42,36.000000,0.177725,120.000000,0.487605,179.440000,1.960000,4.000000,0.780000,9.350000,-14.684000,-19.633000,-1.980000,-3.150000,0.010000,0.550000,0.710000,1620812671437864928
43,36.000000,0.177724,120.000000,0.487605,179.540000,1.840000,4.000000,0.830000,2.406000,6.986000,-19.593000,-2.000000,-3.430000,0.010000,0.730000,0.780000,1620812671457810464
44,36.000000,0.177724,120.000000,0.487605,179.580000,2.090000,4.000000,0.830000,0.384000,11.553000,-3.406000,-2.050000,-3.370000,0.010000,0.770000,0.780000,1620812671477808448
45,36.000000,0.177724,120.000000,0.487605,179.710000,2.150000,4.000000,0.830000,2.054000,0.500000,-4.304000,-2.090000,-3.330000,0.010000,0.810000,0.870000,1620812671497899552
46,36.000000,0.177724,120.000000,0.487605,179.760000,1.690000,4.000000,0.820000,-4.350000,-8.218000,-8.657000,-2.110000,-3.240000,0.010000,0.800000,0.900000,1620812671517887808
47,36.000000,0.177724,120.000000,0.487605,179.850000,2.120000,4.000000,0.820000,-4.244000,-1.187000,0.402000,-2.170000,-3.130000,0.000000,0.750000,1.000000,1620812671537929920
48,36.000000,0.177724,120.000000,0.487605,179.880000,1.690000,4.000000,0.820000,-1.909000,0.316000,-6.021000,-2.190000,-3.070000,0.000000,0.750000,1.020000,1620812671558021024
49,36.000000,0.177723,120.000000,0.487605,179.980000,1.760000,4.000000,0.810000,-1.551000,10.743000,-0.224000,-2.180000,-3.000000,0.010000,0.750000,1.090000,1620812671577880448
50,36.000000,0.177723,120.000000,0.487605,180.010000,1.990000,4.000000,0.810000,-2.196000,-6.342000,-7.768000,-2.200000,-2.950000,0.010000,0.700000,1.120000,1620812671597955200
51,36.000000,0.177723,120.000000,0.487605,180.130000,2.420000,4.000000,0.850000,2.480000,-2.468000,-10.310000,-2.260000,-2.930000,0.010000,0.730000,1.190000,1620812671617984320
52,36.000000,0.177723,120.000000,0.487605,180.190000,2.430000,4.000000,0.850000,-5.625000,-1.161000,-9.846000,-2.280000,-2.860000,0.010000,0.680000,1.200000,1620812671637799072
53,36.000000,0.177723,120.000000,0.487605,180.360000,2.660000,4.000000,0.780000,0.193000,-1.370000,-3.406000,-2.340000,-2.840000,0.010000,0.670000,1.280000,1620812671657810080
54,36.000000,0.177723,120.000000,0.487605,180.420000,2.670000,4.000000,0.780000,-3.353000,2.507000,-18.266000,-2.360000,-2.940000,0.000000,0.590000,1.320000,1620812671679130464
55,36.000000,0.177723,120.000000,0.487605,180.610000,2.740000,4.000000,0.780000,-10.425000,2.471000,-17.243000,-2.420000,-3.000000,0.000000,0.490000,1.400000,1620812671695974240
56,36.000000,0.177722,120.000000,0.487605,180.680000,3.080000,4.000000,0.800000,10.123000,0.751000,-10.453000,-2.440000,-3.010000,0.000000,0.600000,1.420000,1620812671718110944
57,36.000000,0.177722,120.000000,0.487605,180.860000,3.210000,4.000000,0.800000,2.050000,-2.197000,-7.116000,-2.500000,-3.140000,0.000000,0.630000,1.510000,1620812671737964352
58,36.000000,0.177722,120.000000,0.487605,180.920000,3.040000,4.000000,0.800000,3.241000,-2.434000,-15.686000,-2.510000,-3.190000,0.000000,0.690000,1.540000,1620812671757940608
59,36.000000,0.177722,120.000000,0.487605,181.090000,3.640000,4.000000,0.820000,3.705000,-3.755000,-8.663000,-2.570000,-3.110000,0.000000,0.700000,1.610000,1620812671777873088
60,36.000000,0.177722,120.000000,0.487605,181.210000,3.390000,4.000000,0.820000,0.680000,0.481000,-14.377000,-2.590000,-3.160000,0.000000,0.730000,1.640000,1620812671797831808
61,36.000000,0.177722,120.000000,0.487605,181.340000,3.580000,4.000000,0.830000,0.903000,2.942000,-9.123000,-2.650000,-3.050000,0.010000,0.770000,1.710000,1620812671817996352
62,36.000000,0.177722,120.000000,0.487605,181.490000,3.580000,4.000000,0.830000,4.933000,5.230000,-10.080000,-2.670000,-3.060000,0.010000,0.820000,1.730000,1620812671837814112
63,36.000000,0.177721,120.000000,0.487605,181.650000,3.590000,4.000000,0.820000,1.003000,2.399000,-12.790000,-2.720000,-3.090000,0.010000,0.840000,1.810000,1620812671857847136
64,36.000000,0.177721,120.000000,0.487605,181.780000,3.400000,4.000000,0.820000,9.711000,4.577000,-19.180000,-2.740000,-3.190000,0.010000,0.910000,1.840000,1620812671877865920
65,36.000000,0.177721,120.000000,0.487605,181.920000,3.880000,4.000000,0.820000,2.590000,-7.998000,-9.339000,-2.800000,-3.170000,0.010000,0.900000,1.920000,1620812671897854464
66,36.000000,0.177721,120.000000,0.487605,182.070000,3.880000,4.000000,0.890000,0.275000,3.292000,-5.413000,-2.820000,-3.130000,0.010000,0.890000,1.940000,1620812671918123712
67,36.000000,0.177721,120.000000,0.487604,182.220000,3.990000,4.000000,0.890000,1.754000,4.194000,-7.137000,-2.840000,-3.120000,0.010000,0.910000,2.000000,1620812671938775328
68,36.000000,0.177721,120.000000,0.487604,182.370000,4.040000,4.000000,0.900000,3.258000,0.954000,-12.248000,-2.830000,-3.150000,0.010000,0.920000,2.030000,1620812671955803296
69,36.000000,0.177720,120.000000,0.487604,182.450000,4.170000,4.000000,0.900000,-2.685000,6.913000,-6.050000,-2.800000,-3.130000,0.010000,0.930000,2.010000,1620812671978177440
70,36.000000,0.177720,120.000000,0.487604,182.690000,4.350000,4.000000,0.900000,5.039000,8.802000,-11.477000,-2.760000,-3.220000,0.010000,0.940000,1.990000,1620812671997819616
71,36.000000,0.177720,120.000000,0.487604,182.850000,4.650000,4.000000,0.930000,-0.309000,-2.566000,-5.376000,-2.740000,-3.180000,0.010000,0.940000,1.980000,1620812672018872736
72,36.000000,0.177720,120.000000,0.487604,183.020000,4.770000,4.000000,0.930000,3.203000,7.961000,-8.056000,-2.710000,-3.280000,0.010000,0.900000,1.980000,1620812672035931648
73,36.000000,0.177720,120.000000,0.487604,183.100000,5.260000,4.000000,0.930000,1.048000,5.369000,-7.536000,-2.700000,-3.240000,0.010000,0.930000,1.990000,1620812672057844192
74,36.000000,0.177720,120.000000,0.487604,183.360000,5.870000,4.000000,0.970000,8.871000,6.307000,-11.075000,-2.670000,-3.300000,0.010000,1.040000,2.010000,1620812672078007392
75,36.000000,0.177719,120.000000,0.487604,183.450000,5.820000,4.000000,0.970000,-4.639000,-9.397000,-13.629000,-2.650000,-3.370000,0.010000,0.960000,1.980000,1620812672098113696
76,36.000000,0.177719,120.000000,0.487604,183.740000,6.250000,4.000000,1.020000,-2.920000,-4.630000,-15.912000,-2.620000,-3.310000,0.020000,0.870000,2.000000,1620812672118035072
77,36.000000,0.177719,120.000000,0.487604,183.850000,6.550000,4.000000,1.020000,10.616000,10.473000,-15.578000,-2.600000,-3.370000,0.020000,1.060000,2.020000,1620812672135838336
78,36.000000,0.177719,120.000000,0.487604,184.190000,7.110000,4.000000,1.040000,6.849000,8.703000,-4.157000,-2.640000,-3.370000,0.020000,1.090000,2.030000,1620812672157845664
79,36.000000,0.177719,120.000000,0.487604,184.320000,7.420000,4.000000,1.040000,-5.006000,-10.868000,10.241000,-2.620000,-3.180000,0.020000,1.040000,1.990000,1620812672178120288
80,36.000000,0.177718,120.000000,0.487604,184.730000,7.540000,4.000000,1.040000,-1.517000,1.935000,-6.098000,-2.620000,-3.130000,0.020000,1.020000,2.060000,1620812672198011552
81,36.000000,0.177718,120.000000,0.487604,184.870000,7.740000,4.000000,1.040000,2.625000,-2.507000,-17.467000,-2.640000,-3.210000,0.020000,1.040000,2.030000,1620812672220153504
82,36.000000,0.177718,120.000000,0.487604,185.280000,8.120000,4.000000,1.040000,0.054000,-2.124000,-12.663000,-2.660000,-3.270000,0.020000,1.140000,2.100000,1620812672238038240
83,36.000000,0.177718,120.000000,0.487604,185.420000,8.480000,4.000000,1.040000,7.176000,0.585000,-1.571000,-2.650000,-3.190000,0.020000,1.170000,2.060000,1620812672261656064
84,36.000000,0.177718,120.000000,0.487604,185.820000,8.430000,4.000000,1.070000,-0.151000,7.598000,-19.522000,-2.600000,-3.350000,0.020000,1.130000,2.090000,1620812672277035232
85,36.000000,0.177718,120.000000,0.487604,186.120000,8.420000,4.000000,1.070000,2.775000,2.733000,-17.048000,-2.620000,-3.410000,0.020000,1.160000,2.120000,1620812672297069504
86,36.000000,0.177717,120.000000,0.487603,186.370000,8.710000,4.000000,1.050000,6.575000,7.045000,2.362000,-2.680000,-3.330000,0.030000,1.260000,2.010000,1620812672316976736
87,36.000000,0.177717,120.000000,0.487603,186.580000,8.970000,4.000000,1.050000,-3.264000,3.131000,-19.039000,-2.670000,-3.410000,0.030000,1.220000,1.980000,1620812672337025952
88,36.000000,0.177717,120.000000,0.487603,186.790000,9.270000,4.000000,1.100000,3.554000,2.097000,-16.895000,-2.620000,-3.580000,0.030000,1.250000,1.880000,1620812672356981568
89,36.000000,0.177717,120.000000,0.487603,187.000000,9.330000,4.000000,1.100000,11.172000,1.673000,-2.823000,-2.610000,-3.510000,0.030000,1.300000,1.840000,1620812672380459296
90,36.000000,0.177716,120.000000,0.487603,187.100000,9.320000,4.000000,1.100000,13.930000,11.728000,-3.346000,-2.580000,-3.590000,0.030000,1.240000,1.770000,1620812672396494656
91,36.000000,0.177716,120.000000,0.487603,187.420000,9.400000,4.000000,1.130000,-5.677000,14.001000,-12.906000,-2.550000,-3.630000,0.040000,1.230000,1.710000,1620812672416894176
92,36.000000,0.177716,120.000000,0.487603,187.530000,9.870000,4.000000,1.130000,-2.374000,12.511000,-1.432000,-2.530000,-3.710000,0.040000,1.320000,1.650000,1620812672436464768
93,36.000000,0.177716,120.000000,0.487603,187.870000,9.820000,4.000000,1.150000,1.828000,-9.186000,-4.953000,-2.490000,-3.630000,0.040000,1.290000,1.530000,1620812672456455392
94,36.000000,0.177716,120.000000,0.487603,187.980000,10.200000,4.000000,1.150000,-2.413000,-7.654000,-4.633000,-2.470000,-3.500000,0.040000,1.240000,1.500000,1620812672476473536
95,36.000000,0.177715,120.000000,0.487603,188.340000,10.870000,4.000000,1.150000,7.820000,10.632000,-7.370000,-2.430000,-3.460000,0.040000,1.260000,1.390000,1620812672496544160
96,36.000000,0.177715,120.000000,0.487602,188.460000,10.690000,4.000000,1.190000,6.005000,-5.688000,-19.666000,-2.410000,-3.520000,0.050000,1.320000,1.360000,1620812672517555968
97,36.000000,0.177715,120.000000,0.487602,188.840000,11.110000,4.000000,1.190000,1.532000,-3.783000,0.701000,-2.370000,-3.360000,0.050000,1.260000,1.270000,1620812672536383840
98,36.000000,0.177715,120.000000,0.487602,188.970000,11.170000,4.000000,1.190000,-6.215000,-0.607000,-8.515000,-2.350000,-3.340000,0.050000,1.200000,1.290000,1620812672556414848
99,36.000000,0.177715,120.000000,0.487602,189.350000,11.420000,4.000000,1.290000,-6.309000,11.220000,-14.930000,-2.310000,-3.430000,0.060000,1.310000,1.270000,1620812672576463136
100,36.000000,0.177715,120.000000,0.487602,189.610000,11.170000,4.000000,1.290000,-3.067000,3.428000,-13.261000,-2.290000,-3.450000,0.060000,1.280000,1.240000,1620812672596444992
101,36.000000,0.177714,120.000000,0.487602,189.870000,12.030000,4.000000,1.280000,-0.913000,4.640000,-8.111000,-2.250000,-3.280000,0.060000,1.100000,1.270000,1620812672616669824
102,36.000000,0.177714,120.000000,0.487602,190.140000,11.590000,4.000000,1.280000,3.256000,-0.420000,-18.431000,-2.240000,-3.360000,0.060000,1.140000,1.250000,1620812672636516352
103,36.000000,0.177714,120.000000,0.487602,190.400000,11.280000,4.000000,1.360000,19.922000,-7.702000,-3.824000,-2.230000,-3.380000,0.070000,1.250000,1.230000,1620812672659089600
104,36.000000,0.177714,120.000000,0.487602,190.660000,11.840000,4.000000,1.360000,20.308000,7.726000,-13.796000,-2.220000,-3.420000,0.070000,1.430000,1.200000,1620812672682283616
105,36.000000,0.177713,120.000000,0.487601,190.930000,11.840000,4.000000,1.360000,20.082000,6.226000,-8.127000,-2.180000,-3.340000,0.070000,1.670000,1.180000,1620812672696350784
106,36.000000,0.177713,120.000000,0.487601,190.930000,11.840000,4.000000,1.360000,20.082000,6.226000,-8.127000,-2.180000,-3.340000,0.070000,1.670000,1.180000,1620812672716493632
107,36.000000,0.177713,120.000000,0.487601,191.330000,10.110000,4.000000,1.420000,0.482000,-1.766000,-10.969000,-2.250000,-3.300000,0.080000,1.820000,1.150000,1620812672736242624
108,36.000000,0.177713,120.000000,0.487601,191.700000,10.240000,4.000000,1.400000,20.180000,-5.437000,-10.189000,-2.290000,-3.320000,0.080000,2.040000,1.160000,1620812672756275200
109,36.000000,0.177712,120.000000,0.487601,191.820000,11.340000,4.000000,1.400000,-6.948000,-0.234000,-11.293000,-2.300000,-3.340000,0.080000,2.020000,1.100000,1620812672776406592
110,36.000000,0.177712,120.000000,0.487600,192.200000,10.860000,4.000000,1.400000,13.118000,7.237000,-10.939000,-2.260000,-3.350000,0.080000,2.260000,1.130000,1620812672796294496
111,36.000000,0.177712,120.000000,0.487600,192.330000,10.000000,4.000000,1.450000,14.942000,-19.607000,-7.472000,-2.240000,-3.440000,0.080000,2.080000,1.110000,1620812672816506912
112,36.000000,0.177711,120.000000,0.487600,192.670000,10.110000,4.000000,1.450000,-13.739000,7.772000,-10.321000,-2.210000,-3.290000,0.090000,2.100000,1.070000,1620812672836352544
113,36.000000,0.177711,120.000000,0.487600,192.780000,9.690000,4.000000,1.450000,8.507000,-8.411000,-14.794000,-2.200000,-3.180000,0.090000,2.190000,1.100000,1620812672856408096
114,36.000000,0.177711,120.000000,0.487600,193.120000,9.810000,4.000000,1.410000,-7.330000,5.578000,-9.362000,-2.150000,-3.170000,0.090000,1.960000,1.060000,1620812672876280672
115,36.000000,0.177711,120.000000,0.487600,193.230000,9.450000,4.000000,1.410000,2.196000,-3.921000,-19.227000,-2.140000,-3.260000,0.090000,1.870000,1.030000,1620812672896401472
116,36.000000,0.177711,120.000000,0.487600,193.550000,9.070000,4.000000,1.410000,0.824000,-4.013000,-19.045000,-2.100000,-3.260000,0.100000,1.640000,0.940000,1620812672916728544
117,36.000000,0.177711,120.000000,0.487600,193.650000,8.770000,4.000000,1.410000,6.173000,-2.411000,-19.591000,-2.090000,-3.320000,0.100000,1.800000,0.960000,1620812672936457888
118,36.000000,0.177710,120.000000,0.487599,193.960000,9.320000,4.000000,1.380000,1.202000,-5.995000,-8.489000,-2.050000,-3.260000,0.100000,1.740000,0.930000,1620812672956400576
119,36.000000,0.177710,120.000000,0.487599,194.060000,8.900000,4.000000,1.380000,7.906000,1.895000,-19.462000,-2.040000,-3.300000,0.100000,1.930000,0.960000,1620812672976254432
120,36.000000,0.177710,120.000000,0.487599,194.360000,8.470000,4.000000,1.380000,7.084000,4.778000,-1.382000,-2.030000,-3.290000,0.100000,1.870000,0.920000,1620812672996322848
121,36.000000,0.177710,120.000000,0.487599,194.500000,8.290000,4.000000,1.360000,-0.752000,-1.848000,-15.070000,-2.050000,-3.260000,0.100000,1.920000,0.950000,1620812673022269568
122,36.000000,0.177709,120.000000,0.487599,194.830000,8.890000,4.000000,1.360000,1.304000,-3.891000,2.152000,-2.040000,-3.080000,0.100000,1.940000,0.970000,1620812673036161728
123,36.000000,0.177709,120.000000,0.487599,194.930000,8.720000,4.000000,1.360000,-2.341000,4.422000,-18.132000,-2.030000,-3.160000,0.100000,1.910000,1.000000,1620812673058275168
124,36.000000,0.177709,120.000000,0.487598,195.260000,8.390000,4.000000,1.370000,-2.937000,-2.394000,-2.808000,-1.990000,-3.180000,0.110000,2.030000,1.020000,1620812673076227648
125,36.000000,0.177709,120.000000,0.487598,195.540000,8.270000,4.000000,1.370000,-4.328000,-3.381000,-17.524000,-1.980000,-3.250000,0.110000,1.980000,1.050000,1620812673098219808
126,36.000000,0.177708,120.000000,0.487598,195.810000,8.330000,4.000000,1.310000,-15.744000,-4.967000,-3.696000,-1.940000,-3.230000,0.110000,1.860000,1.060000,1620812673118192960
127,36.000000,0.177708,120.000000,0.487598,196.070000,8.210000,4.000000,1.310000,-1.416000,-4.951000,-14.335000,-1.930000,-3.270000,0.110000,1.730000,1.100000,1620812673138179840
128,36.000000,0.177708,120.000000,0.487598,196.330000,8.020000,4.000000,1.360000,-10.495000,-4.681000,-7.215000,-1.890000,-3.320000,0.110000,1.630000,1.160000,1620812673158381664
129,36.000000,0.177708,120.000000,0.487598,196.570000,7.540000,4.000000,1.360000,1.323000,-8.696000,-10.725000,-1.880000,-3.320000,0.110000,1.630000,1.200000,1620812673176313216
130,36.000000,0.177708,120.000000,0.487598,196.690000,7.490000,4.000000,1.360000,-2.781000,4.324000,-4.560000,-1.850000,-3.270000,0.110000,1.700000,1.250000,1620812673196248736
131,36.000000,0.177707,120.000000,0.487598,197.040000,7.740000,4.000000,1.290000,-1.117000,-4.646000,-9.746000,-1.820000,-3.190000,0.110000,1.560000,1.300000,1620812673216276448
132,36.000000,0.177707,120.000000,0.487598,197.160000,7.510000,4.000000,1.290000,-2.384000,5.349000,-8.910000,-1.790000,-3.110000,0.110000,1.560000,1.280000,1620812673236296608
133,36.000000,0.177707,120.000000,0.487597,197.500000,7.150000,4.000000,1.370000,0.440000,-6.074000,-13.301000,-1.760000,-3.140000,0.110000,1.370000,1.330000,1620812673256476576
134,36.000000,0.177707,120.000000,0.487597,197.610000,7.150000,4.000000,1.370000,-4.495000,6.403000,-11.158000,-1.720000,-3.200000,0.120000,1.340000,1.390000,1620812673276339296
135,36.000000,0.177707,120.000000,0.487597,197.940000,6.840000,4.000000,1.370000,-5.973000,-7.825000,-10.606000,-1.670000,-3.280000,0.120000,1.380000,1.400000,1620812673296164416
136,36.000000,0.177707,120.000000,0.487597,198.050000,6.960000,4.000000,1.370000,-5.134000,5.152000,-6.455000,-1.690000,-3.250000,0.120000,1.280000,1.430000,1620812673318190656
137,36.000000,0.177706,120.000000,0.487597,198.340000,6.470000,4.000000,1.310000,-7.563000,-8.807000,-18.984000,-1.670000,-3.140000,0.120000,1.320000,1.490000,1620812673338215968
138,36.000000,0.177706,120.000000,0.487597,198.430000,6.400000,4.000000,1.310000,-2.344000,3.665000,-11.610000,-1.690000,-3.240000,0.120000,1.230000,1.520000,1620812673358300480
139,36.000000,0.177706,120.000000,0.487597,198.690000,5.960000,4.000000,1.230000,-10.782000,-12.332000,-13.938000,-1.750000,-3.120000,0.110000,1.240000,1.520000,1620812673376256544
140,36.000000,0.177706,120.000000,0.487597,198.780000,5.950000,4.000000,1.230000,-2.165000,-1.610000,-6.973000,-1.770000,-3.120000,0.110000,1.160000,1.500000,1620812673396278848
141,36.000000,0.177705,120.000000,0.487596,199.030000,5.770000,4.000000,1.290000,-9.481000,-9.388000,-8.876000,-1.800000,-3.110000,0.120000,1.220000,1.520000,1620812673416186560
142,36.000000,0.177705,120.000000,0.487596,199.110000,5.700000,4.000000,1.290000,-1.690000,-0.728000,-11.932000,-1.820000,-3.120000,0.120000,1.180000,1.550000,1620812673438558880
143,36.000000,0.177705,120.000000,0.487596,199.330000,5.330000,4.000000,1.290000,-12.963000,-8.898000,-9.297000,-1.890000,-3.140000,0.120000,1.250000,1.580000,1620812673456180736
144,36.000000,0.177705,120.000000,0.487596,199.400000,5.320000,4.000000,1.290000,8.140000,11.557000,-3.178000,-1.880000,-3.070000,0.120000,1.240000,1.590000,1620812673478588992
145,36.000000,0.177705,120.000000,0.487596,199.540000,5.200000,4.000000,1.290000,10.091000,-4.897000,-19.584000,-1.920000,-3.170000,0.120000,1.340000,1.650000,1620812673496340960
146,36.000000,0.177704,120.000000,0.487596,199.690000,5.260000,4.000000,1.310000,9.436000,11.872000,1.844000,-1.970000,-2.990000,0.120000,1.280000,1.630000,1620812673516309024
147,36.000000,0.177704,120.000000,0.487596,199.820000,5.020000,4.000000,1.310000,5.112000,-2.482000,-19.675000,-2.010000,-3.090000,0.120000,1.320000,1.690000,1620812673536244768
148,36.000000,0.177704,120.000000,0.487596,199.960000,5.140000,4.000000,1.310000,6.076000,15.201000,4.272000,-2.050000,-2.970000,0.120000,1.350000,1.690000,1620812673556211168
149,36.000000,0.177704,120.000000,0.487596,200.160000,4.930000,4.000000,1.270000,0.916000,-11.915000,-12.185000,-2.110000,-3.080000,0.120000,1.350000,1.750000,1620812673580773888
150,36.000000,0.177703,120.000000,0.487595,200.280000,4.870000,4.000000,1.270000,3.744000,11.778000,7.576000,-2.100000,-2.920000,0.120000,1.380000,1.760000,1620812673596719776
151,36.000000,0.177703,120.000000,0.487595,200.340000,5.060000,4.000000,1.290000,1.501000,-8.112000,-19.974000,-2.100000,-3.020000,0.120000,1.390000,1.760000,1620812673616873248
152,36.000000,0.177703,120.000000,0.487595,200.540000,4.450000,4.000000,1.290000,6.211000,13.370000,2.168000,-2.070000,-2.950000,0.120000,1.380000,1.820000,1620812673636738144
153,36.000000,0.177703,120.000000,0.487595,200.600000,4.760000,4.000000,1.290000,-6.773000,1.456000,-10.882000,-2.040000,-3.070000,0.120000,1.320000,1.810000,1620812673656736032
154,36.000000,0.177703,120.000000,0.487595,200.780000,4.150000,4.000000,1.290000,3.593000,7.067000,8.583000,-2.000000,-2.950000,0.120000,1.350000,1.870000,1620812673676659232
155,36.000000,0.177702,120.000000,0.487595,200.900000,4.160000,4.000000,1.290000,4.213000,-9.700000,-19.972000,-1.950000,-3.010000,0.120000,1.320000,1.960000,1620812673699601152
156,36.000000,0.177702,120.000000,0.487595,201.000000,3.970000,4.000000,1.270000,3.660000,8.885000,5.912000,-1.930000,-2.860000,0.130000,1.330000,1.920000,1620812673717646400
157,36.000000,0.177702,120.000000,0.487595,201.050000,4.210000,4.000000,1.270000,4.157000,7.718000,-11.290000,-1.900000,-2.930000,0.130000,1.350000,1.910000,1620812673735546880
158,36.000000,0.177702,120.000000,0.487595,201.190000,3.160000,4.000000,1.220000,-2.498000,3.618000,-13.012000,-1.860000,-3.070000,0.130000,1.400000,1.910000,1620812673757538208
159,36.000000,0.177702,120.000000,0.487594,201.230000,3.400000,4.000000,1.220000,6.892000,10.147000,-9.226000,-1.830000,-3.080000,0.120000,1.390000,1.910000,1620812673777585600
160,36.000000,0.177701,120.000000,0.487594,201.340000,2.900000,4.000000,1.220000,-8.383000,-10.548000,-12.261000,-1.800000,-3.200000,0.120000,1.310000,1.900000,1620812673797481952
161,36.000000,0.177701,120.000000,0.487594,201.380000,3.080000,4.000000,1.270000,8.564000,13.264000,-9.215000,-1.780000,-3.220000,0.120000,1.330000,1.840000,1620812673817719456
162,36.000000,0.177701,120.000000,0.487594,201.430000,2.280000,4.000000,1.270000,-8.324000,-8.367000,-9.700000,-1.740000,-3.270000,0.120000,1.200000,1.860000,1620812673835632352
163,36.000000,0.177701,120.000000,0.487594,201.450000,2.340000,4.000000,1.270000,9.271000,9.437000,-2.152000,-1.730000,-3.270000,0.120000,1.200000,1.800000,1620812673857617376
164,36.000000,0.177701,120.000000,0.487594,201.470000,1.780000,4.000000,1.280000,-2.267000,3.236000,-1.518000,-1.710000,-3.110000,0.120000,1.270000,1.770000,1620812673877679488
165,36.000000,0.177700,120.000000,0.487594,201.480000,1.530000,4.000000,1.280000,8.812000,15.487000,-4.017000,-1.690000,-3.100000,0.120000,1.260000,1.790000,1620812673897644416
166,36.000000,0.177700,120.000000,0.487594,201.480000,1.600000,4.000000,1.250000,-12.316000,-9.774000,-9.223000,-1.710000,-3.100000,0.120000,1.260000,1.740000,1620812673917713504
167,36.000000,0.177700,120.000000,0.487594,201.470000,1.050000,4.000000,1.250000,8.619000,-4.264000,-19.656000,-1.680000,-3.090000,0.110000,1.210000,1.780000,1620812673937571680
168,36.000000,0.177700,120.000000,0.487594,201.460000,0.990000,4.000000,1.250000,-9.626000,-8.254000,-9.716000,-1.700000,-3.030000,0.110000,1.210000,1.720000,1620812673957561760
169,36.000000,0.177699,120.000000,0.487594,201.410000,0.820000,4.000000,1.280000,2.701000,10.333000,-6.686000,-1.690000,-3.110000,0.110000,1.210000,1.770000,1620812673977602144
170,36.000000,0.177699,120.000000,0.487594,201.400000,0.940000,4.000000,1.280000,-6.073000,-3.287000,-11.445000,-1.710000,-3.100000,0.110000,1.210000,1.780000,1620812673997531840
171,36.000000,0.177699,120.000000,0.487593,201.330000,0.510000,4.000000,1.260000,-1.549000,7.877000,-6.509000,-1.780000,-3.010000,0.110000,1.230000,1.840000,1620812674017637952
172,36.000000,0.177699,120.000000,0.487593,201.270000,0.260000,4.000000,1.260000,-3.705000,1.042000,-7.303000,-1.800000,-2.990000,0.110000,1.200000,1.790000,1620812674037535648
173,36.000000,0.177698,120.000000,0.487593,201.220000,0.440000,4.000000,1.270000,3.073000,9.662000,-13.568000,-1.860000,-3.050000,0.110000,1.250000,1.800000,1620812674057491040
174,36.000000,0.177698,120.000000,0.487593,201.160000,-0.040000,4.000000,1.270000,3.135000,-6.294000,-16.994000,-1.880000,-3.120000,0.110000,1.280000,1.780000,1620812674083878432
175,36.000000,0.177698,120.000000,0.487593,201.120000,0.090000,4.000000,1.270000,-7.169000,-9.733000,-7.602000,-1.930000,-3.010000,0.110000,1.260000,1.780000,1620812674097873568
176,36.000000,0.177698,120.000000,0.487593,201.030000,-0.230000,4.000000,1.290000,6.639000,-5.901000,-19.410000,-1.970000,-3.080000,0.100000,1.240000,1.850000,1620812674117986880
177,36.000000,0.177698,120.000000,0.487593,201.000000,-0.100000,4.000000,1.290000,-7.940000,-7.495000,-10.082000,-2.010000,-2.980000,0.100000,1.170000,1.850000,1620812674137982240
178,36.000000,0.177697,120.000000,0.487593,200.900000,-0.410000,4.000000,1.190000,11.603000,-4.703000,-19.519000,-2.080000,-3.010000,0.100000,1.270000,1.870000,1620812674158091072
179,36.000000,0.177697,120.000000,0.487593,200.860000,-15.750000,4.000000,1.190000,-14.105000,-11.016000,-8.109000,-2.090000,-3.010000,0.090000,1.160000,1.850000,1620812674178044352
180,36.000000,0.177697,120.000000,0.487593,200.620000,-0.520000,4.000000,1.190000,10.314000,-4.585000,-19.560000,-2.080000,-3.090000,0.090000,1.360000,1.870000,1620812674198053120
181,36.000000,0.177697,120.000000,0.487593,200.580000,-0.450000,4.000000,1.270000,-2.343000,-2.592000,-7.754000,-2.100000,-2.990000,0.100000,1.280000,1.870000,1620812674217947360
182,36.000000,0.177697,120.000000,0.487593,200.520000,-0.640000,4.000000,1.270000,9.809000,12.276000,-7.976000,-2.070000,-2.980000,0.100000,1.380000,1.880000,1620812674237901856
183,36.000000,0.177696,120.000000,0.487593,200.450000,-0.580000,4.000000,1.270000,-2.418000,-5.141000,-8.174000,-2.080000,-3.010000,0.100000,1.400000,1.910000,1620812674258020736
184,36.000000,0.177696,120.000000,0.487593,200.400000,-0.770000,4.000000,1.230000,6.207000,12.146000,-1.405000,-2.050000,-2.940000,0.090000,1.460000,1.910000,1620812674277883200
185,36.000000,0.177696,120.000000,0.487592,200.310000,-0.790000,4.000000,1.230000,-3.970000,-6.568000,-8.050000,-2.060000,-3.030000,0.090000,1.400000,1.940000,1620812674297869216
186,36.000000,0.177696,120.000000,0.487592,200.250000,-0.850000,4.000000,1.200000,-8.619000,1.085000,-13.497000,-2.030000,-3.070000,0.090000,1.420000,1.890000,1620812674324652160
187,36.000000,0.177695,120.000000,0.487592,200.200000,-1.160000,4.000000,1.200000,2.808000,-7.149000,-16.272000,-2.010000,-3.130000,0.090000,1.390000,1.960000,1620812674336299360
188,36.000000,0.177695,120.000000,0.487592,200.170000,-1.090000,4.000000,1.200000,-4.057000,7.749000,-4.947000,-1.990000,-2.950000,0.090000,1.320000,1.950000,1620812674356216032
189,36.000000,0.177695,120.000000,0.487592,200.060000,-1.340000,4.000000,1.230000,7.594000,-8.469000,-18.599000,-1.970000,-3.050000,0.090000,1.350000,1.970000,1620812674379057984
190,36.000000,0.177695,120.000000,0.487592,200.010000,-1.380000,4.000000,1.230000,-2.750000,7.960000,-7.686000,-1.940000,-2.880000,0.090000,1.340000,1.970000,1620812674396165280
191,36.000000,0.177695,120.000000,0.487592,199.870000,-1.560000,4.000000,1.260000,11.076000,-4.594000,-19.569000,-1.910000,-3.030000,0.090000,1.480000,1.940000,1620812674418264000
192,36.000000,0.177694,120.000000,0.487592,199.830000,-1.560000,4.000000,1.260000,-1.941000,3.514000,-7.308000,-1.910000,-3.110000,0.090000,1.390000,1.910000,1620812674436255744
193,36.000000,0.177694,120.000000,0.487592,199.700000,-1.860000,4.000000,1.230000,7.199000,-9.149000,-19.845000,-1.880000,-3.230000,0.090000,1.510000,1.870000,1620812674456412128
194,36.000000,0.177694,120.000000,0.487592,199.650000,-1.860000,4.000000,1.230000,-5.997000,-1.232000,-5.937000,-1.880000,-3.200000,0.080000,1.350000,1.840000,1620812674476339424
195,36.000000,0.177694,120.000000,0.487592,199.480000,-2.110000,4.000000,1.230000,-8.497000,-5.379000,-13.267000,-1.830000,-3.090000,0.080000,1.400000,1.850000,1620812674496174912
196,36.000000,0.177694,120.000000,0.487592,199.420000,-2.230000,4.000000,1.080000,0.413000,-1.931000,-12.323000,-1.820000,-3.150000,0.070000,1.270000,1.850000,1620812674518262784
197,36.000000,0.177693,120.000000,0.487592,199.280000,-2.300000,4.000000,1.080000,-10.276000,-7.290000,-6.248000,-1.770000,-3.080000,0.070000,1.220000,1.800000,1620812674536214304
198,36.000000,0.177693,120.000000,0.487592,199.230000,-2.540000,4.000000,1.080000,-2.612000,-9.214000,-5.996000,-1.760000,-3.010000,0.070000,1.080000,1.800000,1620812674558358656
199,36.000000,0.177693,120.000000,0.487591,199.030000,-2.860000,4.000000,1.230000,-6.125000,-4.077000,-7.213000,-1.750000,-3.080000,0.080000,1.160000,1.790000,1620812674576319040
200,36.000000,0.177693,120.000000,0.487591,198.960000,-3.230000,4.000000,1.230000,-0.939000,-12.318000,-10.796000,-1.740000,-3.070000,0.080000,1.100000,1.830000,1620812674596248736
201,36.000000,0.177693,120.000000,0.487591,198.720000,-3.300000,4.000000,1.220000,-0.849000,0.175000,-8.517000,-1.760000,-3.190000,0.070000,1.120000,1.860000,1620812674616292576
202,36.000000,0.177692,120.000000,0.487591,198.640000,-3.420000,4.000000,1.220000,-1.944000,4.569000,7.071000,-1.750000,-3.010000,0.070000,1.140000,1.820000,1620812674636285568
203,36.000000,0.177692,120.000000,0.487591,198.390000,-3.840000,4.000000,1.280000,1.470000,3.028000,-9.075000,-1.810000,-3.110000,0.070000,1.180000,1.800000,1620812674656341920
204,36.000000,0.177692,120.000000,0.487591,198.310000,-4.030000,4.000000,1.280000,-4.006000,3.124000,6.419000,-1.830000,-2.950000,0.070000,1.190000,1.820000,1620812674676215552
205,36.000000,0.177692,120.000000,0.487591,198.050000,-4.260000,4.000000,1.280000,3.948000,-8.071000,-19.899000,-1.880000,-3.180000,0.070000,1.260000,1.760000,1620812674700291264
206,36.000000,0.177691,120.000000,0.487591,197.870000,-4.370000,4.000000,1.250000,3.955000,-8.077000,-19.895000,-1.900000,-3.270000,0.070000,1.290000,1.740000,1620812674716389952
207,36.000000,0.177691,120.000000,0.487591,197.770000,-4.490000,4.000000,1.250000,-0.645000,1.049000,-10.312000,-1.930000,-3.290000,0.070000,1.210000,1.760000,1620812674736248096
208,36.000000,0.177691,120.000000,0.487591,197.470000,-4.540000,4.000000,1.220000,-5.400000,1.526000,1.637000,-1.970000,-3.270000,0.070000,1.200000,1.770000,1620812674756281216
209,36.000000,0.177691,120.000000,0.487591,197.370000,-4.730000,4.000000,1.220000,10.284000,14.859000,-8.061000,-2.000000,-3.250000,0.060000,1.240000,1.760000,1620812674776337824
210,36.000000,0.177690,120.000000,0.487591,197.040000,-4.890000,4.000000,1.220000,-8.655000,-8.069000,-13.389000,-2.040000,-3.280000,0.060000,1.280000,1.750000,1620812674796302336
211,36.000000,0.177690,120.000000,0.487591,196.940000,-5.090000,4.000000,1.230000,6.158000,7.628000,-2.235000,-2.020000,-3.240000,0.060000,1.250000,1.710000,1620812674816409344
212,36.000000,0.177690,120.000000,0.487591,196.610000,-5.400000,4.000000,1.230000,0.721000,-7.384000,-7.552000,-2.040000,-3.240000,0.060000,1.240000,1.710000,1620812674836266656
213,36.000000,0.177690,120.000000,0.487591,196.500000,-5.350000,4.000000,1.230000,4.157000,9.966000,0.972000,-2.050000,-3.110000,0.060000,1.280000,1.680000,1620812674856272992
214,36.000000,0.177690,120.000000,0.487591,196.180000,-5.410000,4.000000,1.220000,4.440000,-8.202000,-15.576000,-2.070000,-3.200000,0.060000,1.290000,1.680000,1620812674879078016
215,36.000000,0.177689,120.000000,0.487591,196.080000,-5.420000,4.000000,1.220000,4.193000,7.089000,5.579000,-2.050000,-3.110000,0.060000,1.370000,1.700000,1620812674897221056
216,36.000000,0.177689,120.000000,0.487591,195.750000,-5.780000,4.000000,1.190000,5.890000,-14.442000,-13.029000,-2.040000,-3.190000,0.050000,1.350000,1.680000,1620812674917201920
217,36.000000,0.177689,120.000000,0.487591,195.630000,-5.740000,4.000000,1.190000,-3.806000,2.472000,10.182000,-2.020000,-3.030000,0.050000,1.290000,1.650000,1620812674937197184
218,36.000000,0.177689,120.000000,0.487591,195.280000,-5.730000,4.000000,1.220000,8.970000,-8.467000,-19.721000,-1.970000,-3.100000,0.050000,1.280000,1.680000,1620812674957195232
219,36.000000,0.177689,120.000000,0.487591,195.170000,-5.670000,4.000000,1.220000,-6.571000,5.355000,5.416000,-1.960000,-3.050000,0.050000,1.280000,1.650000,1620812674977384224
220,36.000000,0.177688,120.000000,0.487591,194.820000,-5.960000,4.000000,1.220000,3.163000,-8.003000,-19.903000,-1.910000,-3.180000,0.050000,1.330000,1.640000,1620812674997255264
221,36.000000,0.177688,120.000000,0.487591,194.700000,-5.730000,4.000000,1.210000,-7.568000,0.713000,6.644000,-1.890000,-3.020000,0.040000,1.250000,1.610000,1620812675017142208
222,36.000000,0.177688,120.000000,0.487591,194.450000,-5.710000,4.000000,1.210000,-1.985000,-3.901000,-11.579000,-1.860000,-3.040000,0.040000,1.230000,1.550000,1620812675037349312
223,36.000000,0.177688,120.000000,0.487591,194.210000,-5.780000,4.000000,1.210000,-8.993000,-5.450000,-10.372000,-1.860000,-3.140000,0.040000,1.240000,1.560000,1620812675057042496
224,36.000000,0.177687,120.000000,0.487591,193.960000,-5.830000,4.000000,1.250000,-1.704000,-5.008000,-12.843000,-1.820000,-3.160000,0.040000,1.230000,1.500000,1620812675077194624
225,36.000000,0.177687,120.000000,0.487591,193.580000,-6.320000,4.000000,1.250000,-9.842000,-5.848000,-6.747000,-1.780000,-3.170000,0.040000,1.240000,1.510000,1620812675097492800
226,36.000000,0.177687,120.000000,0.487591,193.450000,-6.390000,4.000000,1.220000,-3.134000,-9.685000,-7.351000,-1.750000,-3.140000,0.040000,1.220000,1.520000,1620812675117254880
227,36.000000,0.177687,120.000000,0.487591,193.080000,-6.390000,4.000000,1.220000,-1.885000,2.463000,-7.523000,-1.720000,-2.980000,0.040000,1.220000,1.570000,1620812675137169184
228,36.000000,0.177686,120.000000,0.487591,192.950000,-6.520000,4.000000,1.220000,4.527000,-6.974000,-14.277000,-1.700000,-2.950000,0.040000,1.270000,1.550000,1620812675157217568
229,36.000000,0.177686,120.000000,0.487591,192.570000,-6.940000,4.000000,1.230000,0.858000,-10.042000,-13.319000,-1.630000,-2.950000,0.030000,1.260000,1.490000,1620812675177146944
230,36.000000,0.177686,120.000000,0.487591,192.440000,-6.820000,4.000000,1.230000,-5.553000,-7.389000,-11.737000,-1.620000,-3.010000,0.030000,1.210000,1.460000,1620812675197126112
231,36.000000,0.177686,120.000000,0.487591,192.180000,-6.830000,4.000000,1.220000,-5.553000,-7.389000,-11.737000,-1.650000,-3.040000,0.030000,1.220000,1.460000,1620812675217322624
232,36.000000,0.177685,120.000000,0.487591,191.770000,-7.190000,4.000000,1.220000,-5.460000,-6.265000,-13.990000,-1.620000,-3.170000,0.030000,1.230000,1.410000,1620812675237064768
233,36.000000,0.177685,120.000000,0.487591,191.630000,-7.260000,4.000000,1.220000,7.552000,11.862000,-14.009000,-1.620000,-3.230000,0.030000,1.220000,1.410000,1620812675257143680
234,36.000000,0.177685,120.000000,0.487591,191.200000,-7.490000,4.000000,1.270000,-5.771000,-3.235000,-7.893000,-1.570000,-3.170000,0.030000,1.160000,1.380000,1620812675277084128
235,36.000000,0.177685,120.000000,0.487591,191.050000,-7.500000,4.000000,1.270000,8.331000,7.970000,-4.548000,-1.560000,-3.100000,0.030000,1.240000,1.340000,1620812675297228928
236,36.000000,0.177685,120.000000,0.487591,190.610000,-7.540000,4.000000,1.220000,-11.169000,-6.395000,-8.083000,-1.570000,-3.050000,0.030000,1.140000,1.310000,1620812675317183200
237,36.000000,0.177685,120.000000,0.487591,190.470000,-7.950000,4.000000,1.220000,4.799000,0.400000,-19.633000,-1.550000,-3.100000,0.020000,1.210000,1.280000,1620812675337331424
238,36.000000,0.177684,120.000000,0.487591,190.020000,-8.250000,4.000000,1.220000,-3.717000,-0.885000,-13.393000,-1.550000,-3.200000,0.020000,1.190000,1.210000,1620812675357147168
239,36.000000,0.177684,120.000000,0.487591,189.850000,-8.730000,4.000000,1.220000,-7.910000,-8.046000,-12.800000,-1.530000,-3.190000,0.020000,1.140000,1.180000,1620812675377172288
240,36.000000,0.177684,120.000000,0.487591,189.420000,-8.620000,4.000000,1.220000,-5.014000,-3.117000,5.110000,-1.550000,-3.200000,0.020000,1.160000,1.180000,1620812675397151648
241,36.000000,0.177684,120.000000,0.487591,189.310000,-8.980000,4.000000,1.190000,-12.648000,-6.042000,-6.911000,-1.580000,-3.030000,0.010000,0.990000,1.170000,1620812675417123104
242,36.000000,0.177683,120.000000,0.487591,189.100000,-9.220000,4.000000,1.190000,0.888000,5.748000,-12.675000,-1.600000,-3.060000,0.010000,1.040000,1.130000,1620812675437094592
243,36.000000,0.177683,120.000000,0.487591,188.760000,-9.710000,4.000000,1.190000,-15.996000,-9.265000,1.702000,-1.620000,-2.930000,0.010000,1.030000,1.090000,1620812675457152416
244,36.000000,0.177683,120.000000,0.487591,188.650000,-10.470000,4.000000,1.190000,8.443000,0.378000,-19.522000,-1.650000,-2.930000,0.010000,1.030000,1.120000,1620812675477155008
245,36.000000,0.177683,120.000000,0.487591,188.270000,-10.810000,4.000000,1.190000,-8.672000,-4.253000,0.360000,-1.680000,-2.860000,0.010000,0.930000,1.090000,1620812675497113856
246,36.000000,0.177683,120.000000,0.487591,188.150000,-10.900000,4.000000,1.170000,3.459000,-5.777000,-19.777000,-1.720000,-3.000000,0.010000,1.010000,1.070000,1620812675517229440
247,36.000000,0.177682,120.000000,0.487591,187.770000,-11.410000,4.000000,1.170000,7.013000,7.634000,3.042000,-1.760000,-2.770000,0.010000,1.010000,1.050000,1620812675537094400
248,36.000000,0.177682,120.000000,0.487591,187.640000,-11.350000,4.000000,1.170000,1.570000,-1.779000,-19.755000,-1.790000,-2.880000,0.010000,1.030000,1.030000,1620812675557164736
249,36.000000,0.177682,120.000000,0.487591,187.270000,-11.540000,4.000000,1.250000,-0.300000,6.125000,4.536000,-1.870000,-2.780000,0.000000,1.010000,1.000000,1620812675577137728
250,36.000000,0.177682,120.000000,0.487591,187.010000,-11.270000,4.000000,1.250000,-4.345000,-3.804000,-19.981000,-1.890000,-2.890000,0.000000,0.970000,0.970000,1620812675597091584
251,36.000000,0.177681,120.000000,0.487591,186.760000,-11.190000,4.000000,1.290000,-3.014000,7.284000,4.427000,-1.960000,-2.950000,0.000000,1.070000,0.920000,1620812675617069664
252,36.000000,0.177681,120.000000,0.487591,186.490000,-10.930000,4.000000,1.290000,-6.123000,-8.358000,-20.115000,-1.980000,-3.060000,0.000000,1.070000,0.890000,1620812675637211424
253,36.000000,0.177681,120.000000,0.487592,186.230000,-10.910000,4.000000,1.320000,-5.496000,-0.565000,6.281000,-2.030000,-3.050000,-0.010000,1.180000,0.830000,1620812675657450048
254,36.000000,0.177681,120.000000,0.487592,185.980000,-10.290000,4.000000,1.320000,-13.145000,-13.959000,-7.513000,-2.040000,-3.030000,-0.010000,1.110000,0.790000,1620812675677221280
255,36.000000,0.177681,120.000000,0.487592,185.850000,-10.830000,4.000000,1.320000,8.919000,-3.635000,-19.503000,-2.070000,-2.980000,-0.010000,1.250000,0.790000,1620812675697152192
256,36.000000,0.177680,120.000000,0.487592,185.470000,-10.520000,4.000000,1.290000,-11.640000,0.069000,-13.013000,-2.100000,-3.120000,-0.010000,1.210000,0.790000,1620812675717307072
257,36.000000,0.177680,120.000000,0.487592,185.350000,-10.700000,4.000000,1.290000,-2.274000,-1.659000,-17.003000,-2.120000,-3.000000,-0.010000,1.290000,0.730000,1620812675737151936
258,36.000000,0.177680,120.000000,0.487592,184.980000,-11.440000,4.000000,1.290000,10.655000,-13.756000,-9.077000,-2.140000,-3.110000,-0.010000,1.340000,0.710000,1620812675757172064
259,36.000000,0.177679,120.000000,0.487592,184.710000,-11.270000,4.000000,1.290000,-3.462000,-7.838000,-17.077000,-2.180000,-2.940000,-0.020000,1.110000,0.720000,1620812675779621280
260,36.000000,0.177679,120.000000,0.487592,184.440000,-11.820000,4.000000,1.290000,9.874000,-11.471000,-19.538000,-2.190000,-3.040000,-0.020000,1.210000,0.680000,1620812675797538688
261,36.000000,0.177679,120.000000,0.487592,184.300000,-11.640000,4.000000,1.220000,-15.533000,-1.696000,-0.646000,-2.180000,-2.940000,-0.020000,1.130000,0.690000,1620812675817671392
262,36.000000,0.177679,120.000000,0.487592,183.890000,-12.140000,4.000000,1.220000,7.205000,-1.209000,-19.515000,-2.230000,-3.040000,-0.020000,1.170000,0.760000,1620812675837557472
263,36.000000,0.177679,120.000000,0.487592,183.750000,-11.960000,4.000000,1.220000,-11.277000,-6.364000,-3.480000,-2.250000,-3.000000,-0.020000,1.140000,0.720000,1620812675857541568
264,36.000000,0.177678,120.000000,0.487592,183.320000,-12.910000,4.000000,1.290000,6.079000,-10.051000,-19.678000,-2.250000,-2.900000,-0.030000,1.250000,0.820000,1620812675883482464
265,36.000000,0.177678,120.000000,0.487592,183.170000,-13.030000,4.000000,1.290000,-12.208000,-4.266000,-2.797000,-2.270000,-2.820000,-0.030000,1.140000,0.820000,1620812675897496416
266,36.000000,0.177678,120.000000,0.487592,183.020000,-12.730000,4.000000,1.290000,4.416000,14.345000,9.051000,-2.260000,-2.650000,-0.030000,1.190000,0.840000,1620812675917517952
267,36.000000,0.177678,120.000000,0.487593,182.580000,-12.830000,4.000000,1.350000,0.254000,-17.539000,-15.198000,-2.320000,-2.820000,-0.030000,1.260000,0.840000,1620812675937529952
268,36.000000,0.177677,120.000000,0.487593,182.130000,-12.740000,4.000000,1.280000,-2.677000,-9.543000,-20.037000,-2.370000,-2.730000,-0.030000,1.260000,0.840000,1620812675957572608
269,36.000000,0.177677,120.000000,0.487593,181.980000,-13.160000,4.000000,1.280000,4.374000,-12.379000,-19.792000,-2.380000,-2.870000,-0.040000,1.280000,0.890000,1620812675977493088
270,36.000000,0.177677,120.000000,0.487593,181.530000,-12.760000,4.000000,1.280000,-4.378000,-10.158000,-19.640000,-2.410000,-2.770000,-0.040000,1.210000,0.920000,1620812675997636224
271,36.000000,0.177677,120.000000,0.487593,181.380000,-12.930000,4.000000,1.280000,4.463000,-10.540000,-18.772000,-2.420000,-2.900000,-0.040000,1.300000,0.920000,1620812676017564224
272,36.000000,0.177677,120.000000,0.487593,180.920000,-12.700000,4.000000,1.280000,11.717000,10.307000,-17.351000,-2.340000,-2.900000,-0.040000,1.320000,0.900000,1620812676037483232
273,36.000000,0.177676,120.000000,0.487593,180.770000,-12.890000,4.000000,1.280000,9.216000,2.294000,-19.335000,-2.310000,-3.000000,-0.040000,1.410000,0.940000,1620812676057580064
274,36.000000,0.177676,120.000000,0.487593,180.320000,-12.780000,4.000000,1.230000,6.968000,3.555000,-6.224000,-2.310000,-2.850000,-0.040000,1.320000,0.930000,1620812676077462944
275,36.000000,0.177676,120.000000,0.487593,180.170000,-12.910000,4.000000,1.230000,8.795000,2.397000,-16.601000,-2.320000,-2.930000,-0.040000,1.370000,0.960000,1620812676099668832
276,36.000000,0.177676,120.000000,0.487594,179.720000,-13.240000,4.000000,1.170000,7.034000,4.504000,-0.595000,-2.300000,-2.890000,-0.050000,1.330000,0.950000,1620812676117930240
277,36.000000,0.177676,120.000000,0.487594,179.400000,-13.320000,4.000000,1.170000,4.800000,1.245000,-16.453000,-2.280000,-2.970000,-0.050000,1.340000,0.930000,1620812676135811360
278,36.000000,0.177675,120.000000,0.487594,179.090000,-13.640000,4.000000,1.220000,0.263000,2.432000,5.247000,-2.270000,-2.870000,-0.050000,1.270000,0.910000,1620812676157792448
279,36.000000,0.177675,120.000000,0.487594,178.770000,-13.520000,4.000000,1.220000,-2.995000,-4.428000,-16.566000,-2.250000,-2.950000,-0.050000,1.230000,0.890000,1620812676177651008
280,36.000000,0.177675,120.000000,0.487594,178.460000,-14.140000,4.000000,1.220000,-6.022000,3.080000,8.606000,-2.210000,-2.830000,-0.050000,1.230000,0.810000,1620812676197749376
281,36.000000,0.177675,120.000000,0.487594,178.130000,-14.060000,4.000000,1.270000,0.473000,3.434000,-16.650000,-2.200000,-2.900000,-0.060000,1.240000,0.790000,1620812676223075104
282,36.000000,0.177675,120.000000,0.487594,177.960000,-14.300000,4.000000,1.270000,7.126000,-4.725000,-19.567000,-2.170000,-2.940000,-0.060000,1.320000,0.740000,1620812676237207680
283,36.000000,0.177674,120.000000,0.487594,177.460000,-14.530000,4.000000,1.300000,0.647000,-5.978000,-11.176000,-2.120000,-2.990000,-0.060000,1.290000,0.670000,1620812676257027392
284,36.000000,0.177674,120.000000,0.487594,177.290000,-14.640000,4.000000,1.300000,5.539000,-2.852000,-19.605000,-2.100000,-3.080000,-0.070000,1.400000,0.660000,1620812676277066848
285,36.000000,0.177674,120.000000,0.487595,176.780000,-15.080000,4.000000,1.300000,1.787000,1.495000,1.669000,-2.040000,-2.830000,-0.070000,1.300000,0.600000,1620812676297086400
286,36.000000,0.177674,120.000000,0.487595,176.600000,-15.310000,4.000000,1.290000,0.616000,2.490000,-17.580000,-2.020000,-2.920000,-0.070000,1.300000,0.580000,1620812676317572864
287,36.000000,0.177673,120.000000,0.487595,176.070000,-15.740000,4.000000,1.290000,-5.176000,-4.257000,4.890000,-1.960000,-2.810000,-0.070000,1.270000,0.530000,1620812676337028672
288,36.000000,0.177673,120.000000,0.487595,175.890000,-15.870000,4.000000,1.290000,1.910000,3.627000,-16.377000,-1.940000,-2.880000,-0.070000,1.290000,0.520000,1620812676357014496
289,36.000000,0.177673,120.000000,0.487595,175.350000,-16.360000,4.000000,1.270000,-7.657000,-10.359000,7.499000,-1.890000,-2.750000,-0.080000,1.280000,0.460000,1620812676377130656
290,36.000000,0.177673,120.000000,0.487595,174.970000,-15.880000,4.000000,1.270000,-5.817000,-5.007000,-12.346000,-1.870000,-2.790000,-0.080000,1.230000,0.460000,1620812676396993120
291,36.000000,0.177673,120.000000,0.487596,174.790000,-16.190000,4.000000,1.310000,14.406000,12.908000,-6.330000,-1.890000,-2.770000,-0.080000,1.350000,0.430000,1620812676417215776
292,36.000000,0.177673,120.000000,0.487596,174.220000,-16.400000,4.000000,1.310000,-0.906000,-7.824000,-5.897000,-1.850000,-2.820000,-0.090000,1.300000,0.390000,1620812676437074720
293,36.000000,0.177672,120.000000,0.487596,173.840000,-16.630000,4.000000,1.300000,-8.793000,0.007000,-9.355000,-1.880000,-2.850000,-0.090000,1.330000,0.310000,1620812676457197312
294,36.000000,0.177672,120.000000,0.487596,173.460000,-16.650000,4.000000,1.300000,5.278000,-11.231000,-3.955000,-1.870000,-2.800000,-0.090000,1.360000,0.300000,1620812676477122784
295,36.000000,0.177672,120.000000,0.487596,173.270000,-16.330000,4.000000,1.300000,-6.018000,1.337000,-19.961000,-1.880000,-2.640000,-0.090000,1.390000,0.260000,1620812676497202048
296,36.000000,0.177672,120.000000,0.487596,172.700000,-16.690000,4.000000,1.410000,9.656000,-10.829000,-16.831000,-1.890000,-2.860000,-0.100000,1.470000,0.220000,1620812676516993984
297,36.000000,0.177671,120.000000,0.487596,172.510000,-16.500000,4.000000,1.410000,0.978000,0.311000,-14.696000,-1.860000,-2.750000,-0.100000,1.380000,0.180000,1620812676537116192
298,36.000000,0.177671,120.000000,0.487597,171.950000,-15.700000,4.000000,1.330000,9.084000,-0.835000,-19.482000,-1.830000,-2.960000,-0.100000,1.630000,0.140000,1620812676557049120
299,36.000000,0.177671,120.000000,0.487597,171.760000,-16.060000,4.000000,1.330000,2.928000,-9.179000,-8.898000,-1.800000,-2.920000,-0.100000,1.530000,0.100000,1620812676577128864
300,36.000000,0.177671,120.000000,0.487597,171.200000,-15.760000,4.000000,1.330000,1.532000,-1.153000,-19.723000,-1.770000,-2.990000,-0.100000,1.650000,0.060000,1620812676597017024
301,36.000000,0.177671,120.000000,0.487597,171.020000,-15.940000,4.000000,1.390000,1.331000,-8.763000,-8.272000,-1.740000,-2.910000,-0.110000,1.550000,0.010000,1620812676617076416
302,36.000000,0.177670,120.000000,0.487597,170.470000,-15.450000,4.000000,1.390000,1.422000,5.800000,-9.351000,-1.690000,-2.940000,-0.110000,1.530000,-0.050000,1620812676636961216
303,36.000000,0.177670,120.000000,0.487597,170.290000,-15.690000,4.000000,1.390000,2.505000,-9.925000,-14.241000,-1.680000,-3.000000,-0.110000,1.500000,-0.070000,1620812676657008672
304,36.000000,0.177670,120.000000,0.487598,169.930000,-15.330000,4.000000,1.320000,2.501000,-9.928000,-14.239000,-1.650000,-3.050000,-0.120000,1.480000,-0.090000,1620812676676984960
305,36.000000,0.177670,120.000000,0.487598,169.400000,-15.510000,4.000000,1.320000,3.625000,-10.180000,-14.683000,-1.620000,-3.170000,-0.120000,1.470000,-0.140000,1620812676696948128
306,36.000000,0.177670,120.000000,0.487598,169.220000,-15.510000,4.000000,1.300000,-10.214000,-8.747000,-7.436000,-1.590000,-3.140000,-0.120000,1.360000,-0.170000,1620812676717193888
307,36.000000,0.177669,120.000000,0.487598,168.690000,-15.150000,4.000000,1.300000,7.888000,-1.574000,-18.783000,-1.570000,-3.270000,-0.120000,1.430000,-0.170000,1620812676737076192
308,36.000000,0.177669,120.000000,0.487598,168.510000,-15.270000,4.000000,1.300000,-9.108000,-6.349000,-6.217000,-1.540000,-3.230000,-0.120000,1.330000,-0.150000,1620812676757217696
309,36.000000,0.177669,120.000000,0.487599,167.980000,-15.520000,4.000000,1.350000,-4.061000,-0.664000,-10.269000,-1.500000,-3.270000,-0.130000,1.350000,-0.110000,1620812676777038048
310,36.000000,0.177669,120.000000,0.487599,167.800000,-15.390000,4.000000,1.350000,-2.413000,-7.335000,-8.295000,-1.490000,-3.210000,-0.130000,1.210000,-0.070000,1620812676797324832
311,36.000000,0.177669,120.000000,0.487599,167.440000,-15.450000,4.000000,1.320000,8.178000,6.036000,-4.739000,-1.480000,-3.210000,-0.130000,1.210000,-0.090000,1620812676817155872
312,36.000000,0.177669,120.000000,0.487599,167.090000,-15.090000,4.000000,1.320000,1.939000,-10.093000,-12.525000,-1.500000,-3.220000,-0.130000,1.260000,-0.040000,1620812676837113248
313,36.000000,0.177668,120.000000,0.487599,166.560000,-15.270000,4.000000,1.330000,-2.168000,5.529000,-6.936000,-1.530000,-3.250000,-0.140000,1.210000,0.010000,1620812676857162368
314,36.000000,0.177668,120.000000,0.487599,166.200000,-15.580000,4.000000,1.330000,4.494000,-8.801000,-16.418000,-1.520000,-3.320000,-0.140000,1.260000,0.050000,1620812676877193216
315,36.000000,0.177668,120.000000,0.487600,166.020000,-15.450000,4.000000,1.330000,-0.308000,1.335000,-14.086000,-1.520000,-3.380000,-0.140000,1.230000,0.070000,1620812676897111680
316,36.000000,0.177668,120.000000,0.487600,165.500000,-15.570000,4.000000,1.310000,-2.541000,0.458000,1.366000,-1.530000,-3.270000,-0.140000,1.260000,0.080000,1620812676917084288
317,36.000000,0.177667,120.000000,0.487600,165.140000,-15.200000,4.000000,1.310000,5.479000,8.627000,-6.627000,-1.550000,-3.210000,-0.140000,1.260000,0.070000,1620812676939101792
318,36.000000,0.177667,120.000000,0.487600,164.790000,-15.440000,4.000000,1.360000,-1.289000,4.372000,-7.063000,-1.570000,-3.210000,-0.140000,1.260000,0.110000,1620812676956975776
319,36.000000,0.177667,120.000000,0.487600,164.610000,-15.500000,4.000000,1.360000,-2.174000,-6.194000,-8.439000,-1.600000,-3.150000,-0.150000,1.220000,0.130000,1620812676983621024
320,36.000000,0.177667,120.000000,0.487601,164.070000,-15.250000,4.000000,1.360000,-1.095000,3.421000,-9.388000,-1.630000,-3.240000,-0.150000,1.250000,0.100000,1620812676997533984
321,36.000000,0.177667,120.000000,0.487601,163.900000,-15.560000,4.000000,1.280000,-1.549000,-9.432000,-7.264000,-1.630000,-3.170000,-0.150000,1.190000,0.130000,1620812677017583776
322,36.000000,0.177667,120.000000,0.487601,163.370000,-15.560000,4.000000,1.280000,-0.375000,4.260000,-7.407000,-1.680000,-3.270000,-0.150000,1.270000,0.190000,1620812677037516768
323,36.000000,0.177667,120.000000,0.487601,163.190000,-15.690000,4.000000,1.280000,-1.043000,0.184000,1.072000,-1.690000,-3.270000,-0.150000,1.270000,0.180000,1620812677057570528
324,36.000000,0.177666,120.000000,0.487601,162.830000,-15.440000,4.000000,1.290000,-2.677000,-1.185000,-10.922000,-1.730000,-3.170000,-0.160000,1.250000,0.200000,1620812677077564736
325,36.000000,0.177666,120.000000,0.487601,162.480000,-15.510000,4.000000,1.290000,-4.469000,-0.334000,2.641000,-1.760000,-3.090000,-0.160000,1.260000,0.160000,1620812677097562976
326,36.000000,0.177666,120.000000,0.487602,162.130000,-15.510000,4.000000,1.310000,-6.635000,-5.974000,-11.579000,-1.800000,-3.110000,-0.160000,1.200000,0.190000,1620812677117648832
327,36.000000,0.177666,120.000000,0.487602,161.600000,-15.330000,4.000000,1.310000,-7.219000,-0.107000,3.176000,-1.840000,-3.120000,0.150000,1.230000,0.160000,1620812677137790752
328,36.000000,0.177666,120.000000,0.487602,161.430000,-15.450000,4.000000,1.310000,-8.920000,-8.931000,-10.576000,-1.800000,-3.120000,0.150000,1.180000,0.120000,1620812677158021376
329,36.000000,0.177665,120.000000,0.487602,160.890000,-15.450000,4.000000,1.310000,-9.458000,-0.232000,-0.318000,-1.820000,-3.140000,0.150000,1.210000,0.120000,1620812677177635648
330,36.000000,0.177665,120.000000,0.487602,160.720000,-15.450000,4.000000,1.310000,9.184000,7.815000,-2.982000,-1.810000,-3.070000,0.150000,1.260000,0.080000,1620812677197555584
331,36.000000,0.177665,120.000000,0.487603,160.180000,-15.190000,4.000000,1.290000,-6.111000,5.128000,-6.937000,-1.860000,-3.140000,0.150000,1.240000,0.070000,1620812677217745600
332,36.000000,0.177665,120.000000,0.487603,160.010000,-15.930000,4.000000,1.290000,4.706000,8.862000,-5.813000,-1.840000,-3.100000,0.150000,1.280000,0.090000,1620812677237488768
333,36.000000,0.177665,120.000000,0.487603,159.460000,-15.800000,4.000000,1.330000,-2.771000,4.854000,-10.176000,-1.880000,-3.200000,0.160000,1.250000,0.090000,1620812677257601376
334,36.000000,0.177665,120.000000,0.487603,159.100000,-15.920000,4.000000,1.330000,-2.036000,1.580000,3.774000,-1.900000,-3.070000,0.160000,1.240000,0.060000,1620812677277567872
