frame,pgsnh,gpsnl,gpseh,gpsel,heading_angle,yaw_rate,gps_state,gps_velocity,acceleration_forward,acceleration_lateral,acceleration_down,pitch_angle,velocity_down,velocity_lateral,velocity_forward,roll_angle,timestamp
1,36.000000,0.177730,120.000000,0.487751,176.600000,-0.060000,4.000000,0.970000,-1.450000,-4.341000,-13.529000,-0.200000,-3.150000,0.020000,0.860000,0.110000,1621685593624333944
2,36.000000,0.177730,120.000000,0.487751,176.580000,-0.240000,4.000000,0.970000,0.321000,0.007000,-2.367000,-0.200000,-3.110000,0.020000,0.900000,0.070000,1621685593644340272
3,36.000000,0.177730,120.000000,0.487751,176.570000,0.240000,4.000000,1.010000,2.187000,1.697000,-11.624000,-0.230000,-3.140000,0.020000,0.940000,0.060000,1621685593664288810
4,36.000000,0.177730,120.000000,0.487751,176.580000,0.060000,4.000000,1.010000,0.891000,-6.790000,-15.327000,-0.260000,-3.220000,0.020000,0.990000,0.090000,1621685593684277986
5,36.000000,0.177730,120.000000,0.487751,176.560000,0.250000,4.000000,1.040000,-0.421000,4.074000,-3.612000,-0.360000,-3.270000,0.020000,1.010000,0.030000,1621685593704285402
6,36.000000,0.177730,120.000000,0.487751,176.530000,0.500000,4.000000,1.040000,1.137000,4.639000,-2.123000,-0.390000,-3.130000,0.020000,1.030000,0.050000,1621685593724383630
7,36.000000,0.177729,120.000000,0.487751,176.430000,0.380000,4.000000,1.020000,1.510000,6.275000,-6.679000,-0.470000,-3.230000,0.020000,1.030000,0.040000,1621685593744580030
8,36.000000,0.177729,120.000000,0.487751,176.450000,0.330000,4.000000,1.020000,2.503000,-2.669000,-18.032000,-0.490000,-3.280000,0.020000,1.060000,0.070000,1621685593764262402
9,36.000000,0.177729,120.000000,0.487751,176.490000,0.330000,4.000000,1.020000,-1.840000,-3.941000,-17.727000,-0.530000,-3.200000,0.020000,1.060000,0.040000,1621685593784275578
10,36.000000,0.177729,120.000000,0.487751,176.540000,0.090000,4.000000,1.000000,-1.427000,-6.504000,-17.455000,-0.570000,-3.280000,0.030000,1.020000,0.060000,1621685593804388013
11,36.000000,0.177729,120.000000,0.487751,176.490000,0.220000,4.000000,1.000000,-3.533000,5.248000,-3.073000,-0.570000,-3.210000,0.030000,0.990000,0.040000,1621685593824328712
12,36.000000,0.177728,120.000000,0.487751,176.440000,0.290000,4.000000,1.000000,3.086000,-1.811000,-20.031000,-0.530000,-3.250000,0.030000,1.000000,0.070000,1621685593844477242
13,36.000000,0.177728,120.000000,0.487751,176.380000,0.410000,4.000000,0.950000,8.617000,7.078000,-3.862000,-0.480000,-3.190000,0.020000,1.050000,0.080000,1621685593864396917
14,36.000000,0.177728,120.000000,0.487751,176.300000,-0.210000,4.000000,0.950000,7.418000,-11.174000,-11.530000,-0.440000,-3.150000,0.020000,1.120000,0.050000,1621685593884596229
15,36.000000,0.177728,120.000000,0.487751,176.260000,0.220000,4.000000,0.930000,1.091000,4.039000,-3.341000,-0.400000,-3.090000,0.020000,1.120000,0.060000,1621685593904331111
16,36.000000,0.177728,120.000000,0.487751,176.250000,-0.210000,4.000000,0.930000,6.862000,1.295000,1.421000,-0.390000,-3.050000,0.020000,1.120000,0.070000,1621685593924420380
17,36.000000,0.177727,120.000000,0.487751,176.240000,0.220000,4.000000,0.930000,-8.419000,0.686000,-7.502000,-0.440000,-3.020000,0.020000,0.990000,0.080000,1621685593944431379
18,36.000000,0.177727,120.000000,0.487751,176.260000,0.080000,4.000000,0.960000,-3.581000,5.637000,-12.102000,-0.450000,-3.100000,0.020000,1.030000,0.060000,1621685593964335695
19,36.000000,0.177727,120.000000,0.487752,176.270000,-0.290000,4.000000,0.960000,1.190000,-3.873000,-6.199000,-0.440000,-3.050000,0.020000,1.040000,0.050000,1621685593984364390
20,36.000000,0.177727,120.000000,0.487751,176.310000,0.190000,4.000000,1.010000,-1.817000,1.401000,-12.458000,-0.420000,-3.130000,0.020000,0.950000,0.040000,1621685594004247010
21,36.000000,0.177727,120.000000,0.487751,176.350000,0.190000,4.000000,1.010000,-4.344000,1.899000,-8.135000,-0.420000,-3.180000,0.030000,0.960000,0.030000,1621685594024305461
22,36.000000,0.177727,120.000000,0.487752,176.490000,0.670000,4.000000,1.040000,1.994000,5.686000,-2.160000,-0.450000,-3.040000,0.030000,0.960000,-0.010000,1621685594044276107
23,36.000000,0.177726,120.000000,0.487752,176.470000,0.560000,4.000000,1.040000,0.412000,3.466000,-18.807000,-0.440000,-3.150000,0.030000,0.990000,0.010000,1621685594064278560
24,36.000000,0.177726,120.000000,0.487752,176.420000,1.060000,4.000000,1.040000,-3.954000,-0.378000,-5.217000,-0.420000,-3.150000,0.030000,0.950000,-0.060000,1621685594084307316
25,36.000000,0.177726,120.000000,0.487752,176.400000,1.060000,4.000000,1.020000,1.307000,-3.103000,-8.341000,-0.440000,-3.090000,0.030000,0.940000,-0.110000,1621685594104234988
26,36.000000,0.177726,120.000000,0.487752,176.480000,1.380000,4.000000,1.020000,2.724000,3.193000,-12.597000,-0.490000,-3.140000,0.030000,0.920000,-0.060000,1621685594124204291
27,36.000000,0.177726,120.000000,0.487752,176.510000,1.450000,4.000000,1.020000,3.385000,4.475000,-6.350000,-0.510000,-3.140000,0.030000,0.990000,-0.110000,1621685594145153522
28,36.000000,0.177725,120.000000,0.487752,176.610000,1.570000,4.000000,1.020000,5.302000,1.425000,-11.033000,-0.550000,-3.100000,0.030000,0.970000,-0.150000,1621685594164390726
29,36.000000,0.177725,120.000000,0.487752,176.640000,1.640000,4.000000,1.020000,-2.642000,-4.591000,-20.074000,-0.560000,-3.210000,0.030000,1.000000,-0.110000,1621685594184312798
30,36.000000,0.177725,120.000000,0.487752,176.750000,1.880000,4.000000,0.970000,3.265000,0.405000,-1.609000,-0.590000,-3.130000,0.030000,0.980000,-0.200000,1621685594204406448
31,36.000000,0.177725,120.000000,0.487752,176.790000,1.700000,4.000000,0.970000,3.012000,-3.180000,-20.015000,-0.600000,-3.150000,0.030000,1.020000,-0.200000,1621685594224325256
32,36.000000,0.177725,120.000000,0.487752,176.850000,1.820000,4.000000,0.970000,10.049000,13.523000,-2.418000,-0.610000,-3.080000,0.030000,1.090000,-0.220000,1621685594244407674
33,36.000000,0.177725,120.000000,0.487752,177.000000,1.940000,4.000000,0.960000,5.122000,-11.723000,-18.489000,-0.610000,-3.130000,0.030000,1.050000,-0.230000,1621685594264240406
34,36.000000,0.177725,120.000000,0.487752,177.220000,1.940000,4.000000,0.960000,-0.553000,-6.907000,-20.034000,-0.600000,-3.020000,0.030000,1.130000,-0.250000,1621685594284318344
35,36.000000,0.177724,120.000000,0.487752,177.440000,1.560000,4.000000,0.960000,4.339000,-13.627000,-11.169000,-0.610000,-3.040000,0.030000,1.160000,-0.260000,1621685594304201826
36,36.000000,0.177724,120.000000,0.487752,177.630000,1.680000,4.000000,0.960000,-3.686000,9.239000,3.165000,-0.620000,-2.920000,0.030000,1.120000,-0.320000,1621685594324254389
37,36.000000,0.177724,120.000000,0.487752,177.730000,2.040000,4.000000,0.960000,5.902000,-1.942000,-11.849000,-0.620000,-2.940000,0.030000,1.120000,-0.310000,1621685594344820083
38,36.000000,0.177724,120.000000,0.487752,178.030000,1.360000,4.000000,1.030000,-4.709000,9.985000,0.514000,-0.610000,-2.840000,0.030000,1.070000,-0.320000,1621685594364357243
39,36.000000,0.177723,120.000000,0.487752,178.300000,1.350000,4.000000,1.030000,-4.099000,0.265000,-12.153000,-0.610000,-2.850000,0.030000,1.010000,-0.320000,1621685594384306994
40,36.000000,0.177723,120.000000,0.487752,178.390000,1.290000,4.000000,1.030000,-0.628000,4.649000,2.640000,-0.610000,-2.740000,0.030000,1.010000,-0.360000,1621685594404382628
41,36.000000,0.177723,120.000000,0.487752,178.470000,1.420000,4.000000,1.030000,-5.199000,0.437000,-11.566000,-0.610000,-2.730000,0.030000,0.970000,-0.350000,1621685594424245951
42,36.000000,0.177723,120.000000,0.487752,178.690000,1.480000,4.000000,1.030000,-3.570000,0.562000,-13.136000,-0.610000,-2.900000,0.030000,0.990000,-0.380000,1621685594444243476
43,36.000000,0.177723,120.000000,0.487752,178.780000,1.370000,4.000000,0.930000,2.251000,-7.403000,-10.735000,-0.600000,-2.900000,0.030000,0.970000,-0.470000,1621685594464351557
44,36.000000,0.177723,120.000000,0.487752,178.780000,1.430000,4.000000,0.930000,-5.228000,-5.484000,-9.644000,-0.590000,-2.880000,0.030000,0.850000,-0.500000,1621685594484356474
45,36.000000,0.177723,120.000000,0.487752,178.800000,1.680000,4.000000,1.040000,-6.938000,1.602000,-19.133000,-0.630000,-2.920000,0.030000,0.860000,-0.500000,1621685594504295986
46,36.000000,0.177722,120.000000,0.487752,178.810000,1.380000,4.000000,1.040000,11.029000,-1.866000,-11.332000,-0.670000,-2.950000,0.030000,0.990000,-0.530000,1621685594524428834
47,36.000000,0.177722,120.000000,0.487752,178.850000,1.510000,4.000000,1.000000,-2.745000,-5.773000,-17.836000,-0.710000,-2.990000,0.030000,1.020000,-0.560000,1621685594544291868
48,36.000000,0.177722,120.000000,0.487752,178.870000,1.140000,4.000000,1.000000,5.514000,-6.928000,-13.224000,-0.730000,-3.010000,0.030000,1.110000,-0.560000,1621685594564571142
49,36.000000,0.177722,120.000000,0.487752,178.940000,1.450000,4.000000,1.000000,11.381000,11.934000,1.771000,-0.760000,-2.930000,0.030000,1.170000,-0.570000,1621685594584303814
50,36.000000,0.177722,120.000000,0.487752,178.960000,1.450000,4.000000,0.950000,-3.868000,7.092000,-17.343000,-0.780000,-3.010000,0.020000,1.130000,-0.580000,1621685594604280925
51,36.000000,0.177721,120.000000,0.487752,178.990000,1.810000,4.000000,0.950000,-2.684000,10.062000,3.451000,-0.770000,-2.840000,0.020000,1.030000,-0.600000,1621685594624394253
52,36.000000,0.177721,120.000000,0.487752,179.010000,1.380000,4.000000,0.950000,6.468000,0.839000,-12.702000,-0.750000,-2.880000,0.020000,1.060000,-0.620000,1621685594644450816
53,36.000000,0.177721,120.000000,0.487752,178.990000,1.380000,4.000000,0.950000,-7.427000,7.665000,-1.030000,-0.690000,-2.880000,0.020000,0.950000,-0.660000,1621685594664419030
54,36.000000,0.177721,120.000000,0.487752,178.960000,1.070000,4.000000,0.950000,7.789000,1.977000,-7.989000,-0.710000,-2.870000,0.020000,1.030000,-0.690000,1621685594684387181
55,36.000000,0.177721,120.000000,0.487752,178.930000,1.440000,4.000000,1.010000,5.462000,-11.964000,-13.891000,-0.680000,-3.070000,0.020000,1.050000,-0.770000,1621685594704434368
56,36.000000,0.177721,120.000000,0.487752,178.900000,1.010000,4.000000,1.010000,-4.124000,6.994000,-2.078000,-0.680000,-3.000000,0.020000,1.010000,-0.800000,1621685594724360024
57,36.000000,0.177720,120.000000,0.487752,178.850000,0.820000,4.000000,1.010000,-4.145000,-3.491000,-20.054000,-0.670000,-3.190000,0.020000,0.980000,-0.880000,1621685594744446890
58,36.000000,0.177720,120.000000,0.487752,178.990000,0.700000,4.000000,1.010000,-3.559000,-0.477000,-12.055000,-0.670000,-3.210000,0.020000,0.950000,-0.900000,1621685594764373794
59,36.000000,0.177720,120.000000,0.487752,179.060000,1.190000,4.000000,1.010000,0.139000,-3.496000,-13.281000,-0.690000,-3.190000,0.020000,0.970000,-0.970000,1621685594784312538
60,36.000000,0.177720,120.000000,0.487752,179.260000,0.710000,4.000000,1.060000,-2.340000,-7.859000,-19.955000,-0.670000,-3.270000,0.020000,0.950000,-0.970000,1621685594804253938
61,36.000000,0.177720,120.000000,0.487752,179.310000,0.830000,4.000000,1.060000,0.833000,-1.539000,-17.188000,-0.650000,-3.290000,0.020000,1.010000,-0.960000,1621685594824404833
62,36.000000,0.177719,120.000000,0.487752,179.460000,0.710000,4.000000,1.030000,-1.477000,-7.020000,-19.958000,-0.640000,-3.390000,0.020000,1.020000,-0.970000,1621685594844269243
63,36.000000,0.177719,120.000000,0.487752,179.480000,0.710000,4.000000,1.030000,-0.887000,-3.565000,-19.718000,-0.640000,-3.460000,0.020000,1.040000,-0.960000,1621685594864279952
64,36.000000,0.177719,120.000000,0.487752,179.500000,0.770000,4.000000,1.030000,-1.367000,-9.444000,-12.020000,-0.670000,-3.480000,0.020000,1.010000,-0.920000,1621685594884332419
65,36.000000,0.177719,120.000000,0.487752,179.510000,0.410000,4.000000,0.940000,-0.746000,-2.520000,-20.030000,-0.670000,-3.350000,0.020000,1.030000,-0.890000,1621685594904383830
66,36.000000,0.177719,120.000000,0.487752,179.450000,0.650000,4.000000,0.940000,-2.117000,-12.212000,-17.880000,-0.660000,-3.470000,0.010000,0.980000,-0.870000,1621685594924316750
67,36.000000,0.177719,120.000000,0.487752,179.430000,-0.330000,4.000000,0.940000,5.454000,-13.092000,-19.812000,-0.660000,-3.310000,0.010000,1.010000,-0.810000,1621685594944457342
68,36.000000,0.177718,120.000000,0.487752,179.460000,1.390000,4.000000,0.960000,-0.998000,7.424000,1.968000,-0.610000,-3.230000,0.010000,1.110000,-0.870000,1621685594964486962
69,36.000000,0.177718,120.000000,0.487752,179.500000,-0.140000,4.000000,0.960000,-2.554000,-20.327000,-19.808000,-0.580000,-3.210000,0.010000,1.060000,-0.780000,1621685594984896758
70,36.000000,0.177718,120.000000,0.487752,179.570000,0.530000,4.000000,0.950000,-1.394000,-7.038000,-12.766000,-0.530000,-3.060000,0.010000,0.970000,-0.800000,1621685595004256773
71,36.000000,0.177718,120.000000,0.487752,179.570000,0.530000,4.000000,0.950000,-1.394000,-7.038000,-12.766000,-0.530000,-3.060000,0.010000,0.970000,-0.800000,1621685595024439504
72,36.000000,0.177718,120.000000,0.487752,179.460000,1.320000,4.000000,0.950000,6.365000,-20.289000,-19.769000,-0.450000,-3.280000,0.010000,0.940000,-0.690000,1621685595044574109
73,36.000000,0.177718,120.000000,0.487752,179.430000,0.650000,4.000000,1.000000,0.834000,-11.182000,-19.918000,-0.430000,-3.370000,0.010000,1.000000,-0.690000,1621685595064334265
74,36.000000,0.177717,120.000000,0.487752,179.350000,1.320000,4.000000,1.000000,2.294000,-20.231000,-19.865000,-0.360000,-3.550000,0.010000,1.040000,-0.620000,1621685595084292206
75,36.000000,0.177717,120.000000,0.487752,179.300000,1.070000,4.000000,1.070000,-0.348000,-13.037000,-19.926000,-0.370000,-3.810000,0.010000,1.060000,-0.590000,1621685595104218275
76,36.000000,0.177717,120.000000,0.487752,179.300000,1.490000,4.000000,1.070000,5.845000,-4.270000,-16.371000,-0.410000,-3.850000,0.010000,1.100000,-0.570000,1621685595124392686
77,36.000000,0.177717,120.000000,0.487752,179.290000,1.430000,4.000000,1.070000,4.866000,-20.218000,-19.855000,-0.460000,-4.080000,0.010000,1.090000,-0.470000,1621685595144859022
78,36.000000,0.177716,120.000000,0.487752,179.320000,1.180000,4.000000,1.150000,1.393000,14.337000,7.508000,-0.520000,-3.890000,0.010000,1.120000,-0.470000,1621685595164398707
79,36.000000,0.177716,120.000000,0.487752,179.360000,1.000000,4.000000,1.150000,2.168000,-20.217000,-19.876000,-0.500000,-3.980000,0.010000,1.130000,-0.470000,1621685595184245132
80,36.000000,0.177716,120.000000,0.487752,179.370000,0.940000,4.000000,1.190000,-5.488000,-19.959000,13.424000,-0.490000,-3.730000,0.010000,1.090000,-0.470000,1621685595204264670
81,36.000000,0.177716,120.000000,0.487752,179.330000,1.120000,4.000000,1.190000,-5.134000,-20.212000,-19.946000,-0.510000,-3.970000,0.010000,1.060000,-0.450000,1621685595224236305
82,36.000000,0.177716,120.000000,0.487752,179.310000,0.270000,4.000000,1.190000,0.276000,-18.347000,-19.931000,-0.570000,-4.120000,0.010000,1.100000,-0.330000,1621685595244320192
83,36.000000,0.177715,120.000000,0.487752,179.290000,1.490000,4.000000,1.270000,-2.749000,-20.160000,-19.979000,-0.550000,-3.890000,0.010000,1.100000,-0.300000,1621685595264230391
84,36.000000,0.177715,120.000000,0.487752,179.300000,0.340000,4.000000,1.270000,3.335000,-20.083000,-6.294000,-0.590000,-3.910000,0.010000,1.230000,-0.240000,1621685595284398818
85,36.000000,0.177715,120.000000,0.487752,179.300000,0.290000,4.000000,1.220000,2.798000,-20.122000,-19.961000,-0.630000,-3.960000,0.010000,1.280000,-0.190000,1621685595304248475
86,36.000000,0.177715,120.000000,0.487752,179.310000,0.410000,4.000000,1.220000,6.163000,-20.043000,11.109000,-0.660000,-3.810000,0.010000,1.300000,-0.080000,1621685595324343594
87,36.000000,0.177715,120.000000,0.487752,179.330000,0.960000,4.000000,1.220000,1.169000,-7.437000,-20.027000,-0.670000,-3.890000,0.010000,1.300000,-0.130000,1621685595344269695
88,36.000000,0.177714,120.000000,0.487752,179.320000,0.660000,4.000000,1.190000,-1.058000,-20.025000,-20.104000,-0.710000,-4.120000,0.010000,1.240000,0.090000,1621685595365574269
89,36.000000,0.177714,120.000000,0.487752,179.280000,0.290000,4.000000,1.190000,-4.513000,-14.825000,-20.176000,-0.750000,-3.960000,0.010000,1.170000,0.230000,1621685595384320450
90,36.000000,0.177714,120.000000,0.487752,179.260000,1.080000,4.000000,1.160000,2.736000,15.427000,11.890000,-0.730000,-3.800000,0.010000,1.150000,0.200000,1621685595404403665
91,36.000000,0.177713,120.000000,0.487752,179.400000,0.530000,4.000000,1.160000,6.819000,-3.484000,-19.997000,-0.670000,-3.960000,0.010000,1.170000,0.300000,1621685595424305544
92,36.000000,0.177713,120.000000,0.487752,179.440000,1.010000,4.000000,1.160000,6.819000,-3.484000,-19.997000,-0.650000,-3.810000,0.010000,1.260000,0.280000,1621685595447581141
93,36.000000,0.177713,120.000000,0.487752,179.410000,0.710000,4.000000,1.160000,4.451000,1.890000,-1.702000,-0.590000,-3.840000,0.010000,1.260000,0.400000,1621685595464980209
94,36.000000,0.177713,120.000000,0.487752,179.410000,0.710000,4.000000,1.160000,4.451000,1.890000,-1.702000,-0.590000,-3.840000,0.010000,1.260000,0.400000,1621685595485038689
95,36.000000,0.177713,120.000000,0.487752,179.310000,0.520000,4.000000,1.130000,-5.509000,12.733000,-0.975000,-0.630000,-3.500000,0.000000,1.170000,0.450000,1621685595504937528
96,36.000000,0.177713,120.000000,0.487752,179.310000,0.520000,4.000000,1.130000,-5.509000,12.733000,-0.975000,-0.630000,-3.500000,0.000000,1.170000,0.450000,1621685595524972521
97,36.000000,0.177712,120.000000,0.487752,179.300000,0.700000,4.000000,1.130000,3.228000,-3.509000,-6.769000,-0.590000,-3.530000,0.000000,1.180000,0.510000,1621685595542973069
98,36.000000,0.177712,120.000000,0.487752,179.340000,0.880000,4.000000,1.210000,-1.527000,-0.521000,-6.046000,-0.550000,-3.370000,0.010000,1.100000,0.610000,1621685595572781617
99,36.000000,0.177712,120.000000,0.487752,179.360000,0.460000,4.000000,1.210000,5.786000,-6.918000,-15.413000,-0.520000,-3.400000,0.010000,1.170000,0.670000,1621685595588172287
100,36.000000,0.177712,120.000000,0.487752,179.440000,0.640000,4.000000,1.250000,2.252000,14.519000,2.077000,-0.490000,-3.300000,0.010000,1.190000,0.740000,1621685595606407385
101,36.000000,0.177711,120.000000,0.487752,179.490000,0.390000,4.000000,1.250000,1.024000,7.847000,-6.862000,-0.460000,-3.360000,0.010000,1.250000,0.830000,1621685595624202213
102,36.000000,0.177711,120.000000,0.487752,179.630000,0.750000,4.000000,1.320000,2.844000,-0.529000,-12.305000,-0.470000,-3.350000,0.010000,1.270000,0.900000,1621685595644166201
103,36.000000,0.177711,120.000000,0.487752,179.660000,0.740000,4.000000,1.320000,3.075000,3.637000,-9.558000,-0.520000,-3.390000,0.010000,1.330000,0.980000,1621685595664133005
104,36.000000,0.177711,120.000000,0.487752,179.720000,0.800000,4.000000,1.320000,3.079000,3.641000,-9.555000,-0.540000,-3.380000,0.010000,1.350000,1.010000,1621685595684135327
105,36.000000,0.177711,120.000000,0.487752,179.750000,0.800000,4.000000,1.320000,2.224000,-1.957000,-14.350000,-0.570000,-3.420000,0.010000,1.360000,1.060000,1621685595704102163
106,36.000000,0.177710,120.000000,0.487752,179.890000,0.910000,4.000000,1.360000,1.814000,-5.142000,-8.522000,-0.640000,-3.320000,0.010000,1.370000,1.190000,1621685595724102630
107,36.000000,0.177710,120.000000,0.487752,180.010000,0.980000,4.000000,1.360000,-2.875000,-17.804000,-2.761000,-0.620000,-3.140000,0.010000,1.330000,1.280000,1621685595744197044
108,36.000000,0.177710,120.000000,0.487752,180.110000,1.340000,4.000000,1.400000,-7.096000,-3.403000,-2.296000,-0.610000,-3.070000,0.010000,1.290000,1.330000,1621685595764207398
109,36.000000,0.177709,120.000000,0.487752,180.260000,1.100000,4.000000,1.400000,-1.757000,0.942000,-4.705000,-0.590000,-2.910000,0.010000,1.310000,1.360000,1621685595784220920
110,36.000000,0.177709,120.000000,0.487752,180.310000,1.350000,4.000000,1.410000,-2.166000,-6.938000,-8.202000,-0.570000,-2.900000,0.010000,1.310000,1.400000,1621685595804203084
111,36.000000,0.177709,120.000000,0.487752,180.340000,1.430000,4.000000,1.410000,-5.136000,-10.713000,-4.308000,-0.540000,-2.800000,0.000000,1.240000,1.450000,1621685595824255612
112,36.000000,0.177709,120.000000,0.487752,180.360000,1.420000,4.000000,1.410000,-1.491000,-3.751000,-4.631000,-0.550000,-2.690000,0.000000,1.150000,1.480000,1621685595844292013
113,36.000000,0.177708,120.000000,0.487752,180.390000,1.440000,4.000000,1.370000,-8.069000,1.985000,-11.516000,-0.600000,-2.750000,0.000000,1.070000,1.500000,1621685595864674096
114,36.000000,0.177708,120.000000,0.487752,180.400000,0.990000,4.000000,1.370000,-11.815000,0.142000,-11.695000,-0.640000,-2.730000,0.000000,1.070000,1.540000,1621685595884161847
115,36.000000,0.177708,120.000000,0.487752,180.410000,1.170000,4.000000,1.380000,8.140000,-3.278000,-5.776000,-0.680000,-2.690000,0.000000,1.230000,1.570000,1621685595904110860
116,36.000000,0.177708,120.000000,0.487752,180.420000,1.260000,4.000000,1.380000,-3.354000,7.337000,-19.798000,-0.720000,-2.870000,0.000000,1.220000,1.590000,1621685595924246361
117,36.000000,0.177707,120.000000,0.487752,180.460000,0.900000,4.000000,1.370000,16.784000,3.247000,-9.734000,-0.760000,-2.900000,0.000000,1.510000,1.620000,1621685595944217133
118,36.000000,0.177707,120.000000,0.487752,180.420000,1.140000,4.000000,1.370000,8.510000,-1.850000,-3.750000,-0.790000,-2.910000,-0.010000,1.500000,1.670000,1621685595964164737
119,36.000000,0.177707,120.000000,0.487752,180.320000,0.900000,4.000000,1.370000,0.346000,-6.518000,6.973000,-0.840000,-2.860000,-0.010000,1.410000,1.700000,1621685595984910293
120,36.000000,0.177707,120.000000,0.487752,180.280000,1.250000,4.000000,1.370000,-0.251000,-7.273000,-4.998000,-0.860000,-2.670000,-0.010000,1.390000,1.700000,1621685596004140999
121,36.000000,0.177706,120.000000,0.487752,180.190000,1.190000,4.000000,1.350000,2.783000,1.382000,-12.116000,-0.920000,-2.610000,-0.010000,1.440000,1.730000,1621685596024384045
122,36.000000,0.177706,120.000000,0.487752,180.160000,1.140000,4.000000,1.350000,-3.408000,4.073000,-20.000000,-0.930000,-2.770000,-0.010000,1.390000,1.730000,1621685596044118471
123,36.000000,0.177706,120.000000,0.487752,180.130000,0.870000,4.000000,1.380000,8.475000,8.387000,-13.065000,-0.920000,-2.820000,-0.010000,1.450000,1.730000,1621685596064123863
124,36.000000,0.177706,120.000000,0.487752,180.110000,0.700000,4.000000,1.380000,1.773000,-3.096000,-3.771000,-0.880000,-2.900000,-0.010000,1.460000,1.770000,1621685596084301312
125,36.000000,0.177705,120.000000,0.487752,180.110000,0.740000,4.000000,1.400000,-3.521000,-3.426000,2.808000,-0.840000,-2.860000,-0.010000,1.440000,1.820000,1621685596107798241
126,36.000000,0.177705,120.000000,0.487752,180.120000,0.620000,4.000000,1.400000,-1.545000,-0.490000,-15.370000,-0.830000,-2.810000,-0.010000,1.390000,1.850000,1621685596123802932
127,36.000000,0.177705,120.000000,0.487752,180.130000,0.830000,4.000000,1.430000,-0.274000,1.932000,-15.987000,-0.800000,-2.800000,-0.010000,1.470000,1.910000,1621685596158702371
128,36.000000,0.177705,120.000000,0.487752,180.110000,0.710000,4.000000,1.430000,1.735000,7.805000,-11.622000,-0.800000,-2.900000,-0.010000,1.470000,1.930000,1621685596164793643
129,36.000000,0.177704,120.000000,0.487752,180.060000,0.830000,4.000000,1.430000,4.258000,6.856000,-15.349000,-0.790000,-2.960000,-0.010000,1.490000,1.960000,1621685596184770460
130,36.000000,0.177704,120.000000,0.487752,180.030000,0.600000,4.000000,1.430000,-6.547000,-1.102000,-1.889000,-0.780000,-2.970000,-0.010000,1.440000,1.990000,1621685596204721869
131,36.000000,0.177704,120.000000,0.487752,180.050000,0.790000,4.000000,1.530000,3.073000,-1.295000,-11.991000,-0.790000,-2.960000,-0.010000,1.480000,2.060000,1621685596224716445
132,36.000000,0.177704,120.000000,0.487752,180.100000,0.670000,4.000000,1.530000,-0.938000,-2.641000,-11.228000,-0.810000,-3.020000,-0.010000,1.480000,2.110000,1621685596244695630
133,36.000000,0.177703,120.000000,0.487752,180.130000,0.790000,4.000000,1.550000,0.730000,2.082000,-3.950000,-0.780000,-2.970000,-0.010000,1.510000,2.170000,1621685596264832280
134,36.000000,0.177703,120.000000,0.487752,180.190000,1.180000,4.000000,1.550000,3.075000,3.620000,-5.623000,-0.750000,-3.000000,-0.010000,1.560000,2.240000,1621685596284857927
135,36.000000,0.177703,120.000000,0.487752,180.210000,1.270000,4.000000,1.520000,-0.358000,4.098000,-15.668000,-0.760000,-3.060000,-0.010000,1.560000,2.270000,1621685596308480259
136,36.000000,0.177702,120.000000,0.487752,180.370000,1.050000,4.000000,1.520000,-2.600000,-5.566000,-14.725000,-0.750000,-3.120000,-0.010000,1.550000,2.290000,1621685596323555036
137,36.000000,0.177702,120.000000,0.487752,180.420000,1.380000,4.000000,1.520000,3.294000,3.833000,-10.598000,-0.740000,-3.050000,-0.010000,1.560000,2.350000,1621685596349213125
138,36.000000,0.177702,120.000000,0.487752,180.540000,1.820000,4.000000,1.520000,1.145000,4.875000,-10.220000,-0.750000,-3.170000,-0.010000,1.560000,2.440000,1621685596365331955
139,36.000000,0.177702,120.000000,0.487752,180.580000,1.590000,4.000000,1.520000,1.083000,-4.041000,-7.905000,-0.760000,-3.140000,-0.010000,1.540000,2.500000,1621685596385478429
140,36.000000,0.177701,120.000000,0.487752,180.680000,1.690000,4.000000,1.520000,-1.220000,-4.442000,-9.495000,-0.700000,-3.080000,-0.020000,1.540000,2.550000,1621685596405283221
141,36.000000,0.177701,120.000000,0.487752,180.700000,1.640000,4.000000,1.520000,-8.570000,-8.781000,-2.400000,-0.650000,-2.870000,-0.020000,1.430000,2.580000,1621685596425348290
142,36.000000,0.177701,120.000000,0.487752,180.750000,1.630000,4.000000,1.480000,10.684000,9.240000,-10.175000,-0.590000,-2.940000,-0.020000,1.520000,2.600000,1621685596445406351
143,36.000000,0.177700,120.000000,0.487752,180.780000,1.620000,4.000000,1.480000,-1.946000,2.332000,-11.023000,-0.540000,-3.060000,-0.010000,1.500000,2.670000,1621685596465317923
144,36.000000,0.177700,120.000000,0.487752,180.850000,1.510000,4.000000,1.480000,-8.051000,-4.864000,-2.097000,-0.480000,-3.030000,-0.010000,1.480000,2.730000,1621685596485290548
145,36.000000,0.177700,120.000000,0.487752,180.870000,1.520000,4.000000,1.520000,-2.933000,-7.383000,-6.552000,-0.460000,-2.930000,-0.020000,1.420000,2.750000,1621685596505386560
146,36.000000,0.177700,120.000000,0.487752,180.930000,1.270000,4.000000,1.520000,9.417000,3.435000,-19.835000,-0.470000,-2.960000,-0.020000,1.480000,2.810000,1621685596525414670
147,36.000000,0.177699,120.000000,0.487752,180.950000,1.270000,4.000000,1.520000,5.555000,8.230000,-1.714000,-0.490000,-2.990000,-0.020000,1.620000,2.840000,1621685596545301731
148,36.000000,0.177699,120.000000,0.487752,181.000000,1.440000,4.000000,1.540000,2.278000,-2.174000,-4.144000,-0.440000,-3.050000,-0.020000,1.590000,2.900000,1621685596565370576
149,36.000000,0.177699,120.000000,0.487752,181.010000,1.440000,4.000000,1.540000,-4.944000,-6.767000,-9.447000,-0.420000,-3.000000,-0.020000,1.540000,2.920000,1621685596585377855
150,36.000000,0.177698,120.000000,0.487752,181.050000,1.630000,4.000000,1.540000,0.522000,-7.876000,-7.593000,-0.470000,-2.830000,-0.030000,1.480000,2.980000,1621685596605465676
151,36.000000,0.177698,120.000000,0.487752,181.070000,1.680000,4.000000,1.540000,9.516000,9.734000,-12.308000,-0.490000,-2.860000,-0.030000,1.580000,2.980000,1621685596625524505
152,36.000000,0.177698,120.000000,0.487752,181.120000,1.320000,4.000000,1.660000,0.102000,-1.126000,-14.880000,-0.480000,-3.010000,-0.030000,1.590000,3.080000,1621685596645501610
153,36.000000,0.177698,120.000000,0.487752,181.130000,1.200000,4.000000,1.660000,-0.414000,3.878000,-10.540000,-0.460000,-3.070000,-0.030000,1.590000,3.110000,1621685596665457531
154,36.000000,0.177697,120.000000,0.487751,181.150000,1.130000,4.000000,1.660000,3.202000,-3.305000,-7.011000,-0.430000,-3.050000,-0.030000,1.630000,3.170000,1621685596685564807
155,36.000000,0.177697,120.000000,0.487751,181.170000,1.130000,4.000000,1.630000,-0.175000,6.411000,-14.921000,-0.460000,-3.000000,-0.030000,1.600000,3.210000,1621685596705527800
156,36.000000,0.177697,120.000000,0.487751,181.200000,1.440000,4.000000,1.630000,8.147000,-3.886000,-11.937000,-0.500000,-3.030000,-0.030000,1.670000,3.280000,1621685596725308945
157,36.000000,0.177696,120.000000,0.487751,181.220000,1.360000,4.000000,1.630000,-3.618000,2.118000,-0.740000,-0.470000,-2.950000,-0.030000,1.620000,3.330000,1621685596748076880
158,36.000000,0.177696,120.000000,0.487751,181.250000,0.910000,4.000000,1.710000,-5.028000,-7.458000,-7.567000,-0.450000,-2.930000,-0.030000,1.580000,3.380000,1621685596767576724
159,36.000000,0.177696,120.000000,0.487751,181.270000,1.250000,4.000000,1.710000,7.634000,1.011000,-19.976000,-0.430000,-3.030000,-0.030000,1.720000,3.440000,1621685596785554742
160,36.000000,0.177696,120.000000,0.487751,181.280000,1.170000,4.000000,1.750000,7.231000,-0.832000,-18.377000,-0.450000,-3.110000,-0.030000,1.770000,3.490000,1621685596805315824
161,36.000000,0.177695,120.000000,0.487751,181.360000,1.400000,4.000000,1.750000,3.970000,-5.471000,-12.826000,-0.470000,-3.190000,-0.040000,1.810000,3.530000,1621685596830736035
162,36.000000,0.177695,120.000000,0.487751,181.390000,1.460000,4.000000,1.750000,3.093000,12.407000,-7.754000,-0.500000,-3.180000,-0.040000,1.820000,3.570000,1621685596844478098
163,36.000000,0.177694,120.000000,0.487751,181.450000,1.460000,4.000000,1.820000,-0.872000,-8.144000,-9.373000,-0.560000,-3.310000,-0.040000,1.830000,3.630000,1621685596864649883
164,36.000000,0.177694,120.000000,0.487751,181.480000,1.760000,4.000000,1.820000,2.544000,7.609000,0.604000,-0.620000,-3.260000,-0.040000,1.830000,3.670000,1621685596884673866
165,36.000000,0.177694,120.000000,0.487751,181.500000,1.660000,4.000000,1.820000,3.207000,-4.104000,-16.128000,-0.620000,-3.320000,-0.040000,1.850000,3.690000,1621685596904690873
166,36.000000,0.177694,120.000000,0.487751,181.560000,1.380000,4.000000,1.800000,4.844000,-2.537000,-8.541000,-0.590000,-3.250000,-0.040000,1.840000,3.760000,1621685596924618731
167,36.000000,0.177693,120.000000,0.487751,181.570000,1.540000,4.000000,1.800000,-4.375000,-7.463000,-17.748000,-0.580000,-3.320000,-0.040000,1.800000,3.790000,1621685596944563518
168,36.000000,0.177693,120.000000,0.487751,181.620000,1.740000,4.000000,1.870000,-2.577000,-7.250000,-20.466000,-0.540000,-3.270000,-0.040000,1.790000,3.850000,1621685596964685608
169,36.000000,0.177692,120.000000,0.487751,181.670000,1.520000,4.000000,1.870000,5.912000,8.580000,-4.891000,-0.490000,-3.310000,-0.040000,1.750000,3.910000,1621685596984501088
170,36.000000,0.177692,120.000000,0.487751,181.680000,1.230000,4.000000,1.870000,0.292000,2.673000,-19.918000,-0.460000,-3.360000,-0.040000,1.820000,3.950000,1621685597004599691
171,36.000000,0.177692,120.000000,0.487751,181.720000,1.160000,4.000000,1.860000,2.544000,-4.250000,-18.173000,-0.480000,-3.390000,-0.040000,1.910000,4.010000,1621685597024517020
172,36.000000,0.177692,120.000000,0.487751,181.720000,1.230000,4.000000,1.860000,-5.321000,-7.174000,-17.599000,-0.490000,-3.520000,-0.040000,1.860000,4.040000,1621685597044608133
173,36.000000,0.177691,120.000000,0.487751,181.750000,0.750000,4.000000,1.870000,-6.073000,-5.139000,-8.408000,-0.530000,-3.340000,-0.040000,1.880000,4.120000,1621685597064677327
174,36.000000,0.177691,120.000000,0.487751,181.760000,0.560000,4.000000,1.870000,7.111000,2.186000,-2.166000,-0.550000,-3.240000,-0.040000,1.890000,4.140000,1621685597087200405
175,36.000000,0.177690,120.000000,0.487751,181.780000,0.020000,4.000000,1.900000,10.079000,-8.046000,-1.607000,-0.580000,-3.280000,-0.050000,1.860000,4.280000,1621685597105164854
176,36.000000,0.177690,120.000000,0.487751,181.770000,-0.350000,4.000000,1.900000,-4.753000,1.317000,-2.250000,-0.560000,-3.120000,-0.050000,1.900000,4.300000,1621685597127934577
177,36.000000,0.177690,120.000000,0.487751,181.760000,-0.400000,4.000000,1.900000,-9.391000,2.194000,-20.035000,-0.510000,-3.220000,-0.050000,1.810000,4.400000,1621685597143905539
178,36.000000,0.177690,120.000000,0.487751,181.740000,-0.520000,4.000000,1.900000,-15.606000,14.783000,-7.358000,-0.470000,-3.300000,-0.050000,1.760000,4.490000,1621685597163973230
179,36.000000,0.177689,120.000000,0.487751,181.720000,-0.940000,4.000000,1.900000,-19.051000,6.432000,-19.743000,-0.430000,-3.390000,-0.050000,1.520000,4.630000,1621685597188125553
180,36.000000,0.177689,120.000000,0.487751,181.710000,-0.830000,4.000000,1.990000,5.049000,9.734000,-6.386000,-0.410000,-3.350000,-0.050000,1.650000,4.670000,1621685597203909163
181,36.000000,0.177688,120.000000,0.487751,181.690000,-0.930000,4.000000,1.990000,20.142000,-14.252000,-11.833000,-0.400000,-3.360000,-0.050000,1.890000,4.740000,1621685597223854010
182,36.000000,0.177688,120.000000,0.487751,181.670000,-2.040000,4.000000,1.990000,20.125000,2.291000,-10.060000,-0.400000,-3.450000,-0.050000,2.230000,4.840000,1621685597243763627
183,36.000000,0.177688,120.000000,0.487751,181.640000,-1.000000,4.000000,1.970000,20.181000,3.778000,-17.567000,-0.390000,-3.520000,-0.050000,2.340000,4.900000,1621685597268884743
184,36.000000,0.177687,120.000000,0.487751,181.590000,-0.990000,4.000000,1.970000,7.579000,13.716000,0.078000,-0.430000,-3.280000,-0.050000,2.300000,5.000000,1621685597283862081
185,36.000000,0.177687,120.000000,0.487751,181.580000,-1.310000,4.000000,2.040000,-0.567000,-0.791000,-16.892000,-0.460000,-3.340000,-0.050000,2.220000,5.050000,1621685597304013480
186,36.000000,0.177686,120.000000,0.487751,181.530000,-1.550000,4.000000,2.040000,11.084000,5.695000,-16.923000,-0.490000,-3.430000,-0.060000,2.260000,5.120000,1621685597324119281
187,36.000000,0.177686,120.000000,0.487751,181.510000,-1.310000,4.000000,2.040000,-10.443000,5.293000,5.436000,-0.450000,-3.340000,-0.060000,2.170000,5.180000,1621685597344101503
188,36.000000,0.177685,120.000000,0.487751,181.450000,-1.120000,4.000000,2.080000,18.566000,-4.658000,-17.609000,-0.410000,-3.500000,-0.060000,2.260000,5.230000,1621685597363860118
189,36.000000,0.177685,120.000000,0.487751,181.440000,-0.270000,4.000000,2.080000,-15.344000,2.163000,13.463000,-0.380000,-3.260000,-0.060000,1.990000,5.280000,1621685597384137688
190,36.000000,0.177685,120.000000,0.487751,181.430000,-0.530000,4.000000,2.080000,15.184000,-20.164000,0.327000,-0.360000,-3.140000,-0.060000,2.140000,5.290000,1621685597404024970
191,36.000000,0.177685,120.000000,0.487751,181.390000,0.120000,4.000000,2.170000,0.128000,12.635000,-18.969000,-0.310000,-3.320000,-0.060000,2.100000,5.300000,1621685597424037014
192,36.000000,0.177684,120.000000,0.487751,181.350000,-0.370000,4.000000,2.150000,6.684000,-7.505000,-20.804000,-0.280000,-3.180000,-0.060000,2.170000,5.280000,1621685597444019300
193,36.000000,0.177684,120.000000,0.487751,181.340000,-0.250000,4.000000,2.150000,-6.123000,-18.066000,-21.897000,-0.290000,-3.180000,-0.060000,2.230000,5.430000,1621685597464045328
194,36.000000,0.177684,120.000000,0.487751,181.300000,-0.200000,4.000000,2.150000,4.148000,-18.112000,-21.810000,-0.280000,-3.280000,-0.060000,2.250000,5.310000,1621685597484079228
195,36.000000,0.177683,120.000000,0.487751,181.270000,-0.450000,4.000000,2.270000,5.230000,-12.435000,-21.305000,-0.310000,-3.330000,-0.060000,2.260000,5.440000,1621685597503942991
196,36.000000,0.177682,120.000000,0.487751,181.200000,-0.270000,4.000000,2.270000,11.799000,-18.081000,-21.785000,-0.340000,-3.520000,-0.060000,2.280000,5.390000,1621685597524480134
197,36.000000,0.177682,120.000000,0.487751,181.180000,-0.650000,4.000000,2.270000,-9.095000,5.859000,4.866000,-0.370000,-3.450000,-0.060000,2.270000,5.460000,1621685597544066852
198,36.000000,0.177682,120.000000,0.487751,181.100000,-0.940000,4.000000,2.300000,3.562000,-18.040000,-21.866000,-0.360000,-3.260000,-0.060000,2.120000,5.500000,1621685597565125478
199,36.000000,0.177681,120.000000,0.487751,181.080000,-0.890000,4.000000,2.300000,2.670000,-20.931000,8.102000,-0.350000,-3.160000,-0.060000,2.190000,5.510000,1621685597583890469
200,36.000000,0.177681,120.000000,0.487751,181.020000,-0.900000,4.000000,2.340000,6.401000,-6.264000,-20.715000,-0.340000,-3.260000,-0.060000,2.260000,5.490000,1621685597603827413
201,36.000000,0.177680,120.000000,0.487751,180.960000,-1.520000,4.000000,2.340000,-0.661000,1.388000,10.071000,-0.310000,-3.250000,-0.060000,2.340000,5.600000,1621685597624370988
202,36.000000,0.177680,120.000000,0.487751,180.880000,-1.380000,4.000000,2.340000,-9.993000,-20.083000,-0.765000,-0.290000,-3.140000,-0.060000,2.260000,5.620000,1621685597643926667
203,36.000000,0.177680,120.000000,0.487751,180.810000,-1.640000,4.000000,2.410000,10.864000,14.495000,-9.519000,-0.300000,-3.160000,-0.070000,2.360000,5.680000,1621685597663930488
204,36.000000,0.177679,120.000000,0.487751,180.750000,-2.110000,4.000000,2.410000,8.591000,13.393000,-18.769000,-0.340000,-3.260000,-0.070000,2.440000,5.720000,1621685597683907878
205,36.000000,0.177679,120.000000,0.487751,180.670000,-2.010000,4.000000,2.410000,4.779000,10.816000,4.041000,-0.380000,-3.210000,-0.060000,2.520000,5.810000,1621685597703915603
206,36.000000,0.177678,120.000000,0.487751,180.610000,-1.900000,4.000000,2.410000,-3.395000,-1.742000,-2.991000,-0.380000,-3.140000,-0.060000,2.470000,5.880000,1621685597724501704
207,36.000000,0.177678,120.000000,0.487751,180.550000,-1.750000,4.000000,2.410000,-3.045000,-15.454000,-2.267000,-0.420000,-2.840000,-0.060000,2.330000,5.960000,1621685597743847344
208,36.000000,0.177677,120.000000,0.487751,180.500000,-1.770000,4.000000,2.510000,2.097000,-0.590000,-12.024000,-0.450000,-2.870000,-0.070000,2.390000,6.050000,1621685597767115576
209,36.000000,0.177677,120.000000,0.487751,180.440000,-1.860000,4.000000,2.510000,4.943000,3.201000,-14.713000,-0.440000,-3.010000,-0.070000,2.530000,6.140000,1621685597785240562
210,36.000000,0.177676,120.000000,0.487751,180.420000,-1.830000,4.000000,2.510000,0.048000,8.765000,-11.320000,-0.400000,-3.040000,-0.070000,2.520000,6.240000,1621685597808306497
211,36.000000,0.177676,120.000000,0.487751,180.360000,-1.430000,4.000000,2.510000,7.940000,9.868000,-6.737000,-0.360000,-3.070000,-0.060000,2.580000,6.350000,1621685597824182455
212,36.000000,0.177675,120.000000,0.487751,180.340000,-1.550000,4.000000,2.510000,10.117000,9.541000,-15.158000,-0.360000,-3.230000,-0.060000,2.720000,6.450000,1621685597844245378
213,36.000000,0.177675,120.000000,0.487751,180.290000,-1.240000,4.000000,2.580000,6.209000,9.585000,-19.047000,-0.390000,-3.430000,-0.060000,2.830000,6.530000,1621685597864258158
214,36.000000,0.177674,120.000000,0.487751,180.280000,-1.130000,4.000000,2.580000,5.297000,10.128000,-18.994000,-0.420000,-3.610000,-0.060000,2.930000,6.490000,1621685597884343224
215,36.000000,0.177674,120.000000,0.487751,180.250000,-1.040000,4.000000,2.640000,4.658000,11.912000,-11.000000,-0.380000,-3.700000,-0.060000,3.020000,6.440000,1621685597904076336
216,36.000000,0.177673,120.000000,0.487751,180.240000,-0.790000,4.000000,2.640000,14.816000,9.509000,-19.023000,-0.380000,-3.870000,-0.060000,3.040000,6.370000,1621685597924211896
217,36.000000,0.177673,120.000000,0.487751,180.230000,-0.940000,4.000000,2.640000,5.867000,11.627000,-18.849000,-0.360000,-3.950000,-0.060000,3.000000,6.350000,1621685597944173542
218,36.000000,0.177672,120.000000,0.487751,180.210000,-1.040000,4.000000,2.690000,-4.471000,4.607000,-1.843000,-0.300000,-3.880000,-0.050000,2.890000,6.220000,1621685597964223026
219,36.000000,0.177672,120.000000,0.487751,180.190000,-0.580000,4.000000,2.690000,0.406000,-2.398000,-18.798000,-0.280000,-3.940000,-0.050000,2.890000,6.200000,1621685597984109027
220,36.000000,0.177671,120.000000,0.487751,180.160000,-0.890000,4.000000,2.690000,-4.936000,-11.622000,-4.471000,-0.230000,-3.830000,-0.050000,2.960000,6.050000,1621685598004194573
221,36.000000,0.177671,120.000000,0.487751,180.130000,-1.080000,4.000000,2.730000,-2.803000,-5.803000,-0.972000,-0.210000,-3.720000,-0.060000,2.930000,6.020000,1621685598024066716
222,36.000000,0.177671,120.000000,0.487751,180.100000,-0.980000,4.000000,2.730000,0.846000,-2.881000,-9.570000,-0.180000,-3.480000,-0.060000,2.800000,5.860000,1621685598043993706
223,36.000000,0.177670,120.000000,0.487752,180.030000,-0.800000,4.000000,2.750000,0.791000,3.644000,-0.138000,-0.150000,-3.380000,-0.050000,2.750000,5.830000,1621685598064283496
224,36.000000,0.177670,120.000000,0.487752,180.010000,-1.000000,4.000000,2.750000,2.391000,-8.656000,-11.183000,-0.140000,-3.290000,-0.050000,2.760000,5.840000,1621685598084198998
225,36.000000,0.177669,120.000000,0.487752,179.960000,-1.420000,4.000000,2.800000,-3.297000,1.148000,-6.176000,-0.130000,-3.250000,-0.050000,2.740000,5.790000,1621685598104176194
226,36.000000,0.177669,120.000000,0.487752,179.930000,-1.350000,4.000000,2.800000,4.438000,-2.843000,-7.525000,-0.110000,-3.210000,-0.060000,2.700000,5.820000,1621685598124221226
227,36.000000,0.177668,120.000000,0.487752,179.790000,-1.900000,4.000000,2.810000,2.238000,5.653000,-9.508000,-0.140000,-3.290000,-0.060000,2.800000,5.710000,1621685598145999436
228,36.000000,0.177668,120.000000,0.487752,179.750000,-1.940000,4.000000,2.810000,-5.924000,2.600000,-17.358000,-0.130000,-3.360000,-0.060000,2.770000,5.730000,1621685598164131331
229,36.000000,0.177667,120.000000,0.487752,179.680000,-1.760000,4.000000,2.810000,5.628000,5.409000,-6.631000,-0.170000,-3.330000,-0.060000,2.820000,5.650000,1621685598184280903
230,36.000000,0.177667,120.000000,0.487752,179.610000,-2.050000,4.000000,2.850000,0.271000,-8.856000,-8.546000,-0.220000,-3.310000,-0.070000,2.800000,5.570000,1621685598204062779
231,36.000000,0.177666,120.000000,0.487752,179.540000,-2.090000,4.000000,2.850000,1.176000,0.701000,-15.850000,-0.260000,-3.360000,-0.070000,2.820000,5.510000,1621685598224378008
232,36.000000,0.177666,120.000000,0.487752,179.470000,-2.280000,4.000000,2.850000,-1.330000,-5.000000,-6.153000,-0.300000,-3.300000,-0.070000,2.850000,5.460000,1621685598244100526
233,36.000000,0.177665,120.000000,0.487752,179.400000,-2.210000,4.000000,2.780000,-4.990000,2.771000,-9.877000,-0.300000,-3.300000,-0.080000,2.790000,5.430000,1621685598265065265
234,36.000000,0.177664,120.000000,0.487752,179.280000,-2.340000,4.000000,2.780000,-3.535000,3.913000,-7.793000,-0.320000,-3.220000,-0.080000,2.800000,5.390000,1621685598284082308
235,36.000000,0.177664,120.000000,0.487752,179.230000,-2.470000,4.000000,2.820000,1.660000,-9.697000,-11.657000,-0.330000,-3.230000,-0.080000,2.810000,5.370000,1621685598304245383
236,36.000000,0.177663,120.000000,0.487752,179.140000,-1.880000,4.000000,2.820000,0.512000,-3.841000,-15.475000,-0.350000,-3.120000,-0.080000,2.780000,5.340000,1621685598324048762
237,36.000000,0.177663,120.000000,0.487752,179.110000,-1.890000,4.000000,2.820000,-2.961000,-4.009000,-5.243000,-0.340000,-3.060000,-0.080000,2.790000,5.320000,1621685598344181983
238,36.000000,0.177662,120.000000,0.487752,179.050000,-1.440000,4.000000,2.830000,-1.288000,0.007000,-9.836000,-0.360000,-2.980000,-0.090000,2.820000,5.290000,1621685598364184681
239,36.000000,0.177662,120.000000,0.487752,179.040000,-1.570000,4.000000,2.830000,-2.514000,1.550000,-2.778000,-0.390000,-2.910000,-0.090000,2.760000,5.270000,1621685598384121078
240,36.000000,0.177662,120.000000,0.487752,179.020000,-1.700000,4.000000,2.830000,-4.682000,0.389000,-8.810000,-0.420000,-2.910000,-0.090000,2.720000,5.240000,1621685598403976071
241,36.000000,0.177661,120.000000,0.487752,178.990000,-0.990000,4.000000,2.820000,-1.730000,-8.587000,-14.386000,-0.500000,-2.920000,-0.080000,2.730000,5.160000,1621685598424021327
242,36.000000,0.177660,120.000000,0.487752,178.990000,-0.860000,4.000000,2.800000,1.041000,-5.864000,-9.982000,-0.550000,-2.830000,-0.080000,2.760000,5.130000,1621685598444441545
243,36.000000,0.177660,120.000000,0.487752,178.970000,-0.540000,4.000000,2.800000,2.527000,17.094000,-15.718000,-0.550000,-2.930000,-0.080000,2.800000,5.170000,1621685598464323160
244,36.000000,0.177660,120.000000,0.487752,178.960000,-0.480000,4.000000,2.800000,6.697000,6.797000,-19.456000,-0.570000,-3.040000,-0.080000,2.850000,5.190000,1621685598484152169
245,36.000000,0.177659,120.000000,0.487752,178.940000,-0.660000,4.000000,2.830000,7.068000,6.276000,-19.494000,-0.620000,-3.330000,-0.070000,2.910000,5.190000,1621685598504159956
246,36.000000,0.177659,120.000000,0.487752,178.910000,-0.200000,4.000000,2.830000,10.463000,6.043000,-16.702000,-0.630000,-3.400000,-0.070000,2.970000,5.140000,1621685598524269754
247,36.000000,0.177658,120.000000,0.487752,178.900000,-0.870000,4.000000,2.830000,3.986000,-4.738000,-3.239000,-0.660000,-3.290000,-0.070000,2.900000,5.060000,1621685598544216198
248,36.000000,0.177657,120.000000,0.487752,178.870000,-0.680000,4.000000,2.770000,-6.072000,2.491000,-10.030000,-0.710000,-3.290000,-0.080000,2.830000,5.050000,1621685598564044056
249,36.000000,0.177657,120.000000,0.487752,178.850000,-0.940000,4.000000,2.770000,3.336000,3.148000,-19.817000,-0.720000,-3.360000,-0.080000,2.850000,5.000000,1621685598584280888
250,36.000000,0.177656,120.000000,0.487752,178.790000,-1.090000,4.000000,2.820000,0.171000,-4.840000,-7.648000,-0.670000,-3.300000,-0.090000,2.820000,4.890000,1621685598604158408
251,36.000000,0.177656,120.000000,0.487752,178.750000,-1.150000,4.000000,2.820000,-1.773000,-2.344000,-6.803000,-0.640000,-3.270000,-0.090000,2.810000,4.870000,1621685598624098613
252,36.000000,0.177655,120.000000,0.487752,178.700000,-1.340000,4.000000,2.820000,4.119000,8.385000,-2.126000,-0.600000,-3.090000,-0.090000,2.840000,4.830000,1621685598644315638
253,36.000000,0.177655,120.000000,0.487752,178.650000,-1.160000,4.000000,2.790000,2.098000,-2.690000,-20.336000,-0.560000,-3.200000,-0.090000,2.840000,4.830000,1621685598664397342
254,36.000000,0.177655,120.000000,0.487752,178.630000,-1.720000,4.000000,2.790000,-0.917000,8.612000,-11.670000,-0.520000,-3.220000,-0.090000,2.850000,4.750000,1621685598684152402
255,36.000000,0.177654,120.000000,0.487752,178.560000,-1.780000,4.000000,2.770000,-1.952000,1.248000,-14.214000,-0.460000,-3.300000,-0.090000,2.820000,4.690000,1621685598704182075
256,36.000000,0.177654,120.000000,0.487752,178.530000,-1.770000,4.000000,2.770000,3.108000,5.857000,-10.627000,-0.440000,-3.380000,-0.080000,2.800000,4.660000,1621685598727897101
257,36.000000,0.177653,120.000000,0.487753,178.450000,-1.880000,4.000000,2.770000,-2.331000,-10.991000,-3.136000,-0.430000,-3.490000,-0.080000,2.890000,4.580000,1621685598744581824
258,36.000000,0.177653,120.000000,0.487753,178.420000,-1.650000,4.000000,2.790000,-8.448000,-9.273000,5.997000,-0.390000,-3.240000,-0.080000,2.780000,4.510000,1621685598764098558
259,36.000000,0.177652,120.000000,0.487753,178.330000,-1.860000,4.000000,2.790000,4.681000,1.341000,-19.986000,-0.330000,-3.210000,-0.080000,2.790000,4.400000,1621685598784693552
260,36.000000,0.177652,120.000000,0.487753,178.280000,-1.360000,4.000000,2.810000,3.076000,12.250000,-8.568000,-0.330000,-3.210000,-0.080000,2.810000,4.400000,1621685598803731586
261,36.000000,0.177651,120.000000,0.487753,178.250000,-0.960000,4.000000,2.810000,1.592000,7.013000,1.075000,-0.330000,-3.120000,-0.090000,2.830000,4.270000,1621685598823697262
262,36.000000,0.177651,120.000000,0.487753,178.230000,-1.130000,4.000000,2.810000,-2.496000,-9.336000,-17.344000,-0.310000,-3.190000,-0.090000,2.800000,4.300000,1621685598843690585
263,36.000000,0.177650,120.000000,0.487753,178.180000,-0.890000,4.000000,2.790000,-0.998000,-6.023000,-10.505000,-0.290000,-3.110000,-0.080000,2.770000,4.230000,1621685598863863004
264,36.000000,0.177649,120.000000,0.487753,178.160000,-0.660000,4.000000,2.790000,-9.594000,-4.217000,-6.743000,-0.330000,-3.030000,-0.080000,2.760000,4.180000,1621685598887780966
265,36.000000,0.177649,120.000000,0.487753,178.140000,-0.580000,4.000000,2.790000,4.003000,-7.148000,-7.008000,-0.330000,-2.980000,-0.080000,2.750000,4.180000,1621685598903880528
266,36.000000,0.177648,120.000000,0.487753,178.110000,-0.330000,4.000000,2.760000,2.821000,3.856000,-9.012000,-0.310000,-3.050000,-0.090000,2.780000,4.180000,1621685598923719585
267,36.000000,0.177648,120.000000,0.487753,178.100000,-0.350000,4.000000,2.760000,-0.104000,10.683000,-19.044000,-0.300000,-3.150000,-0.090000,2.770000,4.180000,1621685598943710252
268,36.000000,0.177647,120.000000,0.487753,178.090000,-0.170000,4.000000,2.820000,3.437000,-4.458000,-12.542000,-0.310000,-3.280000,-0.080000,2.810000,4.110000,1621685598963719830
269,36.000000,0.177647,120.000000,0.487753,178.090000,-0.170000,4.000000,2.820000,0.073000,4.526000,-0.479000,-0.330000,-3.190000,-0.080000,2.810000,4.120000,1621685598983613733
270,36.000000,0.177646,120.000000,0.487753,178.090000,0.260000,4.000000,2.830000,-2.173000,2.237000,-2.602000,-0.410000,-3.160000,-0.080000,2.800000,4.100000,1621685599003712460
271,36.000000,0.177646,120.000000,0.487753,178.090000,0.070000,4.000000,2.830000,-1.237000,-9.660000,-10.733000,-0.440000,-3.160000,-0.080000,2.800000,4.120000,1621685599023746002
272,36.000000,0.177645,120.000000,0.487753,178.070000,0.090000,4.000000,2.830000,-3.733000,-7.868000,-9.222000,-0.510000,-3.120000,-0.080000,2.750000,4.120000,1621685599043617791
273,36.000000,0.177645,120.000000,0.487753,178.060000,0.540000,4.000000,2.820000,-3.574000,-1.674000,-4.652000,-0.500000,-3.070000,-0.070000,2.740000,4.130000,1621685599063634406
274,36.000000,0.177644,120.000000,0.487753,178.070000,0.320000,4.000000,2.820000,0.805000,15.965000,-15.853000,-0.520000,-3.200000,-0.070000,2.830000,4.120000,1621685599083645741
275,36.000000,0.177644,120.000000,0.487753,178.070000,0.490000,4.000000,2.840000,1.529000,3.329000,-13.339000,-0.540000,-3.230000,-0.070000,2.840000,4.150000,1621685599103707571
276,36.000000,0.177643,120.000000,0.487753,178.080000,0.440000,4.000000,2.840000,1.918000,11.032000,-9.569000,-0.600000,-3.280000,-0.080000,2.850000,4.090000,1621685599123680636
277,36.000000,0.177643,120.000000,0.487753,178.080000,0.720000,4.000000,2.840000,0.111000,10.028000,-5.139000,-0.630000,-3.240000,-0.080000,2.850000,4.070000,1621685599143776704
278,36.000000,0.177642,120.000000,0.487753,178.100000,0.670000,4.000000,2.810000,-8.932000,-10.722000,5.534000,-0.660000,-3.050000,-0.070000,2.750000,4.060000,1621685599163617454
279,36.000000,0.177642,120.000000,0.487753,178.140000,1.020000,4.000000,2.810000,-9.316000,-10.446000,3.217000,-0.660000,-2.920000,-0.070000,2.690000,4.030000,1621685599183805006
280,36.000000,0.177641,120.000000,0.487753,178.180000,1.460000,4.000000,2.810000,6.144000,3.969000,-13.017000,-0.630000,-2.810000,-0.060000,2.770000,4.060000,1621685599203742105
281,36.000000,0.177641,120.000000,0.487753,178.230000,1.010000,4.000000,2.810000,2.101000,11.947000,-10.245000,-0.590000,-2.840000,-0.060000,2.800000,4.030000,1621685599227101558
282,36.000000,0.177640,120.000000,0.487753,178.280000,2.010000,4.000000,2.810000,-9.359000,1.697000,-5.907000,-0.570000,-2.850000,-0.060000,2.740000,4.050000,1621685599245055314
283,36.000000,0.177640,120.000000,0.487753,178.350000,2.230000,4.000000,2.780000,1.528000,-7.368000,-11.719000,-0.550000,-2.870000,-0.060000,2.760000,4.050000,1621685599265037531
284,36.000000,0.177640,120.000000,0.487753,178.380000,2.540000,4.000000,2.780000,0.906000,6.964000,-7.959000,-0.580000,-2.790000,-0.060000,2.780000,4.070000,1621685599285005572
285,36.000000,0.177639,120.000000,0.487753,178.510000,2.880000,4.000000,2.810000,0.936000,7.802000,-14.449000,-0.650000,-2.850000,-0.060000,2.790000,4.110000,1621685599305253250
286,36.000000,0.177638,120.000000,0.487753,178.650000,3.180000,4.000000,2.810000,0.132000,2.776000,-19.243000,-0.690000,-3.080000,-0.050000,2.830000,4.110000,1621685599325028755
287,36.000000,0.177638,120.000000,0.487753,178.700000,3.650000,4.000000,2.810000,4.405000,7.772000,-9.151000,-0.740000,-3.080000,-0.050000,2.860000,4.100000,1621685599347726283
288,36.000000,0.177638,120.000000,0.487753,178.760000,3.830000,4.000000,2.830000,5.020000,-4.418000,-17.093000,-0.770000,-3.170000,-0.040000,2.840000,4.070000,1621685599363642939
289,36.000000,0.177637,120.000000,0.487753,178.860000,3.330000,4.000000,2.830000,5.172000,10.386000,-3.828000,-0.790000,-3.120000,-0.040000,2.870000,4.090000,1621685599383711457
290,36.000000,0.177636,120.000000,0.487753,178.950000,3.400000,4.000000,2.830000,-3.011000,-1.530000,-9.553000,-0.860000,-3.150000,-0.040000,2.810000,4.060000,1621685599403733831
291,36.000000,0.177636,120.000000,0.487753,179.080000,3.330000,4.000000,2.840000,-0.047000,3.253000,-10.504000,-0.870000,-3.100000,-0.040000,2.840000,4.080000,1621685599423864874
292,36.000000,0.177635,120.000000,0.487753,179.130000,3.280000,4.000000,2.840000,0.388000,-3.728000,-10.920000,-0.860000,-3.110000,-0.040000,2.850000,4.110000,1621685599443688473
293,36.000000,0.177635,120.000000,0.487753,179.250000,2.640000,4.000000,2.840000,0.244000,4.384000,-14.319000,-0.870000,-2.960000,-0.030000,2.830000,4.090000,1621685599466747555
294,36.000000,0.177634,120.000000,0.487753,179.360000,2.580000,4.000000,2.840000,-0.609000,5.308000,-0.930000,-0.850000,-3.090000,-0.030000,2.850000,4.090000,1621685599484745821
295,36.000000,0.177634,120.000000,0.487753,179.390000,2.640000,4.000000,2.830000,-2.667000,-0.980000,-12.458000,-0.880000,-3.030000,-0.020000,2.820000,4.050000,1621685599504916286
296,36.000000,0.177633,120.000000,0.487753,179.480000,2.250000,4.000000,2.830000,-4.997000,-5.107000,-5.417000,-0.920000,-2.840000,-0.020000,2.750000,4.120000,1621685599524759724
297,36.000000,0.177633,120.000000,0.487753,179.510000,2.270000,4.000000,2.830000,0.743000,-2.878000,-6.246000,-0.940000,-2.770000,-0.020000,2.760000,4.100000,1621685599544648249
298,36.000000,0.177632,120.000000,0.487753,179.570000,1.930000,4.000000,2.850000,2.903000,3.062000,-13.717000,-0.960000,-2.830000,-0.020000,2.800000,4.130000,1621685599564708158
299,36.000000,0.177632,120.000000,0.487753,179.640000,2.200000,4.000000,2.850000,1.457000,-7.570000,-15.777000,-1.010000,-2.900000,-0.020000,2.840000,4.190000,1621685599584831649
300,36.000000,0.177631,120.000000,0.487753,179.750000,2.370000,4.000000,2.850000,1.102000,-9.450000,-11.125000,-1.080000,-2.930000,-0.010000,2.840000,4.190000,1621685599604723309
301,36.000000,0.177630,120.000000,0.487753,179.790000,2.450000,4.000000,2.850000,-6.193000,-2.715000,-9.391000,-1.100000,-2.950000,-0.010000,2.810000,4.210000,1621685599624707926
302,36.000000,0.177630,120.000000,0.487753,179.880000,2.940000,4.000000,2.850000,-0.115000,4.066000,-17.124000,-1.120000,-3.030000,-0.010000,2.820000,4.170000,1621685599644775739
303,36.000000,0.177629,120.000000,0.487753,179.960000,3.100000,4.000000,2.830000,0.053000,2.005000,-10.956000,-1.180000,-3.150000,0.000000,2.870000,4.170000,1621685599665564866
304,36.000000,0.177629,120.000000,0.487753,180.000000,3.240000,4.000000,2.830000,0.807000,-0.780000,-7.601000,-1.200000,-3.130000,0.000000,2.860000,4.200000,1621685599684777930
305,36.000000,0.177628,120.000000,0.487753,180.110000,2.780000,4.000000,2.820000,-4.713000,-0.455000,0.273000,-1.260000,-3.070000,0.000000,2.780000,4.170000,1621685599704711125
306,36.000000,0.177628,120.000000,0.487753,180.180000,2.930000,4.000000,2.820000,-2.976000,-9.403000,-9.770000,-1.300000,-3.070000,0.000000,2.760000,4.150000,1621685599724632672
307,36.000000,0.177627,120.000000,0.487753,180.250000,2.980000,4.000000,2.820000,-0.294000,-11.992000,-4.944000,-1.340000,-2.880000,0.000000,2.750000,4.150000,1621685599744557803
308,36.000000,0.177627,120.000000,0.487753,180.330000,2.710000,4.000000,2.830000,-4.873000,3.620000,-5.589000,-1.310000,-2.840000,0.000000,2.700000,4.120000,1621685599764728332
309,36.000000,0.177627,120.000000,0.487753,180.360000,2.720000,4.000000,2.830000,4.080000,4.145000,-15.057000,-1.290000,-2.910000,0.000000,2.780000,4.090000,1621685599784692405
310,36.000000,0.177626,120.000000,0.487753,180.480000,2.590000,4.000000,2.810000,4.371000,7.516000,-19.480000,-1.280000,-3.100000,0.000000,2.830000,4.050000,1621685599804722396
311,36.000000,0.177626,120.000000,0.487753,180.510000,2.600000,4.000000,2.810000,-4.773000,4.455000,-19.832000,-1.300000,-3.250000,0.000000,2.800000,4.010000,1621685599824711044
312,36.000000,0.177625,120.000000,0.487753,180.620000,2.600000,4.000000,2.810000,-4.239000,0.692000,-17.426000,-1.370000,-3.300000,0.000000,2.860000,3.890000,1621685599844719980
313,36.000000,0.177625,120.000000,0.487753,180.650000,2.890000,4.000000,2.830000,-0.967000,4.724000,-4.397000,-1.390000,-3.310000,0.000000,2.810000,3.860000,1621685599867886609
314,36.000000,0.177624,120.000000,0.487753,180.760000,2.620000,4.000000,2.830000,-6.543000,2.434000,-10.354000,-1.470000,-3.390000,0.000000,2.780000,3.750000,1621685599883776354
315,36.000000,0.177624,120.000000,0.487752,180.790000,2.420000,4.000000,2.830000,4.171000,-10.940000,-2.914000,-1.510000,-3.310000,0.000000,2.830000,3.710000,1621685599903712461
316,36.000000,0.177623,120.000000,0.487752,180.870000,2.150000,4.000000,2.840000,4.604000,-12.461000,-4.260000,-1.530000,-3.120000,0.000000,2.830000,3.610000,1621685599923798225
317,36.000000,0.177623,120.000000,0.487752,180.900000,2.270000,4.000000,2.840000,1.413000,11.014000,-8.713000,-1.560000,-3.120000,0.000000,2.850000,3.570000,1621685599943725948
318,36.000000,0.177622,120.000000,0.487752,180.980000,1.980000,4.000000,2.830000,-0.638000,6.228000,-14.580000,-1.570000,-3.280000,0.000000,2.950000,3.500000,1621685599963715268
319,36.000000,0.177622,120.000000,0.487752,181.030000,1.790000,4.000000,2.830000,-1.711000,7.615000,-19.683000,-1.560000,-3.370000,0.000000,2.910000,3.480000,1621685599983698989
320,36.000000,0.177621,120.000000,0.487752,181.070000,1.740000,4.000000,2.820000,2.429000,7.953000,-19.554000,-1.610000,-3.620000,0.000000,2.930000,3.430000,1621685600003781937
321,36.000000,0.177621,120.000000,0.487752,181.120000,2.070000,4.000000,2.820000,3.715000,-5.973000,-11.517000,-1.640000,-3.620000,0.000000,2.930000,3.420000,1621685600023720952
322,36.000000,0.177620,120.000000,0.487752,181.180000,2.120000,4.000000,2.820000,-11.219000,-16.036000,3.199000,-1.670000,-3.380000,0.000000,2.800000,3.360000,1621685600043846648
323,36.000000,0.177619,120.000000,0.487752,181.240000,1.960000,4.000000,2.830000,-8.500000,-20.347000,4.145000,-1.660000,-3.090000,0.000000,2.680000,3.340000,1621685600063881724
324,36.000000,0.177619,120.000000,0.487752,181.270000,2.070000,4.000000,2.830000,-5.077000,-14.180000,-11.694000,-1.640000,-2.930000,0.000000,2.520000,3.300000,1621685600084102136
325,36.000000,0.177618,120.000000,0.487752,181.390000,2.320000,4.000000,2.830000,1.898000,11.959000,-18.488000,-1.620000,-3.020000,0.000000,2.550000,3.240000,1621685600103903526
326,36.000000,0.177618,120.000000,0.487752,181.430000,2.520000,4.000000,2.830000,0.031000,9.690000,-19.554000,-1.600000,-3.180000,0.000000,2.700000,3.180000,1621685600123756529
327,36.000000,0.177617,120.000000,0.487752,181.540000,3.010000,4.000000,2.830000,-4.517000,8.402000,-17.400000,-1.590000,-3.350000,0.000000,2.830000,3.080000,1621685600143814740
328,36.000000,0.177617,120.000000,0.487752,181.580000,2.910000,4.000000,2.830000,5.184000,-5.021000,-7.094000,-1.600000,-3.390000,0.010000,2.840000,3.050000,1621685600163739100
329,36.000000,0.177616,120.000000,0.487752,181.700000,2.920000,4.000000,2.830000,-5.111000,-11.092000,-13.129000,-1.650000,-3.470000,0.010000,2.900000,2.970000,1621685600183723106
330,36.000000,0.177616,120.000000,0.487752,181.740000,2.990000,4.000000,2.830000,-8.845000,-17.225000,5.048000,-1.670000,-3.480000,0.010000,2.850000,2.930000,1621685600203938078
331,36.000000,0.177615,120.000000,0.487752,181.850000,3.140000,4.000000,2.810000,-0.553000,-17.046000,-12.100000,-1.720000,-3.070000,0.020000,2.610000,2.840000,1621685600223921604
332,36.000000,0.177615,120.000000,0.487752,181.890000,3.040000,4.000000,2.810000,2.801000,-10.779000,-12.449000,-1.690000,-3.100000,0.020000,2.650000,2.800000,1621685600243903690
333,36.000000,0.177614,120.000000,0.487752,182.000000,3.190000,4.000000,2.850000,2.068000,-2.735000,-16.132000,-1.630000,-3.170000,0.010000,2.740000,2.710000,1621685600263928206
334,36.000000,0.177614,120.000000,0.487752,182.080000,2.890000,4.000000,2.850000,-0.614000,5.685000,-9.461000,-1.600000,-3.170000,0.010000,2.760000,2.680000,1621685600283945970
335,36.000000,0.177613,120.000000,0.487752,182.150000,2.660000,4.000000,2.810000,3.924000,4.140000,-9.558000,-1.540000,-3.120000,0.020000,2.820000,2.600000,1621685600303915481
