frame,pgsnh,gpsnl,gpseh,gpsel,heading_angle,yaw_rate,gps_state,gps_velocity,acceleration_forward,acceleration_lateral,acceleration_down,pitch_angle,velocity_down,velocity_lateral,velocity_forward,roll_angle,timestamp
1,36.000000,0.177706,120.000000,0.487604,176.660000,0.620000,4.000000,0.610000,-3.488000,-5.023000,-14.258000,0.120000,-3.190000,0.020000,0.630000,-3.110000,1620812255234571104
2,36.000000,0.177706,120.000000,0.487604,176.660000,0.870000,4.000000,0.610000,3.148000,1.633000,-10.384000,0.110000,-3.190000,0.020000,0.660000,-3.200000,1620812255254315712
3,36.000000,0.177706,120.000000,0.487604,176.660000,0.370000,4.000000,0.600000,0.419000,-6.233000,-9.399000,0.130000,-3.220000,0.020000,0.650000,-3.220000,1620812255274464256
4,36.000000,0.177706,120.000000,0.487604,176.680000,0.380000,4.000000,0.600000,-2.167000,-0.296000,-11.358000,0.150000,-3.220000,0.020000,0.620000,-3.310000,1620812255294367616
5,36.000000,0.177706,120.000000,0.487604,176.680000,0.380000,4.000000,0.600000,0.354000,-1.302000,-10.291000,0.170000,-3.240000,0.020000,0.660000,-3.340000,1620812255317509024
6,36.000000,0.177706,120.000000,0.487604,176.720000,0.130000,4.000000,0.600000,1.635000,-4.059000,-10.003000,0.190000,-3.310000,0.020000,0.630000,-3.420000,1620812255335418912
7,36.000000,0.177706,120.000000,0.487604,176.720000,0.130000,4.000000,0.600000,-0.559000,1.627000,-12.573000,0.210000,-3.350000,0.020000,0.640000,-3.450000,1620812255355506368
8,36.000000,0.177705,120.000000,0.487604,176.720000,0.020000,4.000000,0.610000,-0.263000,-7.278000,-5.495000,0.260000,-3.210000,0.020000,0.620000,-3.560000,1620812255375394208
9,36.000000,0.177705,120.000000,0.487604,176.690000,0.760000,4.000000,0.610000,-4.298000,2.250000,-8.713000,0.270000,-3.160000,0.020000,0.570000,-3.600000,1620812255395495328
10,36.000000,0.177705,120.000000,0.487604,176.690000,-0.290000,4.000000,0.590000,0.754000,-7.818000,-8.976000,0.320000,-3.090000,0.020000,0.610000,-3.520000,1620812255415441344
11,36.000000,0.177705,120.000000,0.487604,176.700000,0.640000,4.000000,0.590000,-0.335000,-5.719000,-18.339000,0.340000,-3.120000,0.020000,0.570000,-3.480000,1620812255435354944
12,36.000000,0.177705,120.000000,0.487604,176.710000,-0.230000,4.000000,0.590000,-5.599000,-4.254000,-14.067000,0.390000,-3.120000,0.020000,0.650000,-3.410000,1620812255455289376
13,36.000000,0.177705,120.000000,0.487604,176.700000,0.630000,4.000000,0.590000,2.124000,-7.477000,-15.279000,0.410000,-3.220000,0.020000,0.610000,-3.380000,1620812255475436832
14,36.000000,0.177705,120.000000,0.487604,176.690000,-0.060000,4.000000,0.590000,-3.450000,-0.744000,-2.468000,0.390000,-3.090000,0.020000,0.630000,-3.330000,1620812255498053344
15,36.000000,0.177705,120.000000,0.487604,176.660000,0.380000,4.000000,0.570000,0.668000,-9.711000,-13.850000,0.370000,-3.140000,0.020000,0.630000,-3.290000,1620812255516103520
16,36.000000,0.177704,120.000000,0.487604,176.640000,0.130000,4.000000,0.570000,-0.794000,-1.199000,-6.881000,0.360000,-3.080000,0.020000,0.650000,-3.220000,1620812255533915776
17,36.000000,0.177704,120.000000,0.487604,176.630000,0.310000,4.000000,0.570000,-1.604000,-7.185000,-9.925000,0.380000,-3.090000,0.020000,0.630000,-3.190000,1620812255556043104
18,36.000000,0.177704,120.000000,0.487604,176.590000,-0.110000,4.000000,0.630000,4.029000,2.032000,-16.746000,0.430000,-3.180000,0.020000,0.670000,-3.110000,1620812255576036000
19,36.000000,0.177704,120.000000,0.487604,176.560000,0.330000,4.000000,0.630000,0.254000,2.428000,-11.822000,0.450000,-3.190000,0.020000,0.660000,-3.080000,1620812255595966432
20,36.000000,0.177704,120.000000,0.487604,176.560000,-0.100000,4.000000,0.580000,2.618000,-3.553000,-12.716000,0.490000,-3.280000,0.020000,0.670000,-3.000000,1620812255615943136
21,36.000000,0.177704,120.000000,0.487604,176.560000,0.770000,4.000000,0.580000,-3.567000,1.588000,-5.841000,0.510000,-3.240000,0.020000,0.630000,-2.980000,1620812255639848160
22,36.000000,0.177704,120.000000,0.487604,176.580000,0.140000,4.000000,0.640000,-5.249000,1.899000,-12.031000,0.550000,-3.280000,0.020000,0.670000,-2.910000,1620812255659422976
23,36.000000,0.177704,120.000000,0.487604,176.590000,1.010000,4.000000,0.640000,-9.506000,-4.298000,-11.044000,0.560000,-3.290000,0.020000,0.590000,-2.880000,1620812255675450336
24,36.000000,0.177704,120.000000,0.487604,176.600000,1.010000,4.000000,0.640000,3.007000,3.960000,-7.000000,0.590000,-3.240000,0.020000,0.650000,-2.840000,1620812255695468832
25,36.000000,0.177704,120.000000,0.487604,176.620000,0.880000,4.000000,0.640000,5.038000,1.967000,-6.240000,0.630000,-3.220000,0.020000,0.680000,-2.780000,1620812255715722624
26,36.000000,0.177703,120.000000,0.487604,176.650000,1.610000,4.000000,0.600000,1.867000,6.809000,-6.268000,0.680000,-3.170000,0.020000,0.580000,-2.730000,1620812255755751808
27,36.000000,0.177703,120.000000,0.487604,176.660000,1.850000,4.000000,0.600000,1.457000,6.978000,-8.233000,0.710000,-3.270000,0.030000,0.560000,-2.670000,1620812255775434176
28,36.000000,0.177703,120.000000,0.487604,176.700000,1.660000,4.000000,0.600000,-2.341000,-6.647000,-19.455000,0.710000,-3.180000,0.030000,0.490000,-2.560000,1620812255795457856
29,36.000000,0.177703,120.000000,0.487604,176.710000,1.670000,4.000000,0.580000,10.308000,7.120000,-4.285000,0.690000,-3.270000,0.030000,0.480000,-2.530000,1620812255815724480
30,36.000000,0.177703,120.000000,0.487604,176.750000,1.720000,4.000000,0.580000,5.554000,-14.340000,-17.131000,0.720000,-3.140000,0.020000,0.430000,-2.420000,1620812255835449888
31,36.000000,0.177703,120.000000,0.487604,176.770000,1.970000,4.000000,0.580000,0.802000,5.720000,-11.817000,0.700000,-3.230000,0.020000,0.540000,-2.430000,1620812255855755488
32,36.000000,0.177703,120.000000,0.487604,176.860000,1.720000,4.000000,0.590000,3.450000,-15.976000,-17.900000,0.660000,-3.180000,0.020000,0.480000,-2.320000,1620812255876014976
33,36.000000,0.177703,120.000000,0.487604,176.930000,1.230000,4.000000,0.590000,0.021000,3.478000,-12.788000,0.650000,-3.290000,0.020000,0.530000,-2.380000,1620812255895459680
34,36.000000,0.177702,120.000000,0.487604,177.000000,1.980000,4.000000,0.600000,-0.613000,4.374000,0.195000,0.630000,-3.260000,0.030000,0.500000,-2.340000,1620812255920518912
35,36.000000,0.177702,120.000000,0.487604,177.080000,1.550000,4.000000,0.600000,1.960000,-0.790000,-10.156000,0.610000,-3.160000,0.030000,0.560000,-2.340000,1620812255934586304
36,36.000000,0.177702,120.000000,0.487604,177.150000,2.040000,4.000000,0.610000,-0.982000,2.664000,-3.425000,0.560000,-3.210000,0.030000,0.590000,-2.320000,1620812255954817984
37,36.000000,0.177702,120.000000,0.487604,177.240000,1.860000,4.000000,0.610000,-1.129000,-1.151000,-8.115000,0.540000,-3.130000,0.030000,0.590000,-2.360000,1620812255974556608
38,36.000000,0.177702,120.000000,0.487604,177.330000,1.800000,4.000000,0.610000,-1.470000,3.970000,-11.721000,0.480000,-3.160000,0.030000,0.570000,-2.340000,1620812255994817408
39,36.000000,0.177702,120.000000,0.487604,177.470000,1.920000,4.000000,0.630000,0.387000,-0.898000,-7.617000,0.400000,-3.040000,0.030000,0.590000,-2.360000,1620812256039109376
40,36.000000,0.177702,120.000000,0.487604,177.470000,1.920000,4.000000,0.630000,0.387000,-0.898000,-7.617000,0.400000,-3.040000,0.030000,0.590000,-2.360000,1620812256041169056
41,36.000000,0.177702,120.000000,0.487604,177.510000,1.980000,4.000000,0.630000,5.535000,-5.132000,-12.560000,0.380000,-3.080000,0.030000,0.640000,-2.320000,1620812256055195232
42,36.000000,0.177702,120.000000,0.487604,177.570000,1.490000,4.000000,0.640000,-3.554000,1.293000,-18.613000,0.340000,-3.160000,0.030000,0.620000,-2.260000,1620812256073220640
43,36.000000,0.177701,120.000000,0.487604,177.630000,1.800000,4.000000,0.640000,0.554000,-3.934000,-15.013000,0.280000,-3.280000,0.030000,0.660000,-2.250000,1620812256095191840
44,36.000000,0.177701,120.000000,0.487604,177.730000,1.670000,4.000000,0.650000,-3.026000,0.761000,-9.050000,0.280000,-3.270000,0.030000,0.650000,-2.200000,1620812256115184960
45,36.000000,0.177701,120.000000,0.487604,177.770000,2.530000,4.000000,0.650000,3.259000,2.545000,-8.842000,0.270000,-3.250000,0.030000,0.680000,-2.220000,1620812256138420160
46,36.000000,0.177701,120.000000,0.487604,177.890000,1.660000,4.000000,0.590000,-10.532000,1.437000,-6.489000,0.270000,-3.170000,0.020000,0.570000,-2.150000,1620812256156892192
47,36.000000,0.177701,120.000000,0.487604,177.920000,2.220000,4.000000,0.590000,9.582000,-4.722000,-7.574000,0.270000,-3.150000,0.020000,0.660000,-2.120000,1620812256179673952
48,36.000000,0.177701,120.000000,0.487604,178.020000,2.160000,4.000000,0.590000,6.313000,-6.525000,-11.083000,0.300000,-3.170000,0.020000,0.620000,-2.120000,1620812256197889088
49,36.000000,0.177701,120.000000,0.487604,178.060000,2.340000,4.000000,0.590000,4.368000,-3.385000,-8.901000,0.330000,-3.160000,0.020000,0.660000,-2.080000,1620812256215948448
50,36.000000,0.177701,120.000000,0.487604,178.160000,1.970000,4.000000,0.590000,-4.428000,-8.437000,-19.444000,0.350000,-3.070000,0.020000,0.610000,-2.050000,1620812256239151040
51,36.000000,0.177700,120.000000,0.487604,178.320000,2.710000,4.000000,0.610000,-3.871000,-5.374000,-10.031000,0.390000,-3.210000,0.020000,0.570000,-1.990000,1620812256258577184
52,36.000000,0.177700,120.000000,0.487604,178.360000,1.720000,4.000000,0.610000,2.866000,6.085000,-5.441000,0.390000,-3.020000,0.020000,0.540000,-1.960000,1620812256276138656
53,36.000000,0.177700,120.000000,0.487604,178.400000,2.340000,4.000000,0.610000,-3.409000,0.492000,-18.007000,0.410000,-3.070000,0.020000,0.560000,-1.950000,1620812256292787776
54,36.000000,0.177700,120.000000,0.487604,178.550000,2.030000,4.000000,0.610000,-0.498000,4.778000,-6.271000,0.400000,-2.980000,0.020000,0.600000,-1.850000,1620812256314657632
55,36.000000,0.177700,120.000000,0.487604,178.680000,2.710000,4.000000,0.590000,-0.337000,-5.919000,-11.431000,0.390000,-3.080000,0.020000,0.600000,-1.760000,1620812256334547936
56,36.000000,0.177700,120.000000,0.487604,178.730000,2.220000,4.000000,0.590000,-2.448000,-0.830000,-7.957000,0.370000,-3.080000,0.020000,0.570000,-1.740000,1620812256354547936
57,36.000000,0.177700,120.000000,0.487604,178.890000,2.890000,4.000000,0.640000,1.793000,0.925000,-4.731000,0.320000,-3.130000,0.020000,0.580000,-1.660000,1620812256374581536
58,36.000000,0.177700,120.000000,0.487604,179.120000,3.020000,4.000000,0.580000,-1.114000,8.371000,-0.413000,0.260000,-3.140000,0.020000,0.590000,-1.560000,1620812256415172032
59,36.000000,0.177700,120.000000,0.487604,179.170000,2.770000,4.000000,0.580000,-4.192000,3.970000,-15.772000,0.240000,-3.110000,0.020000,0.550000,-1.550000,1620812256434669248
60,36.000000,0.177699,120.000000,0.487604,179.320000,3.200000,4.000000,0.580000,-2.045000,13.042000,-0.438000,0.180000,-3.290000,0.020000,0.590000,-1.440000,1620812256454780576
61,36.000000,0.177699,120.000000,0.487604,179.370000,2.950000,4.000000,0.650000,1.424000,-0.129000,-8.533000,0.160000,-3.180000,0.020000,0.610000,-1.420000,1620812256474722560
62,36.000000,0.177699,120.000000,0.487604,179.550000,3.500000,4.000000,0.650000,5.913000,12.059000,-5.959000,0.120000,-3.160000,0.020000,0.650000,-1.340000,1620812256494674080
63,36.000000,0.177699,120.000000,0.487604,179.620000,3.070000,4.000000,0.650000,6.108000,-0.920000,-8.577000,0.100000,-3.150000,0.020000,0.700000,-1.330000,1620812256514673920
64,36.000000,0.177699,120.000000,0.487604,179.770000,3.560000,4.000000,0.610000,4.856000,10.951000,11.207000,0.050000,-2.940000,0.020000,0.670000,-1.270000,1620812256534499488
65,36.000000,0.177699,120.000000,0.487604,179.810000,2.030000,4.000000,0.610000,-13.878000,-18.611000,-13.490000,0.030000,-2.990000,0.020000,0.550000,-1.170000,1620812256555187232
66,36.000000,0.177699,120.000000,0.487604,179.880000,3.010000,4.000000,0.660000,-6.121000,9.077000,11.777000,0.010000,-2.780000,0.020000,0.520000,-1.160000,1620812256576166592
67,36.000000,0.177699,120.000000,0.487604,180.090000,3.500000,4.000000,0.660000,4.517000,11.394000,-7.629000,-0.020000,-2.780000,0.020000,0.590000,-1.070000,1620812256595684352
68,36.000000,0.177699,120.000000,0.487604,180.170000,3.990000,4.000000,0.580000,-3.773000,-18.112000,-19.443000,0.000000,-2.770000,0.020000,0.650000,-1.020000,1620812256615627840
69,36.000000,0.177698,120.000000,0.487604,180.330000,4.120000,4.000000,0.580000,4.292000,-8.831000,-19.608000,0.030000,-2.880000,0.010000,0.560000,-1.020000,1620812256635636544
70,36.000000,0.177698,120.000000,0.487604,180.400000,3.930000,4.000000,0.580000,7.517000,13.124000,-9.825000,0.060000,-2.990000,0.010000,0.660000,-0.990000,1620812256655578240
71,36.000000,0.177698,120.000000,0.487604,180.590000,4.730000,4.000000,0.630000,3.507000,-5.938000,-13.835000,0.020000,-2.870000,0.010000,0.680000,-0.980000,1620812256675588384
72,36.000000,0.177698,120.000000,0.487604,180.760000,3.870000,4.000000,0.630000,-3.330000,-6.736000,-19.490000,0.010000,-3.020000,0.010000,0.650000,-0.960000,1620812256695682976
73,36.000000,0.177698,120.000000,0.487604,180.940000,4.540000,4.000000,0.640000,0.068000,-5.509000,-14.502000,-0.040000,-2.930000,0.010000,0.690000,-0.900000,1620812256715773536
74,36.000000,0.177698,120.000000,0.487603,181.030000,3.750000,4.000000,0.640000,-3.185000,0.067000,-10.794000,-0.050000,-2.990000,0.020000,0.640000,-0.870000,1620812256735636000
75,36.000000,0.177698,120.000000,0.487603,181.310000,3.990000,4.000000,0.740000,3.979000,10.878000,-16.108000,-0.070000,-2.930000,0.020000,0.770000,-0.810000,1620812256755958240
76,36.000000,0.177698,120.000000,0.487603,181.310000,3.990000,4.000000,0.740000,3.979000,10.878000,-16.108000,-0.070000,-2.930000,0.020000,0.770000,-0.810000,1620812256775825856
77,36.000000,0.177697,120.000000,0.487603,181.640000,5.390000,4.000000,0.740000,-2.160000,6.994000,6.600000,-0.010000,-2.670000,0.020000,0.730000,-0.750000,1620812256795596000
78,36.000000,0.177697,120.000000,0.487603,181.720000,6.190000,4.000000,0.800000,2.008000,-17.168000,-8.805000,0.000000,-2.670000,0.020000,0.760000,-0.720000,1620812256815848256
79,36.000000,0.177697,120.000000,0.487603,182.040000,6.310000,4.000000,0.800000,6.629000,2.859000,-10.380000,0.000000,-2.550000,0.020000,0.800000,-0.660000,1620812256833713920
80,36.000000,0.177697,120.000000,0.487603,182.150000,6.370000,4.000000,0.800000,0.051000,12.998000,-10.465000,0.020000,-2.570000,0.020000,0.800000,-0.640000,1620812256855876448
81,36.000000,0.177697,120.000000,0.487603,182.450000,7.170000,4.000000,0.830000,0.536000,11.966000,-7.980000,0.060000,-2.660000,0.030000,0.850000,-0.580000,1620812256875647904
82,36.000000,0.177697,120.000000,0.487603,182.650000,6.560000,4.000000,0.830000,2.471000,-4.448000,-16.296000,0.070000,-2.740000,0.030000,0.860000,-0.560000,1620812256895775584
83,36.000000,0.177696,120.000000,0.487603,182.880000,6.500000,4.000000,0.900000,0.443000,-8.016000,-13.742000,0.060000,-2.810000,0.030000,0.880000,-0.600000,1620812256917736864
84,36.000000,0.177696,120.000000,0.487603,183.120000,7.480000,4.000000,0.900000,-3.303000,-3.632000,-9.524000,0.040000,-2.820000,0.030000,0.860000,-0.560000,1620812256935763264
85,36.000000,0.177696,120.000000,0.487603,183.370000,6.380000,4.000000,0.880000,-8.781000,-5.068000,-19.021000,0.060000,-2.860000,0.030000,0.840000,-0.530000,1620812256955611392
86,36.000000,0.177696,120.000000,0.487603,183.630000,6.630000,4.000000,0.880000,7.079000,-4.625000,-0.076000,0.080000,-2.770000,0.030000,0.900000,-0.510000,1620812256975809984
87,36.000000,0.177696,120.000000,0.487603,183.750000,6.450000,4.000000,0.880000,-8.385000,5.448000,-19.604000,0.120000,-2.820000,0.030000,0.870000,-0.450000,1620812256995687136
88,36.000000,0.177696,120.000000,0.487603,184.000000,6.690000,4.000000,0.930000,-4.546000,-0.740000,-19.673000,0.180000,-3.040000,0.030000,0.850000,-0.340000,1620812257015797184
89,36.000000,0.177695,120.000000,0.487603,184.280000,6.690000,4.000000,0.930000,7.651000,-0.825000,-6.803000,0.200000,-3.150000,0.030000,0.790000,-0.370000,1620812257036297568
90,36.000000,0.177695,120.000000,0.487603,184.690000,6.620000,4.000000,0.880000,-11.488000,0.232000,-19.720000,0.200000,-3.260000,0.030000,0.770000,-0.300000,1620812257053697792
91,36.000000,0.177695,120.000000,0.487603,184.830000,7.230000,4.000000,0.880000,14.793000,3.392000,-1.292000,0.200000,-3.220000,0.030000,0.860000,-0.310000,1620812257075718432
92,36.000000,0.177695,120.000000,0.487603,185.260000,6.920000,4.000000,0.880000,11.351000,6.374000,-5.086000,0.180000,-3.190000,0.030000,0.890000,-0.290000,1620812257095689760
93,36.000000,0.177695,120.000000,0.487603,185.400000,5.590000,4.000000,0.880000,-11.079000,-8.439000,-12.220000,0.170000,-3.140000,0.030000,1.000000,-0.300000,1620812257115753376
94,36.000000,0.177695,120.000000,0.487603,185.780000,6.380000,4.000000,0.880000,6.319000,-1.459000,-8.184000,0.110000,-3.060000,0.040000,0.830000,-0.280000,1620812257135816896
95,36.000000,0.177695,120.000000,0.487602,185.910000,6.320000,4.000000,0.880000,-3.432000,-1.250000,0.467000,0.100000,-2.950000,0.040000,0.860000,-0.260000,1620812257155653728
96,36.000000,0.177695,120.000000,0.487602,186.290000,6.140000,4.000000,0.890000,2.855000,6.057000,-8.047000,0.080000,-2.910000,0.040000,0.830000,-0.190000,1620812257175648864
97,36.000000,0.177694,120.000000,0.487602,186.410000,6.070000,4.000000,0.890000,1.516000,-5.231000,-10.387000,0.070000,-2.920000,0.040000,0.880000,-0.160000,1620812257195711456
98,36.000000,0.177694,120.000000,0.487602,186.780000,6.320000,4.000000,0.890000,4.896000,0.859000,-19.765000,0.050000,-2.850000,0.040000,0.860000,-0.070000,1620812257220193344
99,36.000000,0.177694,120.000000,0.487602,186.900000,6.500000,4.000000,0.890000,8.851000,8.286000,-11.482000,0.030000,-2.980000,0.040000,0.990000,-0.050000,1620812257233336480
100,36.000000,0.177694,120.000000,0.487602,187.280000,6.870000,4.000000,0.880000,4.199000,-0.978000,0.834000,-0.020000,-2.980000,0.040000,0.990000,0.020000,1620812257255649184
101,36.000000,0.177694,120.000000,0.487602,187.390000,6.800000,4.000000,0.880000,-1.972000,2.855000,-2.906000,-0.030000,-2.830000,0.040000,0.980000,0.030000,1620812257278885792
102,36.000000,0.177693,120.000000,0.487602,187.730000,6.930000,4.000000,0.880000,2.099000,-3.129000,-17.809000,-0.090000,-2.900000,0.040000,0.920000,0.100000,1620812257294826400
103,36.000000,0.177693,120.000000,0.487602,187.840000,6.440000,4.000000,0.880000,1.554000,1.185000,-17.803000,-0.100000,-2.980000,0.040000,0.920000,0.140000,1620812257317837248
104,36.000000,0.177693,120.000000,0.487602,188.150000,6.990000,4.000000,0.910000,0.558000,2.065000,-9.722000,-0.090000,-3.030000,0.040000,0.880000,0.220000,1620812257335738144
105,36.000000,0.177693,120.000000,0.487602,188.240000,7.650000,4.000000,0.910000,6.473000,15.208000,-5.971000,-0.070000,-3.000000,0.040000,0.940000,0.230000,1620812257355835136
106,36.000000,0.177693,120.000000,0.487602,188.600000,7.530000,4.000000,0.950000,-4.900000,-4.578000,-4.317000,-0.030000,-2.890000,0.050000,0.910000,0.300000,1620812257375754048
107,36.000000,0.177693,120.000000,0.487602,188.860000,8.080000,4.000000,0.950000,-0.028000,1.197000,1.034000,-0.040000,-2.790000,0.050000,0.920000,0.320000,1620812257395884736
108,36.000000,0.177692,120.000000,0.487602,189.120000,7.650000,4.000000,0.980000,0.768000,3.019000,-8.005000,-0.030000,-2.870000,0.050000,0.970000,0.290000,1620812257415819840
109,36.000000,0.177692,120.000000,0.487602,189.370000,7.720000,4.000000,0.980000,-0.083000,-4.429000,-13.596000,-0.050000,-2.910000,0.050000,0.980000,0.310000,1620812257435852384
110,36.000000,0.177692,120.000000,0.487601,189.620000,8.210000,4.000000,1.040000,0.995000,-10.617000,-13.167000,-0.070000,-2.880000,0.050000,0.970000,0.310000,1620812257455664288
111,36.000000,0.177692,120.000000,0.487601,189.880000,8.630000,4.000000,1.040000,-2.119000,-2.678000,3.521000,-0.060000,-2.760000,0.050000,0.970000,0.270000,1620812257475940256
112,36.000000,0.177692,120.000000,0.487601,189.980000,8.280000,4.000000,1.040000,0.212000,0.471000,-19.757000,-0.060000,-2.820000,0.050000,0.970000,0.330000,1620812257495728416
113,36.000000,0.177692,120.000000,0.487601,190.310000,8.890000,4.000000,1.060000,-3.002000,-2.147000,-19.777000,-0.100000,-2.990000,0.060000,1.020000,0.320000,1620812257515938304
114,36.000000,0.177692,120.000000,0.487601,190.410000,9.190000,4.000000,1.060000,2.473000,6.478000,-19.716000,-0.130000,-3.100000,0.060000,1.040000,0.340000,1620812257535763264
115,36.000000,0.177691,120.000000,0.487601,190.720000,9.440000,4.000000,1.070000,-8.617000,-9.836000,11.238000,-0.170000,-2.980000,0.060000,0.980000,0.290000,1620812257555852576
116,36.000000,0.177691,120.000000,0.487601,190.830000,9.260000,4.000000,1.070000,-17.724000,-3.682000,2.017000,-0.200000,-2.870000,0.060000,0.920000,0.340000,1620812257578974240
117,36.000000,0.177691,120.000000,0.487601,191.270000,9.700000,4.000000,1.140000,7.379000,-1.548000,-19.744000,-0.230000,-2.850000,0.060000,0.950000,0.460000,1620812257614925888
118,36.000000,0.177691,120.000000,0.487601,191.610000,10.000000,4.000000,1.140000,-1.261000,1.269000,-8.720000,-0.250000,-3.040000,0.070000,1.180000,0.490000,1620812257634740064
119,36.000000,0.177690,120.000000,0.487601,191.720000,10.110000,4.000000,1.140000,2.906000,1.110000,-2.235000,-0.260000,-2.970000,0.070000,1.170000,0.510000,1620812257654734784
120,36.000000,0.177690,120.000000,0.487600,192.070000,10.120000,4.000000,1.130000,4.354000,-6.243000,-19.797000,-0.310000,-3.090000,0.070000,1.200000,0.540000,1620812257679397792
121,36.000000,0.177690,120.000000,0.487600,192.180000,10.480000,4.000000,1.130000,1.195000,13.450000,-2.472000,-0.330000,-3.120000,0.070000,1.250000,0.570000,1620812257695443840
122,36.000000,0.177690,120.000000,0.487600,192.540000,10.180000,4.000000,1.210000,-5.445000,-6.541000,-5.399000,-0.380000,-3.040000,0.080000,1.250000,0.570000,1620812257715531616
123,36.000000,0.177690,120.000000,0.487600,192.660000,10.110000,4.000000,1.210000,-3.739000,-13.266000,-8.567000,-0.360000,-2.990000,0.080000,1.180000,0.610000,1620812257735379648
124,36.000000,0.177689,120.000000,0.487600,193.000000,10.170000,4.000000,1.160000,-3.324000,-0.062000,3.122000,-0.310000,-2.980000,0.080000,1.160000,0.630000,1620812257755540736
125,36.000000,0.177689,120.000000,0.487600,193.120000,10.240000,4.000000,1.160000,-4.203000,-4.453000,-4.680000,-0.290000,-2.820000,0.080000,1.110000,0.650000,1620812257775554208
126,36.000000,0.177689,120.000000,0.487600,193.450000,10.110000,4.000000,1.160000,3.684000,8.504000,-14.261000,-0.240000,-2.900000,0.080000,1.180000,0.730000,1620812257795520128
127,36.000000,0.177689,120.000000,0.487600,193.570000,9.750000,4.000000,1.260000,0.608000,-7.361000,-19.857000,-0.220000,-3.010000,0.090000,1.190000,0.760000,1620812257815733088
128,36.000000,0.177688,120.000000,0.487599,193.900000,10.050000,4.000000,1.260000,-0.017000,-9.346000,-11.769000,-0.210000,-2.890000,0.090000,1.170000,0.830000,1620812257835448768
129,36.000000,0.177688,120.000000,0.487599,194.010000,9.800000,4.000000,1.260000,-5.862000,-1.897000,-6.791000,-0.230000,-2.870000,0.090000,1.140000,0.850000,1620812257855618752
130,36.000000,0.177688,120.000000,0.487599,194.340000,9.990000,4.000000,1.160000,-2.356000,12.109000,-16.096000,-0.280000,-2.900000,0.090000,1.140000,0.930000,1620812257875600192
131,36.000000,0.177688,120.000000,0.487599,194.560000,9.940000,4.000000,1.160000,-0.779000,3.964000,-12.524000,-0.290000,-2.930000,0.090000,1.140000,0.950000,1620812257899707360
132,36.000000,0.177688,120.000000,0.487599,194.780000,10.240000,4.000000,1.310000,4.898000,9.193000,-12.158000,-0.270000,-2.870000,0.110000,1.240000,1.040000,1620812257915874944
133,36.000000,0.177688,120.000000,0.487599,195.000000,9.810000,4.000000,1.310000,13.774000,2.363000,-9.429000,-0.290000,-2.880000,0.110000,1.370000,1.060000,1620812257935719296
134,36.000000,0.177687,120.000000,0.487599,195.220000,10.300000,4.000000,1.280000,11.860000,-8.981000,-1.577000,-0.340000,-2.910000,0.100000,1.440000,1.140000,1620812257955628672
135,36.000000,0.177687,120.000000,0.487599,195.440000,10.670000,4.000000,1.280000,-1.925000,-2.771000,-2.795000,-0.360000,-2.850000,0.100000,1.390000,1.170000,1620812257979622112
136,36.000000,0.177687,120.000000,0.487599,195.560000,10.660000,4.000000,1.280000,17.626000,-6.036000,-5.437000,-0.400000,-2.910000,0.100000,1.240000,1.220000,1620812257995440576
137,36.000000,0.177687,120.000000,0.487598,195.900000,10.780000,4.000000,1.280000,-15.072000,8.500000,-14.312000,-0.400000,-2.950000,0.100000,1.220000,1.270000,1620812258022203552
138,36.000000,0.177686,120.000000,0.487598,196.020000,10.840000,4.000000,1.280000,1.074000,2.669000,-7.869000,-0.400000,-2.930000,0.100000,1.360000,1.320000,1620812258033517376
139,36.000000,0.177686,120.000000,0.487598,196.380000,10.780000,4.000000,1.400000,-2.827000,6.189000,-9.880000,-0.370000,-3.000000,0.100000,1.230000,1.370000,1620812258055608096
140,36.000000,0.177686,120.000000,0.487598,196.490000,11.280000,4.000000,1.400000,-17.182000,3.675000,-2.547000,-0.340000,-2.940000,0.120000,1.260000,1.420000,1620812258075639040
141,36.000000,0.177686,120.000000,0.487598,196.860000,11.330000,4.000000,1.400000,-10.259000,5.756000,-19.671000,-0.320000,-2.960000,0.120000,1.130000,1.510000,1620812258095540320
142,36.000000,0.177686,120.000000,0.487598,196.990000,11.700000,4.000000,1.360000,-8.483000,10.555000,-5.696000,-0.310000,-3.060000,0.120000,1.040000,1.530000,1620812258115835392
143,36.000000,0.177685,120.000000,0.487598,197.360000,11.520000,4.000000,1.360000,-13.094000,1.166000,-12.325000,-0.290000,-3.090000,0.120000,1.070000,1.610000,1620812258135791008
144,36.000000,0.177685,120.000000,0.487598,197.490000,11.510000,4.000000,1.360000,7.616000,4.687000,-3.974000,-0.310000,-3.070000,0.120000,1.160000,1.630000,1620812258155508736
145,36.000000,0.177685,120.000000,0.487597,197.850000,11.210000,4.000000,1.390000,2.893000,-4.451000,-12.066000,-0.370000,-3.100000,0.130000,1.080000,1.720000,1620812258175614592
146,36.000000,0.177685,120.000000,0.487597,197.980000,10.590000,4.000000,1.390000,15.905000,-1.873000,-3.294000,-0.390000,-3.070000,0.130000,1.340000,1.750000,1620812258195471392
147,36.000000,0.177684,120.000000,0.487597,198.330000,10.350000,4.000000,1.430000,13.504000,-9.796000,-11.810000,-0.440000,-3.060000,0.130000,1.260000,1.720000,1620812258215598688
148,36.000000,0.177684,120.000000,0.487597,198.440000,10.100000,4.000000,1.430000,-14.645000,5.038000,-12.939000,-0.460000,-3.120000,0.130000,1.260000,1.690000,1620812258235476416
149,36.000000,0.177684,120.000000,0.487597,198.780000,9.490000,4.000000,1.350000,7.576000,-9.594000,-13.981000,-0.520000,-3.110000,0.130000,1.370000,1.660000,1620812258255476832
150,36.000000,0.177684,120.000000,0.487597,198.880000,9.560000,4.000000,1.350000,-13.137000,1.731000,-8.821000,-0.540000,-3.140000,0.130000,1.320000,1.630000,1620812258278504992
151,36.000000,0.177683,120.000000,0.487596,199.190000,9.130000,4.000000,1.350000,-9.480000,2.339000,-12.701000,-0.590000,-3.200000,0.130000,1.380000,1.550000,1620812258294491744
152,36.000000,0.177683,120.000000,0.487596,199.290000,9.120000,4.000000,1.350000,0.749000,1.084000,-5.888000,-0.610000,-3.160000,0.130000,1.370000,1.510000,1620812258314448640
153,36.000000,0.177683,120.000000,0.487596,199.610000,8.280000,4.000000,1.370000,-1.709000,3.285000,-14.526000,-0.630000,-3.200000,0.130000,1.450000,1.430000,1620812258334462240
154,36.000000,0.177683,120.000000,0.487596,199.740000,8.330000,4.000000,1.370000,5.785000,2.129000,-6.106000,-0.650000,-3.160000,0.130000,1.510000,1.390000,1620812258354584864
155,36.000000,0.177682,120.000000,0.487596,200.100000,7.920000,4.000000,1.390000,3.578000,1.697000,-13.519000,-0.630000,-3.260000,0.140000,1.460000,1.320000,1620812258378710368
156,36.000000,0.177682,120.000000,0.487596,200.320000,7.490000,4.000000,1.390000,9.010000,10.350000,-9.369000,-0.620000,-3.260000,0.140000,1.510000,1.280000,1620812258394371840
157,36.000000,0.177682,120.000000,0.487595,200.530000,7.610000,4.000000,1.300000,0.371000,0.425000,-12.466000,-0.560000,-3.330000,0.130000,1.410000,1.200000,1620812258414405184
158,36.000000,0.177682,120.000000,0.487595,200.730000,7.310000,4.000000,1.300000,13.039000,13.771000,-12.747000,-0.540000,-3.360000,0.130000,1.530000,1.160000,1620812258434278432
159,36.000000,0.177682,120.000000,0.487595,200.820000,7.430000,4.000000,1.300000,-10.162000,-5.311000,-9.157000,-0.510000,-3.350000,0.130000,1.510000,1.090000,1620812258454250208
160,36.000000,0.177682,120.000000,0.487595,201.110000,7.120000,4.000000,1.320000,-2.594000,9.571000,-11.314000,-0.450000,-3.260000,0.130000,1.350000,1.020000,1620812258474403232
161,36.000000,0.177681,120.000000,0.487595,201.200000,7.430000,4.000000,1.320000,-4.287000,-0.427000,-12.146000,-0.440000,-3.290000,0.130000,1.290000,0.980000,1620812258494380320
162,36.000000,0.177681,120.000000,0.487595,201.480000,7.050000,4.000000,1.320000,-5.217000,-2.382000,-16.456000,-0.380000,-3.330000,0.130000,1.280000,0.900000,1620812258522778688
163,36.000000,0.177681,120.000000,0.487595,201.570000,7.050000,4.000000,1.320000,7.177000,6.589000,-13.505000,-0.370000,-3.390000,0.130000,1.350000,0.860000,1620812258534826624
164,36.000000,0.177681,120.000000,0.487595,201.830000,6.920000,4.000000,1.320000,0.877000,1.967000,-8.962000,-0.360000,-3.460000,0.130000,1.320000,0.820000,1620812258554594720
165,36.000000,0.177681,120.000000,0.487595,202.000000,6.360000,4.000000,1.330000,0.880000,1.963000,-8.963000,-0.370000,-3.440000,0.130000,1.330000,0.790000,1620812258574718336
166,36.000000,0.177680,120.000000,0.487594,202.070000,6.550000,4.000000,1.330000,-9.422000,-8.077000,-6.179000,-0.410000,-3.330000,0.130000,1.260000,0.720000,1620812258594690976
167,36.000000,0.177680,120.000000,0.487594,202.290000,6.240000,4.000000,1.290000,8.124000,8.611000,-9.263000,-0.450000,-3.250000,0.120000,1.270000,0.700000,1620812258616204896
168,36.000000,0.177680,120.000000,0.487594,202.360000,6.420000,4.000000,1.290000,-5.538000,-1.806000,-7.186000,-0.490000,-3.220000,0.120000,1.250000,0.680000,1620812258632665280
169,36.000000,0.177679,120.000000,0.487594,202.620000,5.940000,4.000000,1.300000,-2.246000,0.645000,-3.340000,-0.500000,-3.300000,0.120000,1.230000,0.600000,1620812258674739808
170,36.000000,0.177679,120.000000,0.487594,202.770000,5.580000,4.000000,1.300000,-3.393000,2.273000,-14.120000,-0.560000,-3.280000,0.120000,1.160000,0.570000,1620812258694661984
171,36.000000,0.177679,120.000000,0.487594,202.820000,5.640000,4.000000,1.270000,4.666000,8.521000,-6.459000,-0.580000,-3.310000,0.120000,1.130000,0.580000,1620812258716889760
172,36.000000,0.177679,120.000000,0.487594,202.870000,4.720000,4.000000,1.270000,-4.105000,0.373000,2.716000,-0.590000,-3.150000,0.110000,1.170000,0.550000,1620812258732713664
173,36.000000,0.177679,120.000000,0.487594,202.980000,4.910000,4.000000,1.270000,12.416000,9.283000,-10.266000,-0.640000,-3.180000,0.110000,1.230000,0.440000,1620812258754737184
174,36.000000,0.177678,120.000000,0.487593,203.080000,4.370000,4.000000,1.300000,-4.711000,-6.184000,-5.884000,-0.690000,-3.080000,0.110000,1.130000,0.410000,1620812258774720896
175,36.000000,0.177678,120.000000,0.487593,203.110000,4.000000,4.000000,1.300000,7.574000,-1.726000,-19.680000,-0.710000,-3.150000,0.110000,1.230000,0.380000,1620812258794847904
176,36.000000,0.177678,120.000000,0.487593,203.200000,3.880000,4.000000,1.260000,-2.086000,-9.403000,-8.788000,-0.750000,-3.110000,0.100000,1.140000,0.290000,1620812258814968000
177,36.000000,0.177678,120.000000,0.487593,203.230000,3.820000,4.000000,1.260000,6.476000,-1.800000,-19.685000,-0.770000,-3.200000,0.100000,1.190000,0.320000,1620812258834678336
178,36.000000,0.177677,120.000000,0.487593,203.310000,3.390000,4.000000,1.260000,-7.257000,3.465000,-9.915000,-0.810000,-3.220000,0.100000,1.130000,0.280000,1620812258855762496
179,36.000000,0.177677,120.000000,0.487593,203.340000,3.450000,4.000000,1.260000,-1.570000,-5.127000,-14.836000,-0.830000,-3.110000,0.100000,1.190000,0.250000,1620812258874959456
180,36.000000,0.177677,120.000000,0.487593,203.420000,2.960000,4.000000,1.260000,-3.336000,3.757000,7.737000,-0.880000,-2.960000,0.100000,1.190000,0.160000,1620812258895144384
181,36.000000,0.177677,120.000000,0.487593,203.440000,3.260000,4.000000,1.230000,-10.430000,-6.810000,-12.553000,-0.890000,-2.990000,0.090000,1.120000,0.130000,1620812258915067648
182,36.000000,0.177677,120.000000,0.487593,203.490000,3.020000,4.000000,1.230000,-5.548000,5.305000,0.513000,-0.940000,-3.020000,0.090000,1.150000,0.060000,1620812258934821728
183,36.000000,0.177676,120.000000,0.487593,203.510000,3.380000,4.000000,1.230000,-10.300000,-6.049000,-14.791000,-0.950000,-3.070000,0.090000,1.050000,0.030000,1620812258954740992
184,36.000000,0.177676,120.000000,0.487592,203.590000,2.830000,4.000000,1.230000,-8.345000,1.619000,1.673000,-1.000000,-3.070000,0.090000,1.090000,-0.040000,1620812258974888576
185,36.000000,0.177676,120.000000,0.487592,203.640000,2.950000,4.000000,1.230000,-10.254000,-10.075000,-4.057000,-1.020000,-3.020000,0.090000,1.040000,-0.070000,1620812258994773408
186,36.000000,0.177676,120.000000,0.487592,203.680000,2.830000,4.000000,1.200000,-1.268000,4.117000,-7.381000,-1.070000,-3.070000,0.090000,1.190000,-0.100000,1620812259015187136
187,36.000000,0.177676,120.000000,0.487592,203.710000,2.530000,4.000000,1.200000,-6.464000,-1.237000,-7.309000,-1.080000,-3.050000,0.090000,1.150000,-0.130000,1620812259039566336
188,36.000000,0.177675,120.000000,0.487592,203.730000,2.590000,4.000000,1.230000,-3.337000,3.551000,-12.635000,-1.130000,-3.100000,0.090000,1.170000,-0.110000,1620812259055624288
189,36.000000,0.177675,120.000000,0.487592,203.740000,2.280000,4.000000,1.230000,1.973000,-14.479000,-9.549000,-1.150000,-3.100000,0.090000,1.210000,-0.130000,1620812259075671008
190,36.000000,0.177675,120.000000,0.487592,203.740000,2.340000,4.000000,1.230000,-8.400000,-6.962000,-9.444000,-1.180000,-2.930000,0.090000,1.200000,-0.140000,1620812259095420672
191,36.000000,0.177675,120.000000,0.487592,203.750000,1.980000,4.000000,1.210000,4.523000,-8.111000,-17.982000,-1.210000,-3.070000,0.080000,1.200000,-0.130000,1620812259115529472
192,36.000000,0.177675,120.000000,0.487592,203.740000,2.160000,4.000000,1.210000,-7.672000,-4.469000,-7.395000,-1.240000,-2.990000,0.080000,1.170000,-0.150000,1620812259135426688
193,36.000000,0.177674,120.000000,0.487592,203.740000,1.730000,4.000000,1.170000,6.476000,-3.211000,-19.611000,-1.280000,-3.080000,0.080000,1.260000,-0.170000,1620812259155370176
194,36.000000,0.177674,120.000000,0.487591,203.730000,1.790000,4.000000,1.170000,-11.011000,-10.265000,-1.957000,-1.310000,-3.030000,0.080000,1.210000,-0.190000,1620812259175484608
195,36.000000,0.177674,120.000000,0.487591,203.690000,1.430000,4.000000,1.150000,-1.950000,-3.981000,-11.385000,-1.370000,-2.980000,0.080000,1.230000,-0.090000,1620812259215912768
196,36.000000,0.177673,120.000000,0.487591,203.600000,1.000000,4.000000,1.150000,7.239000,-0.872000,-18.546000,-1.410000,-3.040000,0.070000,1.280000,-0.090000,1620812259235488544
197,36.000000,0.177673,120.000000,0.487591,203.560000,0.940000,4.000000,1.150000,3.930000,-3.762000,-11.173000,-1.390000,-3.110000,0.070000,1.240000,-0.120000,1620812259255591424
198,36.000000,0.177673,120.000000,0.487591,203.480000,1.000000,4.000000,1.190000,5.008000,3.479000,-8.723000,-1.370000,-3.060000,0.070000,1.240000,-0.060000,1620812259275440736
199,36.000000,0.177673,120.000000,0.487591,203.460000,0.510000,4.000000,1.190000,9.041000,-4.277000,-10.670000,-1.380000,-3.060000,0.070000,1.370000,-0.090000,1620812259295419168
200,36.000000,0.177673,120.000000,0.487591,203.370000,0.570000,4.000000,1.160000,11.434000,1.432000,-10.925000,-1.330000,-3.040000,0.070000,1.260000,-0.020000,1620812259315612256
201,36.000000,0.177672,120.000000,0.487591,203.340000,0.320000,4.000000,1.160000,4.484000,-1.202000,-9.425000,-1.310000,-3.060000,0.070000,1.360000,-0.050000,1620812259335430368
202,36.000000,0.177672,120.000000,0.487591,203.240000,0.140000,4.000000,1.250000,3.138000,-2.707000,-4.214000,-1.250000,-3.110000,0.070000,1.310000,-0.010000,1620812259355317568
203,36.000000,0.177672,120.000000,0.487591,203.200000,0.140000,4.000000,1.250000,-11.776000,-2.194000,-9.900000,-1.230000,-3.060000,0.070000,1.230000,-0.040000,1620812259375474560
204,36.000000,0.177672,120.000000,0.487591,203.090000,0.200000,4.000000,1.250000,-3.206000,1.949000,-1.909000,-1.190000,-3.000000,0.070000,1.230000,0.010000,1620812259395622720
205,36.000000,0.177672,120.000000,0.487591,203.050000,0.380000,4.000000,1.230000,-12.347000,2.042000,-17.514000,-1.170000,-3.080000,0.070000,1.140000,0.040000,1620812259415588352
206,36.000000,0.177671,120.000000,0.487591,202.950000,0.070000,4.000000,1.230000,-8.329000,3.724000,-8.796000,-1.160000,-3.100000,0.070000,1.200000,0.080000,1620812259435322816
207,36.000000,0.177671,120.000000,0.487590,202.920000,0.190000,4.000000,1.230000,-4.488000,-2.567000,-7.358000,-1.190000,-3.080000,0.070000,1.160000,0.110000,1620812259455388896
208,36.000000,0.177671,120.000000,0.487590,202.800000,0.060000,4.000000,1.220000,-4.223000,3.954000,-13.927000,-1.190000,-3.130000,0.060000,1.170000,0.090000,1620812259475977696
209,36.000000,0.177671,120.000000,0.487590,202.710000,-0.560000,4.000000,1.220000,4.486000,-6.272000,-11.793000,-1.220000,-3.150000,0.060000,1.220000,0.130000,1620812259495395744
210,36.000000,0.177670,120.000000,0.487590,202.630000,-0.310000,4.000000,1.290000,1.902000,0.855000,-11.941000,-1.260000,-3.140000,0.060000,1.170000,0.110000,1620812259515434848
211,36.000000,0.177670,120.000000,0.487590,202.560000,-0.610000,4.000000,1.290000,3.632000,-2.396000,-15.887000,-1.250000,-3.200000,0.060000,1.230000,0.090000,1620812259535431328
212,36.000000,0.177670,120.000000,0.487590,202.490000,-0.790000,4.000000,1.290000,8.423000,5.774000,-10.645000,-1.290000,-3.110000,0.060000,1.260000,0.060000,1620812259555423328
213,36.000000,0.177670,120.000000,0.487590,202.400000,-1.040000,4.000000,1.290000,5.207000,-0.052000,-17.347000,-1.320000,-3.190000,0.060000,1.300000,0.090000,1620812259575506816
214,36.000000,0.177670,120.000000,0.487590,202.360000,-0.670000,4.000000,1.290000,-5.194000,5.538000,-8.223000,-1.360000,-3.230000,0.060000,1.270000,0.100000,1620812259595542784
215,36.000000,0.177670,120.000000,0.487590,202.320000,-1.040000,4.000000,1.290000,5.713000,-0.100000,-0.901000,-1.380000,-3.130000,0.060000,1.290000,0.070000,1620812259615453856
216,36.000000,0.177669,120.000000,0.487590,202.170000,-1.340000,4.000000,1.260000,8.908000,-14.015000,-15.225000,-1.440000,-3.250000,0.060000,1.170000,0.130000,1620812259635387968
217,36.000000,0.177669,120.000000,0.487590,202.010000,-1.210000,4.000000,1.280000,-15.309000,-3.205000,-13.565000,-1.480000,-3.190000,0.060000,1.060000,0.120000,1620812259659171168
218,36.000000,0.177669,120.000000,0.487590,201.960000,-1.580000,4.000000,1.280000,4.687000,-12.378000,-19.499000,-1.510000,-3.240000,0.060000,1.110000,0.150000,1620812259675113152
219,36.000000,0.177669,120.000000,0.487590,201.790000,-1.940000,4.000000,1.280000,-10.078000,-4.731000,-11.066000,-1.530000,-3.240000,0.060000,0.940000,0.090000,1620812259695117920
220,36.000000,0.177668,120.000000,0.487589,201.660000,-1.570000,4.000000,1.230000,-7.048000,7.539000,-6.446000,-1.560000,-3.270000,0.050000,0.990000,0.100000,1620812259721984256
221,36.000000,0.177668,120.000000,0.487589,201.530000,-2.130000,4.000000,1.230000,0.524000,-5.067000,-9.813000,-1.590000,-3.270000,0.050000,1.000000,0.120000,1620812259735478272
222,36.000000,0.177668,120.000000,0.487589,201.460000,-2.000000,4.000000,1.230000,-3.194000,-6.768000,-19.875000,-1.610000,-3.270000,0.050000,0.980000,0.150000,1620812259754597824
223,36.000000,0.177668,120.000000,0.487589,201.230000,-2.500000,4.000000,1.200000,5.695000,-6.713000,-17.101000,-1.660000,-3.290000,0.050000,1.020000,0.130000,1620812259774762720
224,36.000000,0.177668,120.000000,0.487589,201.160000,-2.310000,4.000000,1.200000,-4.788000,-4.467000,-17.593000,-1.680000,-3.250000,0.050000,0.950000,0.100000,1620812259794772064
225,36.000000,0.177667,120.000000,0.487589,200.920000,-3.050000,4.000000,1.210000,-5.425000,-2.154000,1.268000,-1.730000,-3.350000,0.040000,1.040000,0.090000,1620812259814818176
226,36.000000,0.177667,120.000000,0.487589,200.830000,-2.860000,4.000000,1.210000,-11.165000,-4.598000,-8.926000,-1.750000,-3.220000,0.040000,0.880000,0.110000,1620812259837754912
227,36.000000,0.177667,120.000000,0.487589,200.660000,-3.170000,4.000000,1.210000,8.091000,10.154000,-3.130000,-1.770000,-3.160000,0.040000,0.970000,0.110000,1620812259852786048
228,36.000000,0.177667,120.000000,0.487589,200.480000,-3.050000,4.000000,1.200000,-11.074000,-3.955000,-3.543000,-1.820000,-3.100000,0.040000,0.940000,0.140000,1620812259874783232
229,36.000000,0.177666,120.000000,0.487589,200.190000,-3.660000,4.000000,1.200000,-3.309000,4.450000,-9.008000,-1.880000,-3.090000,0.040000,1.120000,0.230000,1620812259894787808
230,36.000000,0.177666,120.000000,0.487589,200.090000,-3.290000,4.000000,1.210000,2.488000,-12.855000,-14.434000,-1.890000,-3.130000,0.040000,1.160000,0.270000,1620812259914895680
231,36.000000,0.177666,120.000000,0.487589,199.780000,-3.650000,4.000000,1.210000,-3.120000,5.674000,-11.638000,-1.910000,-3.100000,0.040000,1.170000,0.290000,1620812259934670816
232,36.000000,0.177666,120.000000,0.487589,199.670000,-3.830000,4.000000,1.210000,1.764000,-11.808000,-14.634000,-1.920000,-3.150000,0.040000,1.190000,0.330000,1620812259954768000
233,36.000000,0.177665,120.000000,0.487589,199.370000,-3.640000,4.000000,1.200000,6.659000,3.121000,-7.288000,-1.930000,-3.020000,0.030000,1.200000,0.340000,1620812259974719360
234,36.000000,0.177665,120.000000,0.487589,199.180000,-3.940000,4.000000,1.200000,5.957000,-9.158000,-15.965000,-1.910000,-3.090000,0.030000,1.250000,0.320000,1620812259994755232
235,36.000000,0.177665,120.000000,0.487589,199.090000,-3.930000,4.000000,1.190000,-3.430000,5.024000,-0.444000,-1.880000,-3.000000,0.030000,1.210000,0.350000,1620812260014761408
236,36.000000,0.177665,120.000000,0.487589,198.760000,-4.370000,4.000000,1.190000,3.040000,-6.310000,-19.124000,-1.820000,-3.160000,0.030000,1.260000,0.370000,1620812260034972992
237,36.000000,0.177665,120.000000,0.487589,198.540000,-4.680000,4.000000,1.150000,8.214000,1.191000,-4.203000,-1.750000,-3.060000,0.030000,1.270000,0.400000,1620812260054632096
238,36.000000,0.177665,120.000000,0.487589,198.300000,-4.440000,4.000000,1.150000,-4.912000,-1.150000,-15.409000,-1.730000,-3.120000,0.030000,1.220000,0.430000,1620812260074703840
239,36.000000,0.177664,120.000000,0.487589,198.180000,-5.060000,4.000000,1.150000,7.780000,-9.342000,-11.570000,-1.730000,-3.160000,0.030000,1.150000,0.440000,1620812260097865440
240,36.000000,0.177664,120.000000,0.487589,197.820000,-4.880000,4.000000,1.190000,-6.568000,2.228000,-12.967000,-1.690000,-3.130000,0.020000,1.120000,0.440000,1620812260116014880
241,36.000000,0.177664,120.000000,0.487589,197.710000,-5.490000,4.000000,1.190000,7.815000,-7.587000,-19.597000,-1.690000,-3.180000,0.020000,1.250000,0.440000,1620812260135808640
242,36.000000,0.177664,120.000000,0.487589,197.350000,-5.260000,4.000000,1.190000,-11.148000,-4.554000,-7.732000,-1.700000,-3.170000,0.020000,1.110000,0.380000,1620812260158106528
243,36.000000,0.177663,120.000000,0.487589,197.230000,-5.560000,4.000000,1.190000,1.889000,-2.876000,-19.732000,-1.660000,-3.140000,0.020000,1.220000,0.370000,1620812260174142048
244,36.000000,0.177663,120.000000,0.487589,196.850000,-5.800000,4.000000,1.190000,5.316000,-6.552000,-8.582000,-1.650000,-3.190000,0.020000,1.220000,0.340000,1620812260198649472
245,36.000000,0.177663,120.000000,0.487589,196.720000,-6.100000,4.000000,1.230000,-5.638000,-4.545000,-19.280000,-1.630000,-3.090000,0.020000,1.230000,0.370000,1620812260221280320
246,36.000000,0.177663,120.000000,0.487589,196.300000,-6.280000,4.000000,1.230000,6.016000,-4.516000,-13.985000,-1.610000,-3.210000,0.020000,1.210000,0.300000,1620812260234782208
247,36.000000,0.177663,120.000000,0.487589,196.300000,-6.280000,4.000000,1.230000,6.016000,-4.516000,-13.985000,-1.610000,-3.210000,0.020000,1.210000,0.300000,1620812260254756384
248,36.000000,0.177662,120.000000,0.487589,195.740000,-6.710000,4.000000,1.230000,6.991000,2.120000,-10.143000,-1.600000,-3.210000,0.020000,1.290000,0.250000,1620812260274707392
249,36.000000,0.177662,120.000000,0.487589,195.600000,-6.640000,4.000000,1.230000,-11.479000,0.160000,-5.408000,-1.610000,-3.160000,0.020000,1.160000,0.290000,1620812260294679008
250,36.000000,0.177662,120.000000,0.487589,195.170000,-6.960000,4.000000,1.180000,1.358000,2.953000,-12.334000,-1.590000,-3.150000,0.020000,1.260000,0.230000,1620812260314702304
251,36.000000,0.177662,120.000000,0.487589,195.020000,-7.080000,4.000000,1.180000,6.963000,-12.676000,-13.107000,-1.610000,-3.270000,0.010000,1.260000,0.210000,1620812260334677952
252,36.000000,0.177661,120.000000,0.487589,194.580000,-6.960000,4.000000,1.210000,-7.632000,6.558000,-11.766000,-1.620000,-3.210000,0.010000,1.180000,0.160000,1620812260354724256
253,36.000000,0.177661,120.000000,0.487589,194.440000,-7.210000,4.000000,1.210000,7.621000,-8.149000,-11.975000,-1.610000,-3.330000,0.010000,1.240000,0.140000,1620812260374688800
254,36.000000,0.177661,120.000000,0.487589,194.020000,-7.690000,4.000000,1.210000,12.170000,5.897000,-8.270000,-1.590000,-3.190000,0.010000,1.200000,0.080000,1620812260394665920
255,36.000000,0.177661,120.000000,0.487589,193.880000,-7.810000,4.000000,1.220000,-3.655000,0.443000,-19.478000,-1.570000,-3.290000,0.000000,1.180000,0.060000,1620812260421871968
256,36.000000,0.177660,120.000000,0.487589,193.490000,-7.320000,4.000000,1.220000,4.323000,5.364000,-7.791000,-1.540000,-3.220000,0.000000,1.130000,0.000000,1620812260435868160
257,36.000000,0.177660,120.000000,0.487589,193.360000,-7.190000,4.000000,1.220000,-5.095000,3.140000,-16.911000,-1.520000,-3.290000,0.000000,1.090000,-0.020000,1620812260455920896
258,36.000000,0.177660,120.000000,0.487589,192.960000,-7.740000,4.000000,1.200000,-7.176000,-2.848000,-3.380000,-1.530000,-3.250000,0.000000,1.090000,-0.070000,1620812260475853984
259,36.000000,0.177660,120.000000,0.487589,192.680000,-7.500000,4.000000,1.200000,-10.127000,3.617000,-11.891000,-1.540000,-3.270000,0.000000,1.000000,-0.090000,1620812260495874912
260,36.000000,0.177660,120.000000,0.487589,192.390000,-7.450000,4.000000,1.220000,-13.158000,-3.381000,-3.939000,-1.590000,-3.320000,0.000000,1.000000,-0.130000,1620812260515963520
261,36.000000,0.177660,120.000000,0.487589,192.130000,-7.760000,4.000000,1.220000,-9.071000,-3.410000,-5.350000,-1.600000,-3.270000,0.000000,0.910000,-0.160000,1620812260535926656
262,36.000000,0.177659,120.000000,0.487589,191.860000,-7.580000,4.000000,1.230000,-4.915000,3.594000,-9.637000,-1.660000,-3.330000,-0.010000,0.980000,-0.220000,1620812260555908064
263,36.000000,0.177659,120.000000,0.487589,191.600000,-7.950000,4.000000,1.230000,-0.138000,-0.981000,-5.386000,-1.680000,-3.280000,-0.010000,0.980000,-0.250000,1620812260575905504
264,36.000000,0.177659,120.000000,0.487589,191.460000,-7.950000,4.000000,1.230000,-1.455000,-0.603000,-19.809000,-1.720000,-3.230000,-0.010000,1.010000,-0.300000,1620812260595853760
265,36.000000,0.177659,120.000000,0.487589,191.040000,-7.890000,4.000000,1.200000,0.252000,-11.049000,-14.400000,-1.760000,-3.400000,-0.010000,1.020000,-0.330000,1620812260616116768
266,36.000000,0.177658,120.000000,0.487589,190.890000,-7.890000,4.000000,1.200000,-1.997000,-5.456000,-15.342000,-1.800000,-3.280000,-0.010000,0.990000,-0.380000,1620812260633944320
267,36.000000,0.177658,120.000000,0.487589,190.440000,-8.190000,4.000000,1.270000,1.306000,-5.363000,-17.943000,-1.830000,-3.410000,-0.010000,1.030000,-0.420000,1620812260655892064
268,36.000000,0.177658,120.000000,0.487589,190.280000,-8.310000,4.000000,1.270000,-1.596000,-5.171000,-14.852000,-1.870000,-3.320000,-0.020000,1.000000,-0.480000,1620812260675857664
269,36.000000,0.177658,120.000000,0.487589,189.820000,-8.250000,4.000000,1.270000,4.919000,-1.065000,-19.599000,-1.920000,-3.480000,-0.020000,1.200000,-0.560000,1620812260695961088
270,36.000000,0.177657,120.000000,0.487589,189.660000,-8.250000,4.000000,1.260000,-4.205000,-2.121000,-9.900000,-1.930000,-3.450000,-0.020000,1.220000,-0.590000,1620812260716115232
271,36.000000,0.177657,120.000000,0.487589,189.490000,-8.670000,4.000000,1.260000,2.846000,2.401000,-0.456000,-1.950000,-3.350000,-0.020000,1.230000,-0.620000,1620812260733977888
272,36.000000,0.177657,120.000000,0.487589,189.180000,-9.050000,4.000000,1.260000,0.769000,-13.213000,-11.769000,-2.000000,-3.460000,-0.020000,1.260000,-0.680000,1620812260755864064
273,36.000000,0.177657,120.000000,0.487589,188.860000,-9.170000,4.000000,1.180000,-8.094000,-7.020000,-10.109000,-2.060000,-3.270000,-0.020000,1.160000,-0.760000,1620812260775958528
274,36.000000,0.177656,120.000000,0.487589,188.750000,-9.540000,4.000000,1.180000,8.924000,-7.328000,-17.613000,-2.040000,-3.390000,-0.020000,1.230000,-0.780000,1620812260795920160
275,36.000000,0.177656,120.000000,0.487589,188.630000,-9.660000,4.000000,1.180000,-5.453000,-0.051000,0.155000,-2.030000,-3.280000,-0.020000,1.180000,-0.810000,1620812260816042944
276,36.000000,0.177656,120.000000,0.487589,188.290000,-10.270000,4.000000,1.260000,3.784000,-3.930000,-19.580000,-2.020000,-3.340000,-0.030000,1.230000,-0.890000,1620812260835941792
277,36.000000,0.177656,120.000000,0.487589,187.940000,-10.640000,4.000000,1.220000,-8.481000,-5.789000,-6.818000,-1.980000,-3.280000,-0.030000,1.080000,-0.980000,1620812260855889056
278,36.000000,0.177656,120.000000,0.487589,187.810000,-10.760000,4.000000,1.220000,-4.370000,-3.317000,-17.690000,-2.000000,-3.240000,-0.030000,1.130000,-0.950000,1620812260882204352
279,36.000000,0.177655,120.000000,0.487589,187.560000,-10.640000,4.000000,1.220000,-2.455000,8.191000,-15.568000,-2.020000,-3.290000,-0.030000,1.140000,-0.970000,1620812260894162528
280,36.000000,0.177655,120.000000,0.487589,187.300000,-11.000000,4.000000,1.290000,-11.062000,-4.986000,-11.603000,-2.040000,-3.210000,-0.040000,1.070000,-0.990000,1620812260919791360
281,36.000000,0.177655,120.000000,0.487589,186.910000,-11.310000,4.000000,1.290000,6.159000,-6.889000,-15.474000,-2.040000,-3.280000,-0.040000,1.200000,-0.970000,1620812260934226016
282,36.000000,0.177655,120.000000,0.487589,186.780000,-11.130000,4.000000,1.290000,-7.768000,-0.367000,-9.757000,-2.040000,-3.220000,-0.040000,1.120000,-1.020000,1620812260954353440
283,36.000000,0.177655,120.000000,0.487589,186.780000,-11.130000,4.000000,1.290000,-7.768000,-0.367000,-9.757000,-2.040000,-3.220000,-0.040000,1.120000,-1.020000,1620812260974276160
284,36.000000,0.177654,120.000000,0.487590,186.110000,-12.110000,4.000000,1.230000,-0.970000,-5.926000,-1.844000,-2.120000,-3.200000,-0.040000,1.170000,-1.010000,1620812260994256000
285,36.000000,0.177654,120.000000,0.487590,185.960000,-11.980000,4.000000,1.250000,-4.575000,0.794000,5.808000,-2.100000,-3.050000,-0.040000,1.150000,-0.980000,1620812261014261472
286,36.000000,0.177654,120.000000,0.487590,185.540000,-12.170000,4.000000,1.250000,4.266000,-7.241000,-14.241000,-2.160000,-3.190000,-0.050000,1.160000,-0.990000,1620812261034323904
287,36.000000,0.177654,120.000000,0.487590,185.400000,-12.170000,4.000000,1.250000,-9.041000,-6.553000,-10.343000,-2.210000,-3.090000,-0.050000,1.080000,-1.040000,1620812261054477536
288,36.000000,0.177653,120.000000,0.487590,184.970000,-12.410000,4.000000,1.280000,0.333000,-3.116000,-19.709000,-2.250000,-3.190000,-0.050000,1.110000,-1.020000,1620812261074362720
289,36.000000,0.177653,120.000000,0.487590,184.820000,-12.230000,4.000000,1.280000,-4.271000,-3.692000,-8.089000,-2.290000,-3.200000,-0.050000,1.050000,-1.080000,1620812261095514048
290,36.000000,0.177653,120.000000,0.487590,184.390000,-12.230000,4.000000,1.310000,-9.584000,-1.177000,-15.319000,-2.330000,-3.140000,-0.060000,0.970000,-1.070000,1620812261114408192
291,36.000000,0.177653,120.000000,0.487590,184.250000,-12.230000,4.000000,1.310000,13.527000,2.352000,-9.679000,-2.370000,-3.210000,-0.060000,0.940000,-1.060000,1620812261137369216
292,36.000000,0.177653,120.000000,0.487590,183.800000,-12.720000,4.000000,1.250000,-13.503000,0.672000,-12.732000,-2.410000,-3.180000,-0.060000,0.840000,-1.050000,1620812261155405568
293,36.000000,0.177652,120.000000,0.487590,183.650000,-13.090000,4.000000,1.250000,-0.121000,-1.568000,-14.798000,-2.440000,-3.200000,-0.060000,0.900000,-1.040000,1620812261178437600
294,36.000000,0.177652,120.000000,0.487591,183.200000,-13.030000,4.000000,1.250000,-1.956000,1.144000,-7.007000,-2.490000,-3.220000,-0.060000,0.960000,-1.060000,1620812261194325632
295,36.000000,0.177652,120.000000,0.487591,183.040000,-12.840000,4.000000,1.280000,-13.447000,-0.418000,-16.772000,-2.510000,-3.210000,-0.060000,1.140000,-1.030000,1620812261214414368
296,36.000000,0.177652,120.000000,0.487591,182.580000,-13.330000,4.000000,1.280000,11.147000,1.050000,-2.452000,-2.560000,-3.220000,-0.070000,1.140000,-1.050000,1620812261234468096
297,36.000000,0.177651,120.000000,0.487591,182.420000,-13.090000,4.000000,1.280000,-12.296000,-1.213000,-11.388000,-2.570000,-3.150000,-0.070000,0.950000,-1.020000,1620812261254358432
298,36.000000,0.177651,120.000000,0.487591,182.260000,-13.330000,4.000000,1.280000,3.041000,-6.264000,-11.160000,-2.590000,-3.170000,-0.070000,0.980000,-1.040000,1620812261274860352
299,36.000000,0.177651,120.000000,0.487591,181.790000,-13.150000,4.000000,1.280000,-2.101000,-2.194000,-7.758000,-2.640000,-3.100000,-0.070000,1.020000,-1.060000,1620812261294325184
300,36.000000,0.177651,120.000000,0.487591,181.630000,-13.520000,4.000000,1.280000,6.067000,-10.034000,-11.754000,-2.660000,-3.120000,-0.070000,1.080000,-1.020000,1620812261314310048
301,36.000000,0.177651,120.000000,0.487591,181.150000,-13.770000,4.000000,1.290000,3.082000,3.991000,-5.737000,-2.720000,-3.150000,-0.080000,1.090000,-1.030000,1620812261334543488
302,36.000000,0.177650,120.000000,0.487591,180.660000,-14.070000,4.000000,1.290000,-5.305000,-0.196000,-11.914000,-2.740000,-3.200000,-0.080000,1.150000,-0.970000,1620812261354716608
303,36.000000,0.177650,120.000000,0.487591,180.500000,-14.010000,4.000000,1.290000,9.577000,10.989000,-10.240000,-2.760000,-3.290000,-0.080000,1.290000,-1.000000,1620812261374302368
304,36.000000,0.177650,120.000000,0.487591,180.000000,-14.380000,4.000000,1.290000,0.612000,-4.027000,-13.800000,-2.780000,-3.200000,-0.080000,1.130000,-1.050000,1620812261394466304
305,36.000000,0.177650,120.000000,0.487592,179.830000,-14.560000,4.000000,1.300000,10.953000,8.368000,-8.588000,-2.770000,-3.190000,-0.090000,1.250000,-1.070000,1620812261414368576
306,36.000000,0.177649,120.000000,0.487592,179.500000,-14.200000,4.000000,1.300000,-4.785000,4.715000,-12.314000,-2.790000,-3.210000,-0.090000,1.230000,-1.090000,1620812261434957408
307,36.000000,0.177649,120.000000,0.487592,179.160000,-14.990000,4.000000,1.300000,-8.706000,-2.544000,-18.265000,-2.810000,-3.280000,-0.090000,1.220000,-1.140000,1620812261454698592
308,36.000000,0.177649,120.000000,0.487592,178.650000,-14.870000,4.000000,1.260000,7.913000,-12.693000,-13.089000,-2.820000,-3.340000,-0.090000,1.330000,-1.190000,1620812261474486464
309,36.000000,0.177649,120.000000,0.487592,178.300000,-14.750000,4.000000,1.260000,-14.321000,-6.314000,-10.522000,-2.810000,-3.340000,-0.090000,1.210000,-1.210000,1620812261494542560
310,36.000000,0.177649,120.000000,0.487592,178.130000,-14.990000,4.000000,1.290000,2.507000,2.334000,-12.925000,-2.820000,-3.360000,-0.090000,1.240000,-1.230000,1620812261514374592
311,36.000000,0.177648,120.000000,0.487592,177.610000,-15.050000,4.000000,1.290000,-9.236000,-5.153000,-9.078000,-2.810000,-3.340000,-0.100000,1.190000,-1.290000,1620812261534419456
312,36.000000,0.177648,120.000000,0.487592,177.430000,-15.300000,4.000000,1.290000,11.040000,2.913000,-11.881000,-2.810000,-3.280000,-0.100000,1.280000,-1.330000,1620812261554536832
313,36.000000,0.177648,120.000000,0.487593,176.910000,-15.480000,4.000000,1.290000,6.946000,-0.943000,-7.289000,-2.840000,-3.370000,-0.100000,1.360000,-1.380000,1620812261581772320
314,36.000000,0.177648,120.000000,0.487593,176.730000,-15.170000,4.000000,1.290000,-12.146000,4.211000,-10.943000,-2.840000,-3.310000,-0.100000,1.390000,-1.420000,1620812261594759968
315,36.000000,0.177647,120.000000,0.487593,176.210000,-15.600000,4.000000,1.290000,15.175000,3.643000,-8.520000,-2.880000,-3.340000,-0.110000,1.430000,-1.470000,1620812261614857184
316,36.000000,0.177647,120.000000,0.487593,176.030000,-15.300000,4.000000,1.290000,-5.719000,-4.190000,-5.145000,-2.890000,-3.390000,-0.110000,1.410000,-1.520000,1620812261634916064
317,36.000000,0.177647,120.000000,0.487593,175.490000,-15.600000,4.000000,1.310000,5.702000,9.002000,-8.794000,-2.930000,-3.300000,-0.110000,1.420000,-1.520000,1620812261656238464
318,36.000000,0.177647,120.000000,0.487593,175.310000,-15.170000,4.000000,1.310000,1.597000,-0.734000,-3.420000,-2.900000,-3.330000,-0.120000,1.340000,-1.510000,1620812261673968992
319,36.000000,0.177647,120.000000,0.487594,174.770000,-15.540000,4.000000,1.310000,0.410000,-0.425000,-3.653000,-2.890000,-3.170000,-0.120000,1.370000,-1.470000,1620812261700114400
320,36.000000,0.177647,120.000000,0.487594,174.580000,-15.420000,4.000000,1.310000,5.781000,5.475000,-3.028000,-2.880000,-3.240000,-0.120000,1.350000,-1.450000,1620812261714277728
321,36.000000,0.177646,120.000000,0.487594,174.400000,-15.790000,4.000000,1.310000,2.563000,-8.549000,-13.567000,-2.860000,-3.220000,-0.120000,1.390000,-1.420000,1620812261733979040
322,36.000000,0.177646,120.000000,0.487594,173.850000,-15.480000,4.000000,1.310000,9.880000,7.321000,-7.731000,-2.820000,-3.210000,-0.120000,1.400000,-1.390000,1620812261756233344
323,36.000000,0.177646,120.000000,0.487594,173.670000,-15.910000,4.000000,1.350000,4.938000,1.186000,-18.061000,-2.810000,-3.290000,-0.130000,1.430000,-1.360000,1620812261774074368
324,36.000000,0.177646,120.000000,0.487594,173.110000,-15.910000,4.000000,1.350000,6.127000,0.609000,-4.991000,-2.750000,-3.260000,-0.130000,1.440000,-1.320000,1620812261794017504
325,36.000000,0.177645,120.000000,0.487595,172.550000,-15.790000,4.000000,1.320000,4.534000,8.367000,-6.103000,-2.700000,-3.300000,-0.140000,1.410000,-1.380000,1620812261816136128
326,36.000000,0.177645,120.000000,0.487595,172.360000,-16.030000,4.000000,1.320000,0.209000,-2.843000,-3.296000,-2.680000,-3.270000,-0.140000,1.490000,-1.350000,1620812261834047328
327,36.000000,0.177645,120.000000,0.487595,171.800000,-16.150000,4.000000,1.290000,10.805000,5.407000,0.008000,-2.630000,-3.220000,-0.140000,1.550000,-1.350000,1620812261856049984
328,36.000000,0.177645,120.000000,0.487595,171.610000,-15.540000,4.000000,1.290000,-7.433000,3.022000,-5.411000,-2.610000,-3.230000,-0.140000,1.470000,-1.380000,1620812261876120128
329,36.000000,0.177645,120.000000,0.487595,171.240000,-16.090000,4.000000,1.290000,8.076000,-9.908000,-12.394000,-2.590000,-3.260000,-0.140000,1.500000,-1.330000,1620812261894257600
330,36.000000,0.177645,120.000000,0.487596,170.860000,-15.720000,4.000000,1.290000,5.236000,2.149000,-4.625000,-2.540000,-3.190000,-0.140000,1.420000,-1.350000,1620812261921569152
331,36.000000,0.177644,120.000000,0.487596,170.490000,-16.150000,4.000000,1.290000,11.319000,-12.458000,-10.419000,-2.530000,-3.200000,-0.140000,1.530000,-1.370000,1620812261934545248
332,36.000000,0.177644,120.000000,0.487596,170.120000,-15.780000,4.000000,1.290000,17.893000,4.103000,-8.225000,-2.480000,-3.110000,-0.140000,1.660000,-1.380000,1620812261954631552
333,36.000000,0.177644,120.000000,0.487596,169.750000,-15.970000,4.000000,1.330000,1.622000,-6.654000,-16.019000,-2.460000,-3.180000,-0.150000,1.670000,-1.340000,1620812261974586016
334,36.000000,0.177644,120.000000,0.487596,169.200000,-15.720000,4.000000,1.330000,8.953000,5.824000,-5.305000,-2.420000,-3.090000,-0.150000,1.550000,-1.400000,1620812261994551872
