frame,pgsnh,gpsnl,gpseh,gpsel,heading_angle,yaw_rate,gps_state,gps_velocity,acceleration_forward,acceleration_lateral,acceleration_down,pitch_angle,velocity_down,velocity_lateral,velocity_forward,roll_angle,timestamp
1,36.000000,0.177472,120.000000,0.487480,180.890000,-0.190000,4.000000,0.020000,5.190000,3.867000,-7.996000,-0.190000,-2.570000,0.000000,0.000000,0.470000,1621670781425642240
2,36.000000,0.177472,120.000000,0.487480,180.890000,-0.250000,4.000000,0.000000,-0.456000,1.449000,-9.329000,-0.170000,-2.580000,0.000000,0.000000,0.480000,1621670781445672224
3,36.000000,0.177472,120.000000,0.487480,180.890000,-0.250000,4.000000,0.000000,3.077000,2.844000,-8.966000,-0.190000,-2.710000,0.000000,0.000000,0.480000,1621670781465671360
4,36.000000,0.177472,120.000000,0.487480,180.890000,-0.190000,4.000000,0.000000,-2.129000,4.844000,-6.951000,-0.170000,-2.700000,0.000000,0.000000,0.430000,1621670781485711648
5,36.000000,0.177472,120.000000,0.487480,180.890000,-0.250000,4.000000,0.010000,-1.342000,-1.923000,-5.910000,-0.220000,-2.770000,0.000000,0.000000,0.500000,1621670781505766304
6,36.000000,0.177472,120.000000,0.487480,180.890000,0.120000,4.000000,0.010000,-3.364000,3.434000,-2.391000,-0.240000,-2.710000,0.000000,0.000000,0.450000,1621670781525769792
7,36.000000,0.177472,120.000000,0.487480,180.890000,-0.130000,4.000000,0.010000,-3.191000,-3.094000,-9.476000,-0.220000,-2.710000,0.000000,0.000000,0.480000,1621670781545792096
8,36.000000,0.177472,120.000000,0.487480,180.890000,-0.070000,4.000000,0.010000,-3.640000,2.202000,0.949000,-0.240000,-2.620000,0.000000,0.000000,0.430000,1621670781565828384
9,36.000000,0.177472,120.000000,0.487480,180.890000,-0.130000,4.000000,0.010000,-3.597000,-3.485000,-13.920000,-0.260000,-2.640000,0.000000,0.000000,0.460000,1621670781585815392
10,36.000000,0.177472,120.000000,0.487480,180.890000,-0.130000,4.000000,0.020000,0.448000,-8.097000,-10.888000,-0.270000,-2.660000,0.000000,0.000000,0.440000,1621670781605802016
11,36.000000,0.177472,120.000000,0.487480,180.890000,0.050000,4.000000,0.020000,-1.643000,-3.438000,-16.421000,-0.330000,-2.660000,0.000000,0.000000,0.470000,1621670781625721888
12,36.000000,0.177472,120.000000,0.487480,180.890000,-0.250000,4.000000,0.010000,-0.995000,-4.874000,-9.867000,-0.340000,-2.680000,0.000000,0.000000,0.440000,1621670781645864288
13,36.000000,0.177472,120.000000,0.487480,180.890000,-0.130000,4.000000,0.010000,5.396000,4.764000,-10.488000,-0.360000,-2.640000,0.000000,0.000000,0.530000,1621670781665755968
14,36.000000,0.177472,120.000000,0.487480,180.890000,-0.120000,4.000000,0.010000,-0.099000,2.327000,-9.846000,-0.380000,-2.660000,0.000000,0.000000,0.490000,1621670781685739008
15,36.000000,0.177472,120.000000,0.487480,180.890000,-0.190000,4.000000,0.000000,0.444000,-1.900000,-9.911000,-0.430000,-2.680000,0.000000,0.000000,0.550000,1621670781705700448
16,36.000000,0.177472,120.000000,0.487480,180.890000,-0.120000,4.000000,0.000000,0.016000,-3.419000,-16.416000,-0.460000,-2.640000,0.000000,0.000000,0.540000,1621670781725691424
17,36.000000,0.177472,120.000000,0.487480,180.890000,-0.250000,4.000000,0.000000,-4.660000,-7.497000,-10.924000,-0.500000,-2.720000,0.000000,0.000000,0.550000,1621670781745676128
18,36.000000,0.177472,120.000000,0.487480,180.890000,-0.010000,4.000000,0.000000,-4.744000,4.533000,3.131000,-0.530000,-2.610000,0.000000,0.000000,0.540000,1621670781765657568
19,36.000000,0.177472,120.000000,0.487480,180.890000,-0.070000,4.000000,0.000000,-3.368000,-6.253000,-15.888000,-0.500000,-2.630000,0.000000,0.000000,0.540000,1621670781785720832
20,36.000000,0.177472,120.000000,0.487480,180.890000,-0.190000,4.000000,0.010000,-0.137000,0.592000,-4.476000,-0.530000,-2.520000,0.000000,0.000000,0.540000,1621670781805815520
21,36.000000,0.177472,120.000000,0.487480,180.890000,-0.070000,4.000000,0.010000,-1.339000,-4.819000,-16.442000,-0.570000,-2.520000,0.000000,0.000000,0.530000,1621670781825698752
22,36.000000,0.177472,120.000000,0.487480,180.890000,-0.130000,4.000000,0.010000,0.581000,-6.095000,-12.754000,-0.600000,-2.570000,0.000000,0.000000,0.490000,1621670781845729792
23,36.000000,0.177472,120.000000,0.487480,180.890000,0.180000,4.000000,0.010000,-3.882000,3.284000,1.655000,-0.620000,-2.470000,0.000000,0.000000,0.440000,1621670781865739008
24,36.000000,0.177472,120.000000,0.487480,180.890000,-0.190000,4.000000,0.010000,0.208000,-1.553000,-13.992000,-0.670000,-2.620000,0.000000,0.000000,0.490000,1621670781885743648
25,36.000000,0.177472,120.000000,0.487480,180.890000,0.110000,4.000000,0.010000,-2.316000,4.217000,1.141000,-0.690000,-2.580000,0.000000,0.000000,0.500000,1621670781905694944
26,36.000000,0.177472,120.000000,0.487480,180.890000,-0.060000,4.000000,0.010000,-1.478000,-1.499000,-16.416000,-0.740000,-2.660000,0.000000,0.000000,0.490000,1621670781925736384
27,36.000000,0.177472,120.000000,0.487480,180.890000,0.240000,4.000000,0.010000,0.667000,4.853000,-1.777000,-0.760000,-2.600000,0.000000,0.000000,0.500000,1621670781945627584
28,36.000000,0.177472,120.000000,0.487480,180.890000,-0.190000,4.000000,0.000000,-0.334000,-1.646000,-16.403000,-0.810000,-2.660000,0.000000,0.000000,0.480000,1621670781965717568
29,36.000000,0.177472,120.000000,0.487480,180.890000,-0.010000,4.000000,0.000000,2.059000,-2.391000,-10.012000,-0.830000,-2.680000,0.000000,0.000000,0.450000,1621670781986168736
30,36.000000,0.177472,120.000000,0.487480,180.890000,0.000000,4.000000,0.020000,0.874000,-3.824000,-5.126000,-0.880000,-2.570000,0.000000,0.000000,0.420000,1621670782005961760
31,36.000000,0.177472,120.000000,0.487480,180.890000,-0.010000,4.000000,0.020000,0.708000,2.756000,-8.102000,-0.900000,-2.570000,0.000000,0.000000,0.440000,1621670782025916864
32,36.000000,0.177472,120.000000,0.487480,180.890000,-0.190000,4.000000,0.010000,0.167000,-4.009000,-8.733000,-0.950000,-2.570000,0.000000,0.000000,0.430000,1621670782045946272
33,36.000000,0.177472,120.000000,0.487480,180.890000,-0.070000,4.000000,0.010000,-2.313000,5.975000,-0.361000,-0.930000,-2.490000,0.000000,0.000000,0.450000,1621670782065869664
34,36.000000,0.177472,120.000000,0.487480,180.890000,-0.060000,4.000000,0.010000,-2.907000,-6.813000,-13.742000,-0.950000,-2.630000,0.000000,0.000000,0.490000,1621670782085901376
35,36.000000,0.177472,120.000000,0.487480,180.890000,0.120000,4.000000,0.010000,-2.383000,6.713000,6.340000,-0.970000,-2.490000,0.000000,0.000000,0.440000,1621670782105777504
36,36.000000,0.177472,120.000000,0.487480,180.890000,-0.120000,4.000000,0.010000,-2.266000,-4.658000,-16.469000,-1.020000,-2.670000,0.000000,0.000000,0.530000,1621670782125739328
37,36.000000,0.177472,120.000000,0.487480,180.890000,-0.190000,4.000000,0.000000,-0.302000,5.617000,4.671000,-1.030000,-2.540000,0.000000,0.000000,0.490000,1621670782145743104
38,36.000000,0.177472,120.000000,0.487480,180.890000,-0.060000,4.000000,0.000000,0.110000,-2.480000,-16.407000,-1.080000,-2.600000,0.000000,0.000000,0.530000,1621670782166712000
39,36.000000,0.177472,120.000000,0.487480,180.890000,-0.190000,4.000000,0.000000,3.616000,6.409000,-2.440000,-1.100000,-2.550000,0.000000,0.000000,0.500000,1621670782185644896
40,36.000000,0.177472,120.000000,0.487480,180.890000,-0.190000,4.000000,0.000000,0.557000,-4.767000,-15.696000,-1.150000,-2.550000,0.000000,0.000000,0.480000,1621670782205708960
41,36.000000,0.177472,120.000000,0.487480,180.890000,-0.190000,4.000000,0.000000,-4.185000,-4.068000,-11.557000,-1.190000,-2.570000,0.000000,0.000000,0.490000,1621670782225596416
42,36.000000,0.177472,120.000000,0.487480,180.890000,-0.070000,4.000000,0.010000,1.558000,-7.323000,-12.756000,-1.220000,-2.560000,0.000000,0.000000,0.540000,1621670782245675488
43,36.000000,0.177472,120.000000,0.487480,180.890000,-0.010000,4.000000,0.010000,-3.294000,-3.378000,-15.518000,-1.260000,-2.540000,0.000000,0.000000,0.530000,1621670782265681312
44,36.000000,0.177472,120.000000,0.487480,180.890000,-0.250000,4.000000,0.010000,-1.302000,-1.427000,-7.832000,-1.250000,-2.540000,0.000000,0.000000,0.540000,1621670782286073216
45,36.000000,0.177472,120.000000,0.487480,180.890000,-0.010000,4.000000,0.010000,-2.760000,4.100000,-1.396000,-1.290000,-2.480000,0.000000,0.000000,0.580000,1621670782306252576
46,36.000000,0.177472,120.000000,0.487480,180.890000,-0.120000,4.000000,0.010000,-2.857000,-2.886000,-15.385000,-1.320000,-2.660000,0.000000,0.000000,0.590000,1621670782325788000
47,36.000000,0.177472,120.000000,0.487480,180.890000,0.050000,4.000000,0.020000,-1.892000,3.818000,1.157000,-1.360000,-2.570000,0.000000,0.000000,0.640000,1621670782346004512
48,36.000000,0.177472,120.000000,0.487480,180.890000,-0.130000,4.000000,0.020000,-1.630000,3.294000,-8.226000,-1.380000,-2.610000,0.000000,0.000000,0.650000,1621670782365865984
49,36.000000,0.177472,120.000000,0.487480,180.890000,-0.250000,4.000000,0.020000,0.759000,5.554000,-0.068000,-1.430000,-2.610000,0.000000,0.000000,0.700000,1621670782386015456
50,36.000000,0.177472,120.000000,0.487480,180.890000,0.000000,4.000000,0.020000,-3.227000,4.484000,-4.615000,-1.440000,-2.570000,0.000000,0.000000,0.710000,1621670782406082048
51,36.000000,0.177472,120.000000,0.487480,180.890000,-0.130000,4.000000,0.020000,-1.950000,-2.233000,-8.344000,-1.500000,-2.600000,0.000000,0.000000,0.710000,1621670782426046496
52,36.000000,0.177472,120.000000,0.487480,180.890000,0.060000,4.000000,0.020000,-4.050000,3.184000,-0.973000,-1.510000,-2.530000,0.000000,0.000000,0.720000,1621670782446108128
53,36.000000,0.177472,120.000000,0.487480,180.890000,-0.130000,4.000000,0.020000,-2.951000,-3.878000,-12.706000,-1.560000,-2.690000,0.000000,0.000000,0.770000,1621670782466046656
54,36.000000,0.177472,120.000000,0.487480,180.890000,0.110000,4.000000,0.020000,-3.117000,2.990000,2.384000,-1.580000,-2.590000,0.000000,0.000000,0.720000,1621670782486132672
55,36.000000,0.177472,120.000000,0.487480,180.890000,-0.070000,4.000000,0.010000,-2.602000,-1.943000,-16.492000,-1.640000,-2.700000,0.000000,0.000000,0.810000,1621670782505633440
56,36.000000,0.177472,120.000000,0.487480,180.890000,-0.130000,4.000000,0.010000,1.612000,5.362000,-1.740000,-1.650000,-2.630000,0.000000,0.000000,0.770000,1621670782525913504
57,36.000000,0.177472,120.000000,0.487480,180.890000,-0.070000,4.000000,0.000000,-0.493000,-3.250000,-16.451000,-1.670000,-2.630000,0.000000,0.000000,0.810000,1621670782545929952
58,36.000000,0.177472,120.000000,0.487480,180.890000,-0.120000,4.000000,0.000000,5.508000,5.462000,-10.927000,-1.690000,-2.660000,0.000000,0.000000,0.830000,1621670782565937088
59,36.000000,0.177472,120.000000,0.487480,180.890000,0.060000,4.000000,0.000000,1.841000,-4.794000,-15.101000,-1.740000,-2.650000,0.000000,0.000000,0.870000,1621670782586023200
60,36.000000,0.177472,120.000000,0.487480,180.890000,-0.190000,4.000000,0.020000,-0.855000,2.021000,-9.837000,-1.750000,-2.670000,0.000000,0.000000,0.830000,1621670782605874560
61,36.000000,0.177472,120.000000,0.487480,180.890000,-0.190000,4.000000,0.020000,0.809000,1.469000,-6.273000,-1.810000,-2.640000,0.000000,0.000000,0.880000,1621670782625847552
62,36.000000,0.177472,120.000000,0.487480,180.890000,-0.120000,4.000000,0.010000,-2.247000,3.787000,-7.086000,-1.820000,-2.630000,0.000000,0.000000,0.890000,1621670782645865472
63,36.000000,0.177472,120.000000,0.487480,180.890000,-0.130000,4.000000,0.010000,-2.033000,-2.548000,-9.068000,-1.840000,-2.680000,0.000000,0.000000,0.890000,1621670782665936128
64,36.000000,0.177472,120.000000,0.487480,180.890000,-0.120000,4.000000,0.010000,-3.665000,3.319000,-0.648000,-1.850000,-2.600000,0.000000,0.000000,0.850000,1621670782685746336
65,36.000000,0.177472,120.000000,0.487480,180.890000,-0.130000,4.000000,0.010000,-4.636000,-6.002000,-12.255000,-1.910000,-2.700000,0.000000,0.000000,0.890000,1621670782705793600
66,36.000000,0.177472,120.000000,0.487480,180.890000,-0.180000,4.000000,0.010000,-3.785000,2.223000,2.707000,-1.940000,-2.590000,0.000000,0.000000,0.820000,1621670782725800160
67,36.000000,0.177472,120.000000,0.487480,180.890000,0.050000,4.000000,0.000000,-1.838000,-4.317000,-16.523000,-1.970000,-2.690000,0.000000,0.000000,0.870000,1621670782745741856
68,36.000000,0.177472,120.000000,0.487480,180.890000,0.050000,4.000000,0.000000,-1.838000,-4.317000,-16.523000,-1.970000,-2.690000,0.000000,0.000000,0.870000,1621670782765685408
69,36.000000,0.177472,120.000000,0.487480,180.890000,0.050000,4.000000,0.000000,-1.838000,-4.317000,-16.523000,-1.970000,-2.690000,0.000000,0.000000,0.870000,1621670782785561952
70,36.000000,0.177472,120.000000,0.487480,180.890000,-0.130000,4.000000,0.000000,4.500000,8.280000,-6.219000,-1.980000,-2.550000,0.000000,0.000000,0.820000,1621670782805915264
71,36.000000,0.177472,120.000000,0.487480,180.890000,0.170000,4.000000,0.000000,-2.109000,3.809000,-1.209000,-2.000000,-2.530000,0.000000,0.000000,0.770000,1621670782826024352
72,36.000000,0.177472,120.000000,0.487480,180.890000,-0.250000,4.000000,0.000000,-1.895000,-2.222000,-16.493000,-2.050000,-2.610000,0.000000,0.000000,0.810000,1621670782846072384
73,36.000000,0.177472,120.000000,0.487480,180.890000,-0.070000,4.000000,0.000000,-0.676000,3.263000,-1.467000,-2.070000,-2.630000,0.000000,0.000000,0.780000,1621670782866185216
74,36.000000,0.177472,120.000000,0.487480,180.890000,-0.180000,4.000000,0.000000,-0.221000,-3.382000,-16.452000,-2.120000,-2.610000,0.000000,0.000000,0.830000,1621670782885755520
75,36.000000,0.177472,120.000000,0.487480,180.890000,0.120000,4.000000,0.020000,3.165000,3.894000,-3.807000,-2.130000,-2.650000,0.000000,0.000000,0.800000,1621670782906050464
76,36.000000,0.177472,120.000000,0.487480,180.890000,-0.180000,4.000000,0.020000,1.436000,-5.971000,-14.519000,-2.150000,-2.650000,0.000000,0.000000,0.770000,1621670782925692960
77,36.000000,0.177472,120.000000,0.487480,180.890000,-0.010000,4.000000,0.010000,-0.331000,2.432000,-7.104000,-2.130000,-2.640000,0.000000,0.000000,0.780000,1621670782945817184
78,36.000000,0.177472,120.000000,0.487480,180.890000,-0.370000,4.000000,0.010000,1.168000,-6.446000,-9.072000,-2.150000,-2.610000,0.000000,0.000000,0.750000,1621670782965790880
79,36.000000,0.177472,120.000000,0.487480,180.890000,0.060000,4.000000,0.010000,-3.407000,5.497000,-0.244000,-2.170000,-2.530000,0.000000,0.000000,0.760000,1621670782985826048
80,36.000000,0.177472,120.000000,0.487480,180.890000,-0.250000,4.000000,0.010000,-3.067000,-6.014000,-15.866000,-2.180000,-2.650000,0.000000,0.000000,0.770000,1621670783005869088
81,36.000000,0.177472,120.000000,0.487480,180.890000,0.050000,4.000000,0.010000,-2.035000,5.698000,3.013000,-2.200000,-2.540000,0.000000,0.000000,0.730000,1621670783025815552
82,36.000000,0.177472,120.000000,0.487480,180.890000,-0.120000,4.000000,0.010000,-1.943000,-4.219000,-16.531000,-2.250000,-2.710000,0.000000,0.000000,0.790000,1621670783045868576
83,36.000000,0.177472,120.000000,0.487480,180.890000,0.110000,4.000000,0.010000,1.404000,7.046000,0.771000,-2.270000,-2.620000,0.000000,0.000000,0.750000,1621670783065852160
84,36.000000,0.177472,120.000000,0.487480,180.890000,-0.120000,4.000000,0.000000,0.649000,-5.549000,-16.445000,-2.320000,-2.680000,0.000000,0.000000,0.760000,1621670783085758304
85,36.000000,0.177472,120.000000,0.487480,180.890000,-0.190000,4.000000,0.000000,3.000000,6.765000,-0.952000,-2.340000,-2.620000,0.000000,0.000000,0.730000,1621670783105788768
86,36.000000,0.177472,120.000000,0.487480,180.890000,-0.180000,4.000000,0.000000,1.222000,-7.361000,-16.449000,-2.350000,-2.600000,0.000000,0.000000,0.780000,1621670783125648992
87,36.000000,0.177472,120.000000,0.487480,180.890000,-0.070000,4.000000,0.010000,3.736000,5.265000,-1.480000,-2.340000,-2.530000,0.000000,0.000000,0.760000,1621670783145708928
88,36.000000,0.177472,120.000000,0.487480,180.890000,-0.130000,4.000000,0.010000,0.310000,-7.634000,-15.141000,-2.280000,-2.550000,0.000000,0.000000,0.740000,1621670783165692480
89,36.000000,0.177472,120.000000,0.487480,180.890000,-0.010000,4.000000,0.020000,0.021000,0.328000,-7.941000,-2.270000,-2.550000,0.000000,0.000000,0.750000,1621670783185695040
90,36.000000,0.177472,120.000000,0.487480,180.890000,-0.190000,4.000000,0.020000,0.825000,-8.501000,-11.419000,-2.220000,-2.560000,0.000000,0.000000,0.720000,1621670783205681024
91,36.000000,0.177472,120.000000,0.487480,180.890000,-0.010000,4.000000,0.020000,-3.628000,0.522000,-2.783000,-2.190000,-2.510000,0.000000,0.000000,0.780000,1621670783226021728
92,36.000000,0.177472,120.000000,0.487480,180.890000,-0.250000,4.000000,0.020000,-2.740000,-0.696000,-10.091000,-2.150000,-2.540000,0.000000,0.000000,0.730000,1621670783246100224
93,36.000000,0.177472,120.000000,0.487480,180.890000,0.050000,4.000000,0.020000,-2.342000,1.453000,-1.393000,-2.160000,-2.480000,0.000000,0.000000,0.720000,1621670783266038944
94,36.000000,0.177472,120.000000,0.487480,180.890000,-0.180000,4.000000,0.000000,-2.680000,0.206000,-16.055000,-2.190000,-2.620000,0.000000,0.000000,0.740000,1621670783284123360
95,36.000000,0.177472,120.000000,0.487480,180.890000,-0.010000,4.000000,0.000000,3.810000,-0.620000,-6.669000,-2.230000,-2.580000,0.000000,0.000000,0.720000,1621670783306008000
96,36.000000,0.177472,120.000000,0.487480,180.890000,-0.180000,4.000000,0.000000,-0.085000,-2.073000,-16.425000,-2.260000,-2.610000,0.000000,0.000000,0.710000,1621670783325896320
97,36.000000,0.177472,120.000000,0.487480,180.890000,-0.190000,4.000000,0.010000,1.719000,2.515000,-3.757000,-2.290000,-2.590000,0.000000,0.000000,0.530000,1621670783346271072
98,36.000000,0.177472,120.000000,0.487480,180.890000,0.060000,4.000000,0.010000,-4.610000,4.282000,3.498000,-2.310000,-2.440000,0.000000,0.000000,0.540000,1621670783366106752
99,36.000000,0.177472,120.000000,0.487480,180.890000,-0.060000,4.000000,0.040000,3.488000,-0.249000,-5.834000,-2.320000,-2.480000,0.000000,0.000000,0.620000,1621670783386016192
100,36.000000,0.177472,120.000000,0.487480,180.890000,0.060000,4.000000,0.040000,-0.973000,5.122000,4.778000,-2.300000,-2.440000,0.000000,0.010000,0.580000,1621670783406183488
101,36.000000,0.177472,120.000000,0.487480,180.890000,0.060000,4.000000,0.040000,1.738000,-3.703000,-16.365000,-2.250000,-2.500000,0.000000,0.010000,0.590000,1621670783426006464
102,36.000000,0.177472,120.000000,0.487480,180.890000,0.000000,4.000000,0.010000,4.940000,7.745000,-3.889000,-2.230000,-2.460000,0.000000,0.000000,0.550000,1621670783445985376
103,36.000000,0.177472,120.000000,0.487480,180.890000,0.060000,4.000000,0.010000,2.918000,-4.142000,-13.600000,-2.220000,-2.470000,0.000000,0.000000,0.560000,1621670783465961664
104,36.000000,0.177472,120.000000,0.487480,180.890000,-0.070000,4.000000,0.010000,3.992000,4.366000,-6.525000,-2.200000,-2.460000,0.000000,0.000000,0.530000,1621670783485899392
105,36.000000,0.177472,120.000000,0.487480,180.890000,-0.070000,4.000000,0.000000,2.601000,-2.588000,-11.228000,-2.150000,-2.510000,0.000000,0.000000,0.510000,1621670783506018656
106,36.000000,0.177472,120.000000,0.487480,180.890000,-0.180000,4.000000,0.000000,0.971000,-0.920000,-7.901000,-2.130000,-2.510000,0.000000,0.000000,0.500000,1621670783525764352
107,36.000000,0.177472,120.000000,0.487480,180.890000,0.050000,4.000000,0.010000,2.249000,0.435000,-7.518000,-2.080000,-2.550000,0.000000,0.000000,0.480000,1621670783545897888
108,36.000000,0.177472,120.000000,0.487480,180.890000,-0.310000,4.000000,0.010000,-4.743000,2.424000,1.607000,-2.060000,-2.460000,0.000000,0.000000,0.490000,1621670783565639616
109,36.000000,0.177472,120.000000,0.487480,180.890000,-0.070000,4.000000,0.010000,-0.652000,3.392000,-5.917000,-2.010000,-2.480000,0.000000,0.000000,0.490000,1621670783585905824
110,36.000000,0.177472,120.000000,0.487480,180.890000,-0.250000,4.000000,0.000000,0.000000,2.156000,-0.353000,-1.990000,-2.410000,0.000000,0.000000,0.460000,1621670783605823360
111,36.000000,0.177472,120.000000,0.487480,180.890000,0.060000,4.000000,0.000000,0.546000,-2.244000,-16.391000,-1.940000,-2.510000,0.000000,0.000000,0.450000,1621670783625737184
112,36.000000,0.177472,120.000000,0.487480,180.890000,-0.130000,4.000000,0.010000,5.125000,4.299000,-7.496000,-1.920000,-2.510000,0.000000,0.000000,0.430000,1621670783645768416
113,36.000000,0.177472,120.000000,0.487480,180.890000,-0.070000,4.000000,0.010000,2.629000,-2.490000,-12.929000,-1.880000,-2.480000,0.000000,0.000000,0.430000,1621670783665652448
114,36.000000,0.177472,120.000000,0.487480,180.890000,-0.130000,4.000000,0.020000,4.158000,2.807000,-9.111000,-1.860000,-2.500000,0.000000,0.000000,0.410000,1621670783685736448
115,36.000000,0.177472,120.000000,0.487480,180.890000,0.120000,4.000000,0.020000,4.362000,-2.122000,-10.238000,-1.810000,-2.460000,0.000000,0.000000,0.340000,1621670783705681760
116,36.000000,0.177472,120.000000,0.487480,180.890000,-0.120000,4.000000,0.020000,-0.060000,-0.455000,-8.145000,-1.810000,-2.460000,0.000000,0.000000,0.380000,1621670783725630880
117,36.000000,0.177472,120.000000,0.487480,180.890000,0.060000,4.000000,0.010000,0.970000,-1.404000,-9.387000,-1.780000,-2.510000,0.000000,0.000000,0.360000,1621670783745648896
118,36.000000,0.177472,120.000000,0.487480,180.890000,-0.180000,4.000000,0.010000,-3.060000,-6.228000,-9.245000,-1.740000,-2.520000,0.000000,0.000000,0.400000,1621670783766014112
119,36.000000,0.177472,120.000000,0.487480,180.890000,0.060000,4.000000,0.000000,0.608000,2.240000,-8.170000,-1.710000,-2.570000,0.000000,0.000000,0.390000,1621670783786025280
120,36.000000,0.177472,120.000000,0.487480,180.890000,-0.180000,4.000000,0.000000,0.187000,-8.053000,-11.900000,-1.670000,-2.460000,0.000000,0.000000,0.370000,1621670783806016864
121,36.000000,0.177472,120.000000,0.487480,180.890000,15.600000,4.000000,0.000000,-1.610000,3.181000,-1.804000,-1.640000,-2.420000,0.000000,0.000000,0.370000,1621670783825989760
122,36.000000,0.177472,120.000000,0.487480,180.890000,-0.240000,4.000000,0.020000,3.594000,6.772000,-2.053000,-1.600000,-2.370000,0.000000,0.000000,0.360000,1621670783845871808
123,36.000000,0.177472,120.000000,0.487480,180.890000,-0.240000,4.000000,0.020000,-1.178000,-2.495000,-11.280000,-1.580000,-2.460000,0.000000,0.000000,0.410000,1621670783865988288
124,36.000000,0.177472,120.000000,0.487480,180.890000,-0.250000,4.000000,0.000000,-0.278000,-0.831000,-10.484000,-1.530000,-2.490000,0.000000,0.000000,0.380000,1621670783885646400
125,36.000000,0.177472,120.000000,0.487480,180.890000,0.060000,4.000000,0.000000,-3.900000,3.654000,-0.188000,-1.510000,-2.450000,0.000000,0.000000,0.390000,1621670783905627200
126,36.000000,0.177472,120.000000,0.487480,180.890000,-0.130000,4.000000,0.000000,-2.634000,3.459000,-6.506000,-1.460000,-2.450000,0.000000,0.000000,0.410000,1621670783925891072
127,36.000000,0.177472,120.000000,0.487480,180.890000,0.060000,4.000000,0.010000,2.850000,3.442000,-2.161000,-1.450000,-2.400000,0.000000,0.000000,0.430000,1621670783945779136
128,36.000000,0.177472,120.000000,0.487480,180.890000,-0.120000,4.000000,0.010000,0.792000,-6.290000,-16.420000,-1.400000,-2.540000,0.000000,0.000000,0.470000,1621670783966313888
129,36.000000,0.177472,120.000000,0.487480,180.890000,-0.070000,4.000000,0.010000,3.757000,2.320000,-3.725000,-1.380000,-2.500000,0.000000,0.000000,0.450000,1621670783985984384
130,36.000000,0.177472,120.000000,0.487480,180.890000,-0.180000,4.000000,0.010000,1.889000,-9.882000,-16.093000,-1.330000,-2.650000,0.000000,0.000000,0.490000,1621670784005885856
131,36.000000,0.177472,120.000000,0.487480,180.890000,0.180000,4.000000,0.010000,2.594000,1.401000,-3.874000,-1.310000,-2.610000,0.000000,0.000000,0.480000,1621670784025817088
132,36.000000,0.177472,120.000000,0.487480,180.890000,-0.190000,4.000000,0.010000,-0.427000,-11.014000,-15.035000,-1.260000,-2.500000,0.000000,0.000000,0.460000,1621670784045726208
133,36.000000,0.177472,120.000000,0.487480,180.890000,0.240000,4.000000,0.010000,-0.990000,2.156000,-3.443000,-1.250000,-2.460000,0.000000,0.000000,0.500000,1621670784065694208
134,36.000000,0.177472,120.000000,0.487480,180.890000,-0.250000,4.000000,0.020000,-0.030000,-9.127000,-15.815000,-1.200000,-2.390000,0.000000,0.000000,0.420000,1621670784085961600
135,36.000000,0.177472,120.000000,0.487480,180.890000,0.000000,4.000000,0.020000,-2.316000,-1.448000,-6.099000,-1.180000,-2.380000,0.000000,0.000000,0.420000,1621670784105914816
136,36.000000,0.177472,120.000000,0.487480,180.890000,-0.180000,4.000000,0.020000,0.519000,-5.344000,-14.642000,-1.120000,-2.460000,0.000000,0.000000,0.400000,1621670784125743296
137,36.000000,0.177472,120.000000,0.487480,180.890000,0.000000,4.000000,0.010000,-3.075000,-2.124000,-12.584000,-1.110000,-2.500000,0.000000,0.000000,0.350000,1621670784145990560
138,36.000000,0.177472,120.000000,0.487480,180.890000,-0.190000,4.000000,0.010000,-2.136000,0.108000,-11.510000,-1.050000,-2.570000,0.000000,0.000000,0.440000,1621670784165692256
139,36.000000,0.177472,120.000000,0.487480,180.890000,-0.070000,4.000000,0.000000,0.921000,6.284000,-0.702000,-1.070000,-2.500000,0.000000,0.000000,0.390000,1621670784185951872
140,36.000000,0.177472,120.000000,0.487480,180.890000,-0.180000,4.000000,0.000000,-4.559000,-1.938000,-16.484000,-1.050000,-2.630000,0.000000,0.000000,0.450000,1621670784205915424
141,36.000000,0.177472,120.000000,0.487480,180.890000,-0.010000,4.000000,0.000000,3.704000,-0.717000,-12.786000,-1.050000,-2.580000,0.000000,0.000000,0.380000,1621670784225885856
142,36.000000,0.177472,120.000000,0.487480,180.890000,-0.180000,4.000000,0.010000,2.197000,-6.563000,-16.051000,-1.050000,-2.710000,0.000000,0.000000,0.410000,1621670784245865312
143,36.000000,0.177472,120.000000,0.487480,180.890000,0.060000,4.000000,0.010000,3.609000,1.438000,-3.537000,-1.020000,-2.660000,0.000000,0.000000,0.400000,1621670784265789280
144,36.000000,0.177472,120.000000,0.487480,180.890000,-0.250000,4.000000,0.000000,1.155000,-6.575000,-12.694000,-0.980000,-2.600000,0.000000,0.000000,0.450000,1621670784285805376
145,36.000000,0.177472,120.000000,0.487480,180.890000,0.050000,4.000000,0.000000,-2.509000,4.602000,-1.408000,-0.950000,-2.590000,0.000000,0.000000,0.390000,1621670784305765408
146,36.000000,0.177472,120.000000,0.487480,180.890000,0.050000,4.000000,0.000000,2.588000,5.535000,0.867000,-0.930000,-2.440000,0.000000,0.000000,0.410000,1621670784325848576
147,36.000000,0.177472,120.000000,0.487480,180.890000,0.120000,4.000000,0.010000,-0.240000,-6.864000,-16.444000,-0.880000,-2.490000,0.000000,0.000000,0.460000,1621670784345852160
148,36.000000,0.177472,120.000000,0.487480,180.890000,-0.010000,4.000000,0.010000,4.763000,7.935000,-0.241000,-0.860000,-2.500000,0.000000,0.000000,0.430000,1621670784365675072
149,36.000000,0.177472,120.000000,0.487480,180.890000,-0.010000,4.000000,0.000000,1.702000,-6.816000,-16.419000,-0.810000,-2.610000,0.000000,0.000000,0.490000,1621670784385664000
150,36.000000,0.177472,120.000000,0.487480,180.890000,-0.130000,4.000000,0.000000,5.501000,7.730000,-3.328000,-0.790000,-2.640000,0.000000,0.000000,0.520000,1621670784406068704
151,36.000000,0.177472,120.000000,0.487480,180.890000,-0.070000,4.000000,0.000000,3.120000,-6.443000,-15.151000,-0.740000,-2.660000,0.000000,0.000000,0.520000,1621670784426022880
152,36.000000,0.177472,120.000000,0.487480,180.890000,-0.250000,4.000000,0.000000,2.328000,5.514000,-4.799000,-0.730000,-2.630000,0.000000,0.000000,0.550000,1621670784446251104
153,36.000000,0.177472,120.000000,0.487480,180.890000,-0.070000,4.000000,0.000000,3.369000,-6.815000,-14.055000,-0.710000,-2.670000,0.000000,0.000000,0.580000,1621670784466072928
154,36.000000,0.177472,120.000000,0.487480,180.890000,-0.370000,4.000000,0.000000,-1.777000,0.375000,-1.102000,-0.700000,-2.600000,0.000000,0.000000,0.630000,1621670784485726368
155,36.000000,0.177472,120.000000,0.487480,180.890000,0.240000,4.000000,0.010000,4.728000,-2.945000,-16.363000,-0.680000,-2.690000,0.000000,0.000000,0.670000,1621670784505913504
156,36.000000,0.177472,120.000000,0.487480,180.890000,-0.050000,4.000000,0.010000,-3.296000,3.736000,-2.660000,-0.660000,-2.630000,0.000000,0.000000,0.670000,1621670784526113920
157,36.000000,0.177472,120.000000,0.487480,180.890000,0.000000,4.000000,0.000000,1.830000,-0.828000,-14.116000,-0.600000,-2.690000,0.000000,0.000000,0.720000,1621670784545622880
158,36.000000,0.177472,120.000000,0.487480,180.890000,-0.240000,4.000000,0.000000,-2.518000,3.446000,0.410000,-0.580000,-2.610000,0.000000,0.000000,0.720000,1621670784566006464
159,36.000000,0.177472,120.000000,0.487480,180.890000,-0.010000,4.000000,0.000000,-3.299000,-2.927000,-14.558000,-0.530000,-2.680000,0.000000,0.000000,0.790000,1621670784586066112
160,36.000000,0.177472,120.000000,0.487480,180.890000,-0.250000,4.000000,0.000000,0.956000,4.953000,1.722000,-0.510000,-2.590000,0.000000,0.000000,0.740000,1621670784606325024
161,36.000000,0.177472,120.000000,0.487480,180.890000,-0.200000,4.000000,0.000000,-2.757000,-5.719000,-16.493000,-0.470000,-2.680000,0.000000,0.000000,0.860000,1621670784626163872
162,36.000000,0.177472,120.000000,0.487480,180.890000,-0.440000,4.000000,0.010000,1.534000,8.298000,-0.895000,-0.450000,-2.610000,0.000000,0.000000,0.820000,1621670784646127264
163,36.000000,0.177472,120.000000,0.487480,180.890000,0.050000,4.000000,0.010000,-2.278000,-7.250000,-16.516000,-0.410000,-2.670000,0.000000,0.000000,0.910000,1621670784666077888
164,36.000000,0.177472,120.000000,0.487480,180.890000,-0.130000,4.000000,0.010000,2.767000,7.386000,2.074000,-0.400000,-2.570000,0.000000,0.000000,0.930000,1621670784686085664
165,36.000000,0.177472,120.000000,0.487480,180.890000,0.060000,4.000000,0.020000,-0.528000,-6.959000,-16.314000,-0.350000,-2.610000,0.000000,0.000000,0.960000,1621670784706001728
166,36.000000,0.177472,120.000000,0.487480,180.890000,-0.170000,4.000000,0.020000,5.487000,8.009000,-1.069000,-0.310000,-2.540000,0.000000,0.000000,1.040000,1621670784725951712
167,36.000000,0.177472,120.000000,0.487480,180.890000,0.010000,4.000000,0.020000,2.263000,-6.629000,-16.321000,-0.340000,-2.610000,0.000000,0.000000,1.020000,1621670784745649792
168,36.000000,0.177472,120.000000,0.487480,180.890000,-0.050000,4.000000,0.020000,-2.867000,-0.149000,-8.799000,-0.360000,-2.610000,0.000000,0.000000,1.090000,1621670784765686464
169,36.000000,0.177472,120.000000,0.487480,180.890000,0.130000,4.000000,0.010000,4.248000,-4.166000,-16.439000,-0.390000,-2.690000,0.000000,0.000000,1.130000,1621670784785741600
170,36.000000,0.177472,120.000000,0.487480,180.890000,-0.180000,4.000000,0.010000,-2.998000,0.276000,-6.915000,-0.420000,-2.670000,0.000000,0.000000,1.190000,1621670784805902080
171,36.000000,0.177472,120.000000,0.487480,180.890000,0.120000,4.000000,0.010000,1.091000,9.040000,0.314000,-0.440000,-2.670000,0.000000,0.000000,1.200000,1621670784825854976
172,36.000000,0.177472,120.000000,0.487480,180.890000,-0.180000,4.000000,0.020000,-3.539000,1.773000,-6.991000,-0.450000,-2.640000,0.000000,0.000000,1.240000,1621670784845952256
173,36.000000,0.177472,120.000000,0.487480,180.890000,0.110000,4.000000,0.020000,2.937000,9.751000,0.300000,-0.440000,-2.630000,0.000000,0.000000,1.250000,1621670784865851328
174,36.000000,0.177472,120.000000,0.487480,180.890000,-0.240000,4.000000,0.020000,0.535000,-5.900000,-16.510000,-0.490000,-2.590000,0.000000,0.000000,1.240000,1621670784885854784
175,36.000000,0.177472,120.000000,0.487480,180.890000,-0.070000,4.000000,0.050000,2.849000,-1.414000,-13.235000,-0.470000,-2.720000,0.000000,0.040000,1.210000,1621670784905886976
176,36.000000,0.177472,120.000000,0.487480,180.890000,-0.130000,4.000000,0.050000,0.142000,-7.194000,-13.911000,-0.490000,-2.710000,0.000000,0.020000,1.250000,1621670784925837888
177,36.000000,0.177472,120.000000,0.487480,180.890000,-0.010000,4.000000,0.050000,-0.642000,1.605000,-7.075000,-0.480000,-2.700000,0.000000,0.030000,1.270000,1621670784945738848
178,36.000000,0.177472,120.000000,0.487480,180.890000,-0.130000,4.000000,0.010000,-0.047000,-1.420000,-7.111000,-0.500000,-2.660000,0.000000,0.000000,1.310000,1621670784965743456
179,36.000000,0.177472,120.000000,0.487480,180.890000,0.110000,4.000000,0.010000,-2.389000,3.345000,0.749000,-0.490000,-2.570000,0.000000,0.000000,1.260000,1621670784985687968
180,36.000000,0.177472,120.000000,0.487480,180.890000,-0.310000,4.000000,0.040000,-3.240000,-4.104000,-14.400000,-0.510000,-2.730000,0.000000,0.010000,1.370000,1621670785005724160
181,36.000000,0.177472,120.000000,0.487480,180.890000,0.110000,4.000000,0.040000,-1.745000,4.910000,5.757000,-0.530000,-2.590000,0.000000,0.010000,1.320000,1621670785025658400
182,36.000000,0.177472,120.000000,0.487480,180.890000,-0.180000,4.000000,0.020000,-2.375000,-4.849000,-16.533000,-0.580000,-2.730000,0.000000,0.000000,1.430000,1621670785046140992
183,36.000000,0.177472,120.000000,0.487480,180.890000,-0.190000,4.000000,0.020000,0.088000,6.852000,2.325000,-0.590000,-2.630000,0.000000,0.000000,1.380000,1621670785065996416
184,36.000000,0.177472,120.000000,0.487480,180.890000,-0.180000,4.000000,0.000000,-0.632000,-4.812000,-16.516000,-0.650000,-2.670000,0.000000,0.000000,1.440000,1621670785085996736
185,36.000000,0.177472,120.000000,0.487480,180.890000,-0.190000,4.000000,0.000000,2.433000,10.207000,2.259000,-0.660000,-2.570000,0.000000,0.000000,1.400000,1621670785106029760
186,36.000000,0.177472,120.000000,0.487480,180.890000,-0.110000,4.000000,0.000000,1.777000,-7.343000,-16.552000,-0.710000,-2.580000,0.000000,0.000000,1.440000,1621670785126213696
187,36.000000,0.177472,120.000000,0.487480,180.890000,-0.180000,4.000000,0.000000,2.536000,-1.421000,-13.435000,-0.730000,-2.640000,0.000000,0.000000,1.400000,1621670785146200928
188,36.000000,0.177472,120.000000,0.487480,180.890000,-0.360000,4.000000,0.000000,1.606000,-9.594000,-16.620000,-0.770000,-2.610000,0.000000,0.000000,1.500000,1621670785166165920
189,36.000000,0.177472,120.000000,0.487480,180.890000,-0.130000,4.000000,0.010000,0.936000,0.351000,-11.292000,-0.790000,-2.640000,0.000000,0.000000,1.450000,1621670785185958272
190,36.000000,0.177472,120.000000,0.487480,180.890000,-0.130000,4.000000,0.010000,2.307000,4.758000,-0.090000,-0.840000,-2.500000,0.000000,0.000000,1.550000,1621670785206133600
191,36.000000,0.177472,120.000000,0.487480,180.890000,-0.070000,4.000000,0.010000,-0.161000,0.749000,-7.788000,-0.870000,-2.500000,0.000000,0.000000,1.540000,1621670785226024768
192,36.000000,0.177472,120.000000,0.487480,180.890000,-0.130000,4.000000,0.010000,-0.733000,1.544000,-1.460000,-0.910000,-2.570000,0.000000,0.000000,1.500000,1621670785246186816
193,36.000000,0.177472,120.000000,0.487480,180.890000,-0.060000,4.000000,0.010000,-2.873000,1.804000,-2.718000,-0.940000,-2.520000,0.000000,0.000000,1.500000,1621670785265991488
194,36.000000,0.177472,120.000000,0.487480,180.890000,-0.060000,4.000000,0.040000,-1.979000,-0.774000,-6.143000,-0.970000,-2.650000,0.000000,0.010000,1.520000,1621670785286320768
195,36.000000,0.177472,120.000000,0.487480,180.890000,-0.060000,4.000000,0.040000,-3.209000,2.082000,0.730000,-1.010000,-2.560000,0.000000,0.010000,1.490000,1621670785306265952
196,36.000000,0.177472,120.000000,0.487480,180.890000,-0.180000,4.000000,0.040000,-3.083000,-1.715000,-12.476000,-1.040000,-2.610000,0.000000,0.010000,1.510000,1621670785326041792
197,36.000000,0.177472,120.000000,0.487480,180.890000,-0.130000,4.000000,0.000000,3.681000,6.522000,-5.828000,-1.080000,-2.510000,0.000000,0.000000,1.490000,1621670785346040928
198,36.000000,0.177472,120.000000,0.487480,180.890000,-0.130000,4.000000,0.000000,-0.797000,0.267000,-11.127000,-1.090000,-2.530000,0.000000,0.000000,1.440000,1621670785365669888
199,36.000000,0.177472,120.000000,0.487480,180.890000,-0.200000,4.000000,0.000000,1.561000,2.042000,-6.992000,-1.150000,-2.650000,0.000000,0.000000,1.450000,1621670785385979520
200,36.000000,0.177472,120.000000,0.487480,180.890000,-0.070000,4.000000,0.000000,-2.504000,4.516000,-6.735000,-1.170000,-2.630000,0.000000,0.000000,1.400000,1621670785405657920
201,36.000000,0.177472,120.000000,0.487480,180.890000,-0.260000,4.000000,0.000000,-1.349000,-2.226000,-8.752000,-1.220000,-2.750000,0.000000,0.000000,1.410000,1621670785426050880
202,36.000000,0.177472,120.000000,0.487480,180.890000,0.050000,4.000000,0.020000,-3.329000,5.589000,-0.750000,-1.240000,-2.680000,0.000000,0.000000,1.410000,1621670785445997728
203,36.000000,0.177472,120.000000,0.487480,180.890000,-0.190000,4.000000,0.020000,-2.012000,-2.849000,-11.018000,-1.300000,-2.720000,0.000000,0.000000,1.390000,1621670785466037568
204,36.000000,0.177472,120.000000,0.487480,180.890000,-0.180000,4.000000,0.020000,-3.505000,6.473000,3.495000,-1.310000,-2.610000,0.000000,0.000000,1.230000,1621670785485994144
205,36.000000,0.177472,120.000000,0.487480,180.890000,-0.130000,4.000000,0.010000,-4.337000,-4.992000,-11.563000,-1.300000,-2.610000,0.000000,0.000000,1.320000,1621670785506026272
206,36.000000,0.177472,120.000000,0.487480,180.890000,-0.060000,4.000000,0.010000,0.269000,-11.064000,-15.823000,-1.280000,-2.680000,0.000000,0.000000,1.310000,1621670785526009504
207,36.000000,0.177472,120.000000,0.487480,180.890000,0.190000,4.000000,0.000000,-2.288000,5.029000,3.167000,-1.250000,-2.480000,0.000000,0.000000,1.250000,1621670785546028864
208,36.000000,0.177472,120.000000,0.487480,180.890000,-0.120000,4.000000,0.000000,2.189000,-8.166000,-13.754000,-1.230000,-2.540000,0.000000,0.000000,1.300000,1621670785566023328
209,36.000000,0.177472,120.000000,0.487480,180.890000,0.120000,4.000000,0.000000,2.623000,6.103000,1.732000,-1.210000,-2.360000,0.000000,0.000000,1.180000,1621670785586012704
210,36.000000,0.177472,120.000000,0.487480,180.890000,-0.070000,4.000000,0.010000,2.367000,-7.444000,-16.499000,-1.200000,-2.450000,0.000000,0.000000,1.220000,1621670785606003040
211,36.000000,0.177472,120.000000,0.487480,180.890000,-0.070000,4.000000,0.010000,2.597000,4.155000,2.385000,-1.220000,-2.360000,0.000000,0.000000,1.150000,1621670785626059264
212,36.000000,0.177472,120.000000,0.487480,180.890000,-0.070000,4.000000,0.020000,0.146000,-4.944000,-12.898000,-1.200000,-2.420000,0.000000,0.000000,1.120000,1621670785646015936
213,36.000000,0.177472,120.000000,0.487480,180.890000,-0.130000,4.000000,0.020000,4.938000,5.340000,-5.404000,-1.220000,-2.510000,0.000000,0.000000,1.060000,1621670785665998080
214,36.000000,0.177472,120.000000,0.487480,180.890000,0.120000,4.000000,0.020000,-0.927000,-2.019000,-8.236000,-1.200000,-2.510000,0.000000,0.000000,1.020000,1621670785685951104
215,36.000000,0.177472,120.000000,0.487480,180.890000,-0.130000,4.000000,0.020000,3.965000,3.547000,-7.459000,-1.150000,-2.460000,0.000000,0.000000,0.990000,1621670785706025472
216,36.000000,0.177472,120.000000,0.487480,180.890000,-0.010000,4.000000,0.020000,-1.015000,3.509000,-7.513000,-1.110000,-2.460000,0.000000,0.000000,0.940000,1621670785726054624
217,36.000000,0.177472,120.000000,0.487480,180.890000,-0.310000,4.000000,0.000000,2.131000,1.443000,-7.951000,-1.080000,-2.450000,0.000000,0.000000,0.890000,1621670785746300480
218,36.000000,0.177472,120.000000,0.487480,180.890000,0.120000,4.000000,0.000000,0.274000,-7.684000,-16.502000,-1.080000,-2.530000,0.000000,0.000000,0.850000,1621670785766155488
219,36.000000,0.177472,120.000000,0.487480,180.890000,0.000000,4.000000,0.020000,1.572000,6.498000,-3.685000,-1.040000,-2.480000,0.000000,0.000000,0.740000,1621670785786111968
220,36.000000,0.177472,120.000000,0.487480,180.890000,0.000000,4.000000,0.020000,0.507000,-8.032000,-16.491000,-1.040000,-2.560000,0.000000,0.000000,0.760000,1621670785806025632
221,36.000000,0.177472,120.000000,0.487480,180.890000,0.060000,4.000000,0.020000,-3.071000,3.806000,-0.770000,-1.010000,-2.480000,0.000000,0.000000,0.670000,1621670785826052160
222,36.000000,0.177472,120.000000,0.487480,180.890000,0.120000,4.000000,0.000000,3.004000,10.886000,2.462000,-0.970000,-2.570000,0.000000,0.000000,0.690000,1621670785846130496
223,36.000000,0.177472,120.000000,0.487480,180.890000,-0.190000,4.000000,0.000000,-0.428000,2.003000,-8.130000,-0.950000,-2.470000,0.000000,0.000000,0.680000,1621670785865995072
224,36.000000,0.177472,120.000000,0.487480,180.890000,0.050000,4.000000,0.010000,-0.152000,-9.433000,-16.490000,-0.900000,-2.510000,0.000000,0.000000,0.570000,1621670785885927296
225,36.000000,0.177472,120.000000,0.487480,180.890000,-0.130000,4.000000,0.010000,-3.174000,0.764000,-6.388000,-0.890000,-2.400000,0.000000,0.000000,0.560000,1621670785905822656
226,36.000000,0.177472,120.000000,0.487480,180.890000,0.120000,4.000000,0.010000,2.887000,-2.927000,-11.173000,-0.830000,-2.460000,0.000000,0.000000,0.460000,1621670785925947584
227,36.000000,0.177472,120.000000,0.487480,180.890000,0.060000,4.000000,0.020000,-4.196000,-1.234000,-6.934000,-0.820000,-2.450000,0.000000,0.000000,0.450000,1621670785945746432
228,36.000000,0.177472,120.000000,0.487480,180.890000,-0.130000,4.000000,0.020000,-0.482000,-1.602000,-7.149000,-0.760000,-2.430000,0.000000,0.000000,0.350000,1621670785965692544
229,36.000000,0.177472,120.000000,0.487480,180.890000,-0.190000,4.000000,0.020000,-4.470000,-4.037000,-9.577000,-0.780000,-2.450000,0.000000,0.000000,0.340000,1621670785985712928
230,36.000000,0.177472,120.000000,0.487480,180.890000,-0.010000,4.000000,0.020000,-2.234000,1.629000,-1.787000,-0.800000,-2.340000,0.000000,0.000000,0.300000,1621670786005598624
231,36.000000,0.177472,120.000000,0.487480,180.890000,-0.130000,4.000000,0.020000,-3.393000,-3.254000,-14.118000,-0.820000,-2.410000,0.000000,0.000000,0.270000,1621670786025648576
232,36.000000,0.177472,120.000000,0.487480,180.890000,0.000000,4.000000,0.000000,-4.213000,4.170000,3.200000,-0.840000,-2.330000,0.000000,0.000000,0.290000,1621670786045868288
233,36.000000,0.177472,120.000000,0.487480,180.890000,-0.180000,4.000000,0.000000,-0.456000,-6.090000,-15.515000,-0.850000,-2.410000,0.000000,0.000000,0.330000,1621670786066019488
234,36.000000,0.177472,120.000000,0.487480,180.890000,0.120000,4.000000,0.010000,-2.078000,5.307000,4.146000,-0.900000,-2.380000,0.000000,0.000000,0.350000,1621670786085890528
235,36.000000,0.177472,120.000000,0.487480,180.890000,-0.120000,4.000000,0.010000,4.753000,7.656000,-6.488000,-0.920000,-2.380000,0.000000,0.000000,0.390000,1621670786105961824
236,36.000000,0.177472,120.000000,0.487480,180.890000,0.120000,4.000000,0.010000,-1.918000,6.954000,5.310000,-0.970000,-2.380000,0.000000,0.000000,0.350000,1621670786125882464
237,36.000000,0.177472,120.000000,0.487480,180.890000,-0.120000,4.000000,0.000000,3.343000,7.049000,-4.611000,-0.990000,-2.350000,0.000000,0.000000,0.380000,1621670786145866400
238,36.000000,0.177472,120.000000,0.487480,180.890000,0.000000,4.000000,0.000000,3.645000,-6.095000,-16.359000,-1.040000,-2.560000,0.000000,0.000000,0.370000,1621670786165843424
239,36.000000,0.177472,120.000000,0.487480,180.890000,-0.060000,4.000000,0.010000,2.273000,3.699000,-6.308000,-1.060000,-2.540000,0.000000,0.000000,0.350000,1621670786185881728
240,36.000000,0.177472,120.000000,0.487480,180.890000,0.000000,4.000000,0.010000,4.325000,-4.633000,-14.814000,-1.110000,-2.690000,0.000000,0.000000,0.330000,1621670786205801536
241,36.000000,0.177472,120.000000,0.487480,180.890000,-0.060000,4.000000,0.010000,-1.322000,0.284000,-6.453000,-1.140000,-2.670000,0.000000,0.000000,0.330000,1621670786225759904
242,36.000000,0.177472,120.000000,0.487480,180.890000,-0.070000,4.000000,0.020000,4.212000,-0.833000,-13.761000,-1.140000,-2.620000,0.000000,0.000000,0.310000,1621670786245893184
243,36.000000,0.177472,120.000000,0.487480,180.890000,-0.180000,4.000000,0.020000,-2.876000,-0.618000,-10.145000,-1.180000,-2.640000,0.000000,0.000000,0.280000,1621670786265725984
244,36.000000,0.177472,120.000000,0.487480,180.890000,0.060000,4.000000,0.000000,1.285000,1.294000,-8.778000,-1.150000,-2.650000,0.000000,0.000000,0.260000,1621670786285730144
245,36.000000,0.177472,120.000000,0.487480,180.890000,-0.240000,4.000000,0.000000,-3.112000,-3.129000,-11.654000,-1.110000,-2.690000,0.000000,0.000000,0.220000,1621670786305741664
246,36.000000,0.177472,120.000000,0.487480,180.890000,-0.060000,4.000000,0.000000,-0.523000,2.570000,-2.774000,-1.080000,-2.630000,0.000000,0.000000,0.220000,1621670786325721600
247,36.000000,0.177472,120.000000,0.487480,180.890000,-0.060000,4.000000,0.000000,-0.523000,2.570000,-2.774000,-1.080000,-2.630000,0.000000,0.000000,0.220000,1621670786346066560
248,36.000000,0.177472,120.000000,0.487480,180.890000,-0.060000,4.000000,0.000000,-0.523000,2.570000,-2.774000,-1.080000,-2.630000,0.000000,0.000000,0.220000,1621670786365897280
249,36.000000,0.177472,120.000000,0.487480,180.890000,-0.250000,4.000000,0.010000,4.557000,5.128000,-6.168000,-1.040000,-2.460000,0.000000,0.000000,0.150000,1621670786386040992
250,36.000000,0.177472,120.000000,0.487480,180.890000,-0.180000,4.000000,0.010000,-2.101000,-4.472000,-16.030000,-1.020000,-2.550000,0.000000,0.000000,0.200000,1621670786406051744
251,36.000000,0.177472,120.000000,0.487480,180.890000,-0.250000,4.000000,0.010000,-1.222000,1.823000,-7.648000,-1.070000,-2.620000,0.000000,0.000000,0.160000,1621670786426024576
252,36.000000,0.177472,120.000000,0.487480,180.890000,-0.240000,4.000000,0.020000,-2.958000,-3.216000,-16.450000,-1.090000,-2.620000,0.000000,0.000000,0.150000,1621670786445972768
253,36.000000,0.177472,120.000000,0.487480,180.890000,-0.060000,4.000000,0.020000,-2.223000,3.937000,-5.366000,-1.070000,-2.680000,0.000000,0.000000,0.170000,1621670786466087232
254,36.000000,0.177472,120.000000,0.487480,180.890000,0.000000,4.000000,0.020000,3.359000,4.748000,-4.955000,-1.090000,-2.650000,0.000000,0.000000,0.140000,1621670786486042816
255,36.000000,0.177472,120.000000,0.487480,180.890000,-0.250000,4.000000,0.010000,-4.240000,4.955000,-0.810000,-1.070000,-2.610000,0.000000,0.000000,0.120000,1621670786505975872
256,36.000000,0.177472,120.000000,0.487480,180.890000,0.050000,4.000000,0.010000,3.705000,4.123000,-5.513000,-1.060000,-2.580000,0.000000,0.000000,0.160000,1621670786525935168
257,36.000000,0.177472,120.000000,0.487480,180.890000,-0.250000,4.000000,0.010000,2.195000,-7.634000,-13.768000,-1.040000,-2.680000,0.000000,0.000000,0.080000,1621670786546264576
258,36.000000,0.177472,120.000000,0.487480,180.890000,0.180000,4.000000,0.010000,1.964000,3.038000,-5.207000,-1.030000,-2.650000,0.000000,0.000000,0.120000,1621670786565995488
259,36.000000,0.177472,120.000000,0.487480,180.890000,-0.310000,4.000000,0.010000,-0.454000,-8.889000,-10.905000,-0.970000,-2.580000,0.000000,0.000000,0.060000,1621670786585990432
260,36.000000,0.177472,120.000000,0.487480,180.890000,0.120000,4.000000,0.020000,-2.006000,0.900000,-6.407000,-0.940000,-2.560000,0.000000,0.000000,0.000000,1621670786606035744
261,36.000000,0.177472,120.000000,0.487480,180.890000,-0.120000,4.000000,0.020000,0.713000,-1.739000,-8.099000,-0.940000,-2.530000,0.000000,0.000000,-0.060000,1621670786625670720
262,36.000000,0.177472,120.000000,0.487480,180.890000,0.240000,4.000000,0.020000,3.236000,2.431000,-5.713000,-0.940000,-2.580000,0.000000,0.000000,-0.130000,1621670786645972352
263,36.000000,0.177472,120.000000,0.487480,180.890000,-0.010000,4.000000,0.020000,2.402000,-2.987000,-14.818000,-0.920000,-2.630000,0.000000,0.000000,-0.080000,1621670786666040672
264,36.000000,0.177472,120.000000,0.487480,180.890000,0.120000,4.000000,0.020000,0.883000,4.278000,0.302000,-0.870000,-2.650000,0.000000,0.000000,-0.210000,1621670786685983392
265,36.000000,0.177472,120.000000,0.487480,180.890000,-0.070000,4.000000,0.020000,-2.348000,-9.623000,-16.393000,-0.850000,-2.650000,0.000000,0.000000,-0.160000,1621670786706027488
266,36.000000,0.177472,120.000000,0.487480,180.890000,0.240000,4.000000,0.020000,-1.302000,7.825000,2.865000,-0.870000,-2.450000,0.000000,0.000000,-0.250000,1621670786726033792
267,36.000000,0.177472,120.000000,0.487480,180.890000,0.120000,4.000000,0.020000,-1.031000,-7.267000,-16.367000,-0.850000,-2.450000,0.000000,0.000000,-0.260000,1621670786746041728
268,36.000000,0.177472,120.000000,0.487480,180.890000,0.180000,4.000000,0.020000,-0.172000,2.743000,-1.431000,-0.840000,-2.520000,0.000000,0.000000,-0.340000,1621670786766035552
269,36.000000,0.177472,120.000000,0.487480,180.890000,0.060000,4.000000,0.020000,3.950000,-0.962000,-9.903000,-0.820000,-2.480000,0.000000,0.000000,-0.320000,1621670786786044256
270,36.000000,0.177472,120.000000,0.487480,180.890000,0.060000,4.000000,0.020000,2.899000,-5.379000,-9.877000,-0.840000,-2.510000,0.000000,0.000000,-0.340000,1621670786806090656
271,36.000000,0.177472,120.000000,0.487480,180.890000,-0.060000,4.000000,0.020000,0.737000,-6.002000,-16.336000,-0.850000,-2.610000,0.000000,0.000000,-0.360000,1621670786825931008
272,36.000000,0.177472,120.000000,0.487480,180.890000,-0.370000,4.000000,0.000000,-2.103000,-9.536000,-16.367000,-0.900000,-2.610000,0.000000,0.000000,-0.310000,1621670786846119968
273,36.000000,0.177472,120.000000,0.487480,180.890000,-0.250000,4.000000,0.000000,0.603000,-6.671000,-14.916000,-0.920000,-2.680000,0.000000,0.000000,-0.350000,1621670786865654208
274,36.000000,0.177472,120.000000,0.487480,180.890000,0.180000,4.000000,0.000000,1.896000,8.466000,0.205000,-0.930000,-2.570000,0.000000,0.000000,-0.330000,1621670786886266336
275,36.000000,0.177472,120.000000,0.487480,180.890000,-0.190000,4.000000,0.040000,5.249000,-3.002000,-10.952000,-0.950000,-2.600000,0.000000,0.010000,-0.320000,1621670786906047968
276,36.000000,0.177472,120.000000,0.487480,180.890000,0.000000,4.000000,0.040000,2.826000,1.294000,-5.071000,-0.940000,-2.560000,0.000000,0.010000,-0.290000,1621670786926078400
277,36.000000,0.177472,120.000000,0.487480,180.890000,0.120000,4.000000,0.020000,-1.700000,1.989000,-6.542000,-0.950000,-2.550000,0.000000,0.000000,-0.330000,1621670786946025376
278,36.000000,0.177472,120.000000,0.487480,180.890000,0.060000,4.000000,0.020000,-1.821000,-1.659000,-16.105000,-0.960000,-2.620000,0.000000,0.000000,-0.360000,1621670786966014784
279,36.000000,0.177472,120.000000,0.487480,180.890000,0.000000,4.000000,0.020000,1.348000,2.327000,-5.875000,-0.940000,-2.600000,0.000000,0.000000,-0.320000,1621670786985999104
280,36.000000,0.177472,120.000000,0.487480,180.890000,0.060000,4.000000,0.020000,-1.475000,-5.320000,-12.770000,-0.880000,-2.480000,0.000000,0.000000,-0.380000,1621670787006422368
281,36.000000,0.177472,120.000000,0.487480,180.890000,0.120000,4.000000,0.020000,3.178000,-2.270000,-13.046000,-0.840000,-2.540000,0.000000,0.000000,-0.390000,1621670787026045632
282,36.000000,0.177472,120.000000,0.487480,180.890000,0.060000,4.000000,0.010000,1.166000,-1.570000,-6.260000,-0.800000,-2.540000,0.000000,0.000000,-0.460000,1621670787045985568
283,36.000000,0.177472,120.000000,0.487480,180.890000,0.360000,4.000000,0.010000,0.377000,4.886000,0.189000,-0.800000,-2.460000,0.000000,0.000000,-0.420000,1621670787066058944
284,36.000000,0.177472,120.000000,0.487480,180.890000,-0.070000,4.000000,0.010000,-0.389000,1.447000,-2.530000,-0.800000,-2.450000,0.000000,0.000000,-0.420000,1621670787086171168
285,36.000000,0.177472,120.000000,0.487480,180.890000,0.180000,4.000000,0.010000,-0.249000,-0.325000,-14.403000,-0.780000,-2.520000,0.000000,0.000000,-0.410000,1621670787106251296
286,36.000000,0.177472,120.000000,0.487480,180.890000,0.000000,4.000000,0.010000,-0.136000,7.068000,1.472000,-0.780000,-2.410000,0.000000,0.000000,-0.440000,1621670787125979168
287,36.000000,0.177472,120.000000,0.487480,180.890000,0.060000,4.000000,0.050000,-0.051000,-8.229000,-15.293000,-0.740000,-2.490000,0.000000,0.010000,-0.420000,1621670787146148896
288,36.000000,0.177472,120.000000,0.487480,180.890000,0.370000,4.000000,0.050000,1.882000,4.731000,-2.403000,-0.720000,-2.520000,0.000000,0.010000,-0.470000,1621670787166085888
289,36.000000,0.177472,120.000000,0.487480,180.890000,-0.110000,4.000000,0.050000,-0.658000,2.802000,-6.622000,-0.650000,-2.430000,0.000000,0.010000,-0.480000,1621670787186119168
290,36.000000,0.177472,120.000000,0.487480,180.890000,0.130000,4.000000,0.050000,2.203000,-0.574000,-8.787000,-0.630000,-2.510000,0.000000,0.010000,-0.510000,1621670787206039296
291,36.000000,0.177472,120.000000,0.487480,180.890000,0.200000,4.000000,0.050000,-0.178000,-0.483000,-0.223000,-0.540000,-2.530000,0.000000,0.050000,-0.590000,1621670787226013952
292,36.000000,0.177472,120.000000,0.487480,180.890000,0.200000,4.000000,0.080000,1.757000,-0.549000,-8.875000,-0.510000,-2.460000,0.000000,0.050000,-0.600000,1621670787246051808
293,36.000000,0.177472,120.000000,0.487480,180.890000,0.130000,4.000000,0.080000,-0.784000,-0.295000,-5.427000,-0.410000,-2.480000,0.000000,0.100000,-0.640000,1621670787266054752
294,36.000000,0.177472,120.000000,0.487480,180.890000,0.070000,4.000000,0.080000,-0.339000,-2.542000,-13.260000,-0.380000,-2.510000,0.000000,0.080000,-0.590000,1621670787286066496
295,36.000000,0.177471,120.000000,0.487480,180.860000,0.500000,4.000000,0.140000,3.574000,-0.123000,-7.269000,-0.300000,-2.530000,0.000000,0.150000,-0.600000,1621670787306169632
296,36.000000,0.177471,120.000000,0.487480,180.840000,0.130000,4.000000,0.140000,2.095000,6.259000,-1.747000,-0.270000,-2.520000,0.000000,0.210000,-0.580000,1621670787325738912
297,36.000000,0.177471,120.000000,0.487480,180.910000,0.300000,4.000000,0.230000,4.474000,-3.974000,-6.289000,-0.220000,-2.570000,-0.010000,0.240000,-0.530000,1621670787346026816
298,36.000000,0.177471,120.000000,0.487480,180.960000,0.050000,4.000000,0.230000,-0.319000,-2.022000,-7.775000,-0.210000,-2.540000,-0.010000,0.240000,-0.510000,1621670787366028608
299,36.000000,0.177471,120.000000,0.487480,180.990000,0.410000,4.000000,0.320000,-0.390000,1.303000,-7.282000,-0.210000,-2.590000,-0.010000,0.250000,-0.460000,1621670787385997248
300,36.000000,0.177471,120.000000,0.487480,181.020000,0.410000,4.000000,0.320000,2.216000,-2.027000,-10.859000,-0.210000,-2.610000,-0.010000,0.280000,-0.430000,1621670787406036128
301,36.000000,0.177471,120.000000,0.487480,181.050000,0.350000,4.000000,0.320000,-2.630000,-6.608000,-8.680000,-0.190000,-2.590000,-0.010000,0.250000,-0.410000,1621670787426049440
302,36.000000,0.177471,120.000000,0.487480,181.070000,0.650000,4.000000,0.440000,3.327000,-4.467000,-9.566000,-0.190000,-2.610000,-0.010000,0.320000,-0.380000,1621670787446040448
303,36.000000,0.177471,120.000000,0.487480,181.110000,0.540000,4.000000,0.440000,0.784000,-5.926000,-10.298000,-0.160000,-2.590000,-0.010000,0.380000,-0.280000,1621670787466129184
304,36.000000,0.177471,120.000000,0.487480,181.130000,0.790000,4.000000,0.530000,-0.393000,-5.525000,-16.361000,-0.140000,-2.670000,-0.010000,0.390000,-0.240000,1621670787486003424
305,36.000000,0.177471,120.000000,0.487480,181.140000,0.850000,4.000000,0.530000,0.310000,5.488000,-3.238000,-0.160000,-2.670000,-0.010000,0.500000,-0.240000,1621670787506267968
306,36.000000,0.177471,120.000000,0.487480,181.130000,0.430000,4.000000,0.530000,-2.105000,-9.659000,-16.359000,-0.180000,-2.750000,-0.010000,0.490000,-0.180000,1621670787525964864
307,36.000000,0.177470,120.000000,0.487480,181.150000,0.920000,4.000000,0.540000,2.044000,-3.655000,-16.358000,-0.220000,-2.750000,-0.010000,0.520000,-0.270000,1621670787545937472
308,36.000000,0.177470,120.000000,0.487480,181.180000,0.910000,4.000000,0.540000,4.728000,-4.077000,-12.503000,-0.260000,-2.780000,-0.010000,0.560000,-0.220000,1621670787565897152
309,36.000000,0.177470,120.000000,0.487480,181.200000,0.180000,4.000000,0.540000,-3.145000,15.686000,10.720000,-0.280000,-2.600000,-0.010000,0.570000,-0.200000,1621670787585838048
310,36.000000,0.177470,120.000000,0.487480,181.230000,0.650000,4.000000,0.580000,1.556000,6.141000,-3.075000,-0.340000,-2.450000,-0.010000,0.560000,-0.030000,1621670787605796128
311,36.000000,0.177470,120.000000,0.487480,181.250000,0.650000,4.000000,0.580000,2.614000,15.300000,7.060000,-0.370000,-2.390000,-0.010000,0.590000,-0.050000,1621670787625659328
312,36.000000,0.177470,120.000000,0.487480,181.270000,0.460000,4.000000,0.600000,-3.738000,15.553000,11.033000,-0.450000,-2.300000,-0.010000,0.540000,0.110000,1621670787645853728
313,36.000000,0.177470,120.000000,0.487480,181.270000,1.120000,4.000000,0.600000,1.071000,13.571000,7.921000,-0.480000,-2.150000,-0.010000,0.590000,0.020000,1621670787665851360
314,36.000000,0.177470,120.000000,0.487480,181.300000,0.100000,4.000000,0.610000,-1.789000,-13.212000,-16.422000,-0.500000,-2.340000,-0.010000,0.580000,0.180000,1621670787685817376
315,36.000000,0.177470,120.000000,0.487480,181.290000,0.770000,4.000000,0.610000,1.039000,11.647000,-2.216000,-0.520000,-2.350000,-0.010000,0.580000,0.110000,1621670787705770464
316,36.000000,0.177470,120.000000,0.487480,181.300000,0.540000,4.000000,0.610000,-1.619000,0.849000,-11.901000,-0.560000,-2.520000,-0.010000,0.610000,0.170000,1621670787725776384
317,36.000000,0.177469,120.000000,0.487480,181.300000,0.790000,4.000000,0.640000,1.673000,4.542000,-3.165000,-0.580000,-2.510000,-0.010000,0.630000,0.130000,1621670787745696928
318,36.000000,0.177469,120.000000,0.487480,181.330000,0.620000,4.000000,0.640000,2.645000,-1.983000,-14.521000,-0.630000,-2.510000,-0.020000,0.610000,0.170000,1621670787765965664
319,36.000000,0.177469,120.000000,0.487480,181.350000,0.550000,4.000000,0.640000,4.508000,7.105000,-4.226000,-0.640000,-2.540000,-0.020000,0.670000,0.140000,1621670787786072352
320,36.000000,0.177469,120.000000,0.487480,181.350000,0.440000,4.000000,0.570000,0.674000,-8.931000,-13.785000,-0.670000,-2.490000,-0.020000,0.580000,0.140000,1621670787805996096
321,36.000000,0.177469,120.000000,0.487480,181.350000,0.500000,4.000000,0.570000,-0.279000,-1.082000,-9.753000,-0.650000,-2.560000,-0.020000,0.580000,0.100000,1621670787826115904
322,36.000000,0.177469,120.000000,0.487480,181.340000,0.620000,4.000000,0.560000,-0.449000,-10.927000,-2.623000,-0.650000,-2.490000,-0.020000,0.550000,0.130000,1621670787845972960
323,36.000000,0.177469,120.000000,0.487480,181.340000,0.670000,4.000000,0.560000,0.395000,-2.637000,-10.909000,-0.650000,-2.470000,-0.020000,0.550000,0.140000,1621670787866058112
324,36.000000,0.177469,120.000000,0.487480,181.330000,0.490000,4.000000,0.580000,-1.385000,1.612000,-6.563000,-0.610000,-2.470000,-0.020000,0.580000,0.190000,1621670787886426880
325,36.000000,0.177469,120.000000,0.487480,181.340000,0.720000,4.000000,0.580000,2.371000,-7.114000,-10.400000,-0.600000,-2.480000,-0.020000,0.580000,0.180000,1621670787905732416
326,36.000000,0.177468,120.000000,0.487480,181.350000,0.350000,4.000000,0.580000,-0.436000,6.874000,1.791000,-0.650000,-2.390000,-0.020000,0.580000,0.240000,1621670787925983328
327,36.000000,0.177468,120.000000,0.487480,181.380000,0.890000,4.000000,0.630000,-1.958000,-8.702000,-16.446000,-0.690000,-2.400000,-0.020000,0.570000,0.250000,1621670787945930048
328,36.000000,0.177468,120.000000,0.487480,181.400000,0.460000,4.000000,0.630000,0.402000,9.139000,5.220000,-0.750000,-2.280000,-0.020000,0.590000,0.200000,1621670787965922592
329,36.000000,0.177468,120.000000,0.487480,181.460000,0.830000,4.000000,0.630000,-2.898000,-8.687000,-16.452000,-0.760000,-2.370000,-0.020000,0.590000,0.150000,1621670787985852992
330,36.000000,0.177468,120.000000,0.487480,181.490000,0.770000,4.000000,0.650000,-0.500000,1.125000,-10.298000,-0.750000,-2.380000,-0.020000,0.610000,0.130000,1621670788005869504
331,36.000000,0.177468,120.000000,0.487480,181.500000,0.660000,4.000000,0.650000,-0.513000,0.797000,-7.261000,-0.730000,-2.420000,-0.020000,0.640000,0.120000,1621670788025817760
332,36.000000,0.177468,120.000000,0.487480,181.510000,0.780000,4.000000,0.600000,-2.306000,4.904000,-2.350000,-0.740000,-2.460000,-0.020000,0.650000,0.070000,1621670788045810496
333,36.000000,0.177468,120.000000,0.487480,181.530000,0.430000,4.000000,0.600000,-2.005000,0.008000,-3.405000,-0.770000,-2.440000,-0.020000,0.590000,0.040000,1621670788065808896
334,36.000000,0.177468,120.000000,0.487480,181.530000,0.670000,4.000000,0.600000,1.496000,3.673000,0.149000,-0.740000,-2.450000,-0.020000,0.580000,0.000000,1621670788085835808
335,36.000000,0.177467,120.000000,0.487480,181.540000,0.560000,4.000000,0.600000,-1.973000,6.113000,-0.280000,-0.750000,-2.400000,-0.020000,0.590000,0.030000,1621670788105747808
336,36.000000,0.177467,120.000000,0.487480,181.540000,0.620000,4.000000,0.600000,2.942000,2.006000,-8.564000,-0.730000,-2.490000,-0.020000,0.620000,0.010000,1621670788125742560
