frame,pgsnh,gpsnl,gpseh,gpsel,heading_angle,yaw_rate,gps_state,gps_velocity,acceleration_forward,acceleration_lateral,acceleration_down,pitch_angle,velocity_down,velocity_lateral,velocity_forward,roll_angle,timestamp
1,36.000000,0.177732,120.000000,0.487753,180.540000,0.070000,4.000000,0.000000,3.879000,5.265000,-13.796000,-1.070000,-2.810000,0.000000,0.000000,2.470000,1621678972161468562
2,36.000000,0.177732,120.000000,0.487753,180.540000,-0.400000,4.000000,0.020000,-1.152000,-3.531000,-18.200000,-1.090000,-2.810000,0.000000,0.000000,2.460000,1621678972181470398
3,36.000000,0.177732,120.000000,0.487753,180.540000,0.090000,4.000000,0.020000,-1.767000,-9.823000,-15.395000,-1.050000,-3.040000,0.000000,0.000000,2.430000,1621678972204658927
4,36.000000,0.177732,120.000000,0.487753,180.540000,-0.220000,4.000000,0.020000,-3.304000,4.361000,-1.440000,-1.100000,-3.100000,0.000000,0.000000,2.390000,1621678972220535561
5,36.000000,0.177732,120.000000,0.487753,180.540000,0.260000,4.000000,0.020000,4.741000,5.501000,-3.678000,-1.090000,-2.970000,0.000000,0.000000,2.370000,1621678972240790352
6,36.000000,0.177732,120.000000,0.487753,180.540000,-0.030000,4.000000,0.020000,-0.729000,6.200000,-3.885000,-1.100000,-3.020000,0.000000,0.000000,2.330000,1621678972260807708
7,36.000000,0.177732,120.000000,0.487753,180.540000,0.260000,4.000000,0.020000,1.678000,2.486000,-2.803000,-1.090000,-2.960000,0.000000,0.000000,2.310000,1621678972280847336
8,36.000000,0.177732,120.000000,0.487753,180.540000,-0.150000,4.000000,0.020000,3.232000,-5.958000,-19.698000,-1.070000,-3.060000,0.000000,0.000000,2.260000,1621678972300687800
9,36.000000,0.177732,120.000000,0.487753,180.540000,0.310000,4.000000,0.020000,2.049000,0.630000,-9.445000,-1.050000,-3.060000,0.000000,0.000000,2.250000,1621678972321040606
10,36.000000,0.177732,120.000000,0.487753,180.540000,0.310000,4.000000,0.020000,-3.743000,6.108000,1.017000,-1.090000,-2.860000,0.000000,0.000000,2.130000,1621678972340708048
11,36.000000,0.177732,120.000000,0.487753,180.540000,0.430000,4.000000,0.020000,-3.474000,5.862000,3.471000,-1.040000,-2.870000,0.000000,0.000000,2.030000,1621678972360686141
12,36.000000,0.177732,120.000000,0.487753,180.540000,-0.460000,4.000000,0.020000,3.315000,6.282000,-5.233000,-1.020000,-2.840000,0.000000,0.000000,2.060000,1621678972380716521
13,36.000000,0.177732,120.000000,0.487753,180.540000,-0.110000,4.000000,0.080000,-0.537000,7.872000,6.081000,-1.000000,-2.860000,0.000000,0.030000,2.000000,1621678972400735829
14,36.000000,0.177732,120.000000,0.487753,180.540000,-0.090000,4.000000,0.080000,0.235000,3.661000,-4.545000,-0.980000,-2.820000,0.000000,0.050000,1.980000,1621678972420652707
15,36.000000,0.177732,120.000000,0.487753,180.540000,-0.090000,4.000000,0.000000,-1.263000,2.583000,-14.082000,-0.980000,-2.920000,0.000000,0.000000,1.890000,1621678972440704239
16,36.000000,0.177732,120.000000,0.487753,180.540000,-0.160000,4.000000,0.000000,-5.474000,0.416000,-4.706000,-1.030000,-2.860000,0.000000,0.000000,1.800000,1621678972460700411
17,36.000000,0.177732,120.000000,0.487753,180.540000,0.370000,4.000000,0.000000,-1.407000,-9.296000,2.667000,-1.050000,-2.860000,0.000000,0.000000,1.750000,1621678972480867269
18,36.000000,0.177732,120.000000,0.487753,180.540000,-0.030000,4.000000,0.020000,-8.641000,-0.291000,1.500000,-1.100000,-2.670000,0.000000,0.000000,1.660000,1621678972500651285
19,36.000000,0.177732,120.000000,0.487753,180.540000,0.070000,4.000000,0.020000,8.861000,12.173000,-0.507000,-1.120000,-2.600000,0.000000,0.000000,1.620000,1621678972521993001
20,36.000000,0.177732,120.000000,0.487753,180.540000,0.070000,4.000000,0.020000,4.796000,1.069000,-15.770000,-1.160000,-2.750000,0.000000,0.000000,1.520000,1621678972538643571
21,36.000000,0.177732,120.000000,0.487753,180.540000,0.130000,4.000000,0.020000,3.316000,3.430000,-10.555000,-1.210000,-2.770000,0.000000,0.000000,1.480000,1621678972560712026
22,36.000000,0.177732,120.000000,0.487753,180.540000,-0.290000,4.000000,0.020000,-4.638000,-4.867000,-18.526000,-1.230000,-2.790000,0.000000,0.000000,1.480000,1621678972580798788
23,36.000000,0.177732,120.000000,0.487753,180.540000,0.250000,4.000000,0.020000,2.689000,4.367000,-5.527000,-1.280000,-2.850000,0.000000,0.000000,1.380000,1621678972600719282
24,36.000000,0.177732,120.000000,0.487753,180.540000,-0.220000,4.000000,0.020000,1.047000,7.011000,-4.476000,-1.300000,-2.780000,0.000000,0.000000,1.340000,1621678972621372947
25,36.000000,0.177732,120.000000,0.487753,180.540000,0.190000,4.000000,0.050000,1.094000,5.903000,-1.579000,-1.280000,-2.850000,0.000000,0.040000,1.240000,1621678972640766698
26,36.000000,0.177732,120.000000,0.487753,180.540000,-0.030000,4.000000,0.050000,4.487000,9.889000,-9.437000,-1.240000,-2.860000,0.000000,0.070000,1.240000,1621678972660682809
27,36.000000,0.177732,120.000000,0.487753,180.540000,-0.170000,4.000000,0.010000,0.190000,-3.615000,-18.078000,-1.210000,-3.020000,0.000000,0.000000,1.210000,1621678972680603014
28,36.000000,0.177732,120.000000,0.487753,180.540000,-0.090000,4.000000,0.010000,5.545000,11.862000,-8.883000,-1.170000,-3.020000,0.000000,0.000000,1.150000,1621678972700748240
29,36.000000,0.177732,120.000000,0.487753,180.540000,-0.110000,4.000000,0.010000,0.693000,-7.817000,-15.426000,-1.140000,-3.200000,0.000000,0.000000,1.180000,1621678972720698366
30,36.000000,0.177732,120.000000,0.487753,180.540000,-0.110000,4.000000,0.010000,0.693000,-7.817000,-15.426000,-1.140000,-3.200000,0.000000,0.000000,1.180000,1621678972741138466
31,36.000000,0.177732,120.000000,0.487753,180.540000,0.560000,4.000000,0.020000,-2.795000,5.813000,6.674000,-1.080000,-3.060000,0.000000,0.000000,1.120000,1621678972760603480
32,36.000000,0.177732,120.000000,0.487753,180.540000,-0.160000,4.000000,0.020000,1.021000,2.437000,-1.216000,-1.030000,-3.010000,0.000000,0.000000,1.090000,1621678972780592549
33,36.000000,0.177732,120.000000,0.487753,180.540000,0.440000,4.000000,0.020000,2.165000,8.506000,2.406000,-1.020000,-2.920000,0.000000,0.000000,1.040000,1621678972800640049
34,36.000000,0.177732,120.000000,0.487753,180.540000,0.210000,4.000000,0.020000,-2.727000,-3.909000,-3.171000,-0.960000,-2.900000,0.000000,0.000000,1.040000,1621678972820620862
35,36.000000,0.177732,120.000000,0.487753,180.540000,0.500000,4.000000,0.020000,5.291000,9.510000,-1.018000,-0.950000,-2.910000,0.000000,0.000000,1.000000,1621678972840654985
36,36.000000,0.177732,120.000000,0.487753,180.540000,0.090000,4.000000,0.020000,-0.838000,-7.081000,-16.514000,-0.900000,-3.000000,0.000000,0.000000,1.040000,1621678972860684405
37,36.000000,0.177732,120.000000,0.487753,180.540000,0.380000,4.000000,0.020000,6.315000,5.597000,-3.010000,-0.880000,-3.000000,0.000000,0.000000,1.010000,1621678972880609251
38,36.000000,0.177732,120.000000,0.487753,180.540000,0.030000,4.000000,0.010000,0.042000,-8.652000,-14.996000,-0.830000,-2.950000,0.000000,0.000000,1.030000,1621678972900699918
39,36.000000,0.177732,120.000000,0.487753,180.540000,0.320000,4.000000,0.010000,2.974000,3.309000,-4.537000,-0.810000,-2.910000,0.000000,0.000000,1.000000,1621678972920912535
40,36.000000,0.177732,120.000000,0.487753,180.540000,0.030000,4.000000,0.010000,-0.829000,-7.004000,-14.980000,-0.820000,-2.890000,0.000000,0.000000,0.950000,1621678972942646883
41,36.000000,0.177732,120.000000,0.487753,180.540000,-0.220000,4.000000,0.010000,0.884000,-0.596000,-6.795000,-0.810000,-2.870000,0.000000,0.000000,0.930000,1621678972960747731
42,36.000000,0.177732,120.000000,0.487753,180.540000,0.030000,4.000000,0.000000,0.159000,-2.875000,-13.896000,-0.750000,-3.000000,0.000000,0.000000,0.910000,1621678972980760095
43,36.000000,0.177732,120.000000,0.487753,180.540000,-0.230000,4.000000,0.000000,-0.716000,-2.415000,-10.531000,-0.740000,-3.010000,0.000000,0.000000,0.900000,1621678973000605582
44,36.000000,0.177732,120.000000,0.487753,180.540000,-0.090000,4.000000,0.000000,0.418000,-0.591000,-14.348000,-0.680000,-3.080000,0.000000,0.000000,0.940000,1621678973020924055
45,36.000000,0.177732,120.000000,0.487753,180.540000,-0.170000,4.000000,0.000000,-0.937000,6.770000,6.244000,-0.660000,-2.970000,0.000000,0.000000,0.880000,1621678973042922432
46,36.000000,0.177732,120.000000,0.487753,180.540000,0.790000,4.000000,0.000000,0.958000,2.216000,-14.309000,-0.460000,-3.070000,0.000000,0.000000,0.970000,1621678973060896820
47,36.000000,0.177732,120.000000,0.487753,180.540000,-0.050000,4.000000,0.020000,-1.731000,7.404000,6.154000,-0.440000,-2.920000,0.000000,0.000000,0.910000,1621678973080834980
48,36.000000,0.177732,120.000000,0.487753,180.540000,0.140000,4.000000,0.020000,-0.137000,-3.975000,-17.356000,-0.390000,-2.970000,0.000000,0.000000,0.970000,1621678973100720149
49,36.000000,0.177732,120.000000,0.487753,180.540000,0.440000,4.000000,0.020000,0.927000,9.966000,2.930000,-0.360000,-2.850000,0.000000,0.000000,0.890000,1621678973120868929
50,36.000000,0.177732,120.000000,0.487753,180.540000,0.210000,4.000000,0.020000,0.413000,-5.264000,-17.494000,-0.320000,-2.920000,0.000000,0.000000,0.960000,1621678973140968493
51,36.000000,0.177732,120.000000,0.487753,180.540000,0.010000,4.000000,0.020000,4.422000,9.378000,2.188000,-0.290000,-2.810000,0.000000,0.000000,0.920000,1621678973160908253
52,36.000000,0.177732,120.000000,0.487753,180.540000,0.090000,4.000000,0.010000,-0.280000,-8.756000,-17.397000,-0.250000,-2.850000,0.000000,0.000000,0.990000,1621678973180810350
53,36.000000,0.177732,120.000000,0.487753,180.540000,-0.410000,4.000000,0.010000,5.422000,7.279000,0.468000,-0.220000,-2.760000,0.000000,0.000000,1.000000,1621678973200988697
54,36.000000,0.177732,120.000000,0.487753,180.540000,0.020000,4.000000,0.010000,-0.228000,-8.611000,-17.426000,-0.190000,-2.780000,0.000000,0.000000,1.060000,1621678973224692899
55,36.000000,0.177732,120.000000,0.487753,180.540000,-0.350000,4.000000,0.020000,5.252000,8.361000,-1.125000,-0.150000,-2.710000,0.000000,0.000000,1.070000,1621678973239900618
56,36.000000,0.177732,120.000000,0.487753,180.540000,-0.160000,4.000000,0.020000,-4.422000,1.446000,0.369000,-0.130000,-2.690000,0.000000,0.000000,1.090000,1621678973259988343
57,36.000000,0.177732,120.000000,0.487753,180.540000,-0.030000,4.000000,0.020000,-1.459000,-8.881000,-16.065000,-0.110000,-2.760000,0.000000,0.000000,1.130000,1621678973279843913
58,36.000000,0.177732,120.000000,0.487753,180.540000,-0.160000,4.000000,0.000000,0.388000,5.081000,-5.889000,-0.130000,-2.800000,0.000000,0.000000,1.140000,1621678973299700506
59,36.000000,0.177732,120.000000,0.487753,180.540000,-0.290000,4.000000,0.000000,1.385000,5.915000,-0.985000,-0.120000,-2.770000,0.000000,0.000000,1.160000,1621678973319847718
60,36.000000,0.177732,120.000000,0.487753,180.540000,0.200000,4.000000,0.010000,-0.877000,-1.517000,-17.191000,-0.130000,-2.940000,0.000000,0.000000,1.210000,1621678973339741590
61,36.000000,0.177732,120.000000,0.487753,180.540000,0.370000,4.000000,0.010000,-0.768000,6.784000,2.705000,-0.140000,-2.810000,0.000000,0.000000,1.190000,1621678973362378964
62,36.000000,0.177732,120.000000,0.487753,180.540000,0.430000,4.000000,0.020000,-4.301000,4.466000,6.994000,-0.170000,-2.720000,0.000000,0.000000,1.310000,1621678973383917638
63,36.000000,0.177732,120.000000,0.487753,180.540000,0.430000,4.000000,0.020000,-4.301000,4.466000,6.994000,-0.170000,-2.720000,0.000000,0.000000,1.310000,1621678973399917695
64,36.000000,0.177732,120.000000,0.487753,180.540000,0.150000,4.000000,0.020000,2.385000,0.310000,-16.964000,-0.190000,-2.850000,0.000000,0.000000,1.370000,1621678973420285767
65,36.000000,0.177732,120.000000,0.487753,180.540000,0.330000,4.000000,0.020000,-3.705000,6.276000,5.776000,-0.200000,-2.780000,0.000000,0.000000,1.380000,1621678973440110233
66,36.000000,0.177732,120.000000,0.487753,180.540000,0.210000,4.000000,0.020000,1.270000,-2.179000,-16.471000,-0.220000,-2.890000,0.000000,0.000000,1.490000,1621678973460080456
67,36.000000,0.177732,120.000000,0.487753,180.540000,0.380000,4.000000,0.020000,-0.460000,9.522000,6.253000,-0.220000,-2.820000,0.000000,0.000000,1.490000,1621678973480115446
68,36.000000,0.177732,120.000000,0.487753,180.540000,0.000000,4.000000,0.020000,-1.049000,-6.366000,-16.695000,-0.220000,-2.750000,0.000000,0.000000,1.520000,1621678973499867753
69,36.000000,0.177732,120.000000,0.487753,180.540000,-0.620000,4.000000,0.020000,3.661000,9.059000,6.103000,-0.260000,-2.610000,0.000000,0.000000,1.530000,1621678973520359311
70,36.000000,0.177732,120.000000,0.487753,180.540000,0.070000,4.000000,0.010000,-1.005000,-8.113000,-17.073000,-0.250000,-2.590000,0.000000,0.000000,1.490000,1621678973540136033
71,36.000000,0.177732,120.000000,0.487753,180.540000,-0.450000,4.000000,0.010000,1.315000,-4.733000,-13.132000,-0.290000,-2.640000,0.000000,0.000000,1.500000,1621678973560179407
72,36.000000,0.177732,120.000000,0.487753,180.540000,0.060000,4.000000,0.020000,-1.625000,-12.064000,-17.084000,-0.320000,-2.610000,0.000000,0.000000,1.560000,1621678973579848708
73,36.000000,0.177732,120.000000,0.487753,180.540000,-0.450000,4.000000,0.020000,1.821000,-2.129000,-10.594000,-0.360000,-2.630000,0.000000,0.000000,1.620000,1621678973599870610
74,36.000000,0.177732,120.000000,0.487753,180.540000,0.420000,4.000000,0.020000,3.782000,9.850000,2.073000,-0.360000,-2.460000,0.000000,0.000000,1.660000,1621678973619977055
75,36.000000,0.177732,120.000000,0.487753,180.540000,-0.400000,4.000000,0.000000,2.608000,1.391000,-8.483000,-0.400000,-2.470000,0.000000,0.000000,1.720000,1621678973640039340
76,36.000000,0.177732,120.000000,0.487753,180.540000,-0.070000,4.000000,0.000000,-4.823000,3.907000,4.096000,-0.410000,-2.440000,0.000000,0.000000,1.730000,1621678973659862110
77,36.000000,0.177732,120.000000,0.487753,180.540000,-0.440000,4.000000,0.020000,1.809000,3.677000,-7.374000,-0.460000,-2.400000,0.000000,0.000000,1.770000,1621678973682914516
78,36.000000,0.177732,120.000000,0.487753,180.540000,-0.110000,4.000000,0.020000,1.236000,-12.982000,-17.002000,-0.480000,-2.580000,0.000000,0.000000,1.810000,1621678973700938567
79,36.000000,0.177732,120.000000,0.487753,180.540000,-0.370000,4.000000,0.020000,-0.330000,-5.425000,-16.695000,-0.520000,-2.540000,0.000000,0.000000,1.780000,1621678973720865335
80,36.000000,0.177732,120.000000,0.487753,180.540000,0.140000,4.000000,0.010000,-0.324000,-5.410000,-16.645000,-0.550000,-2.710000,0.000000,0.000000,1.830000,1621678973740956868
81,36.000000,0.177732,120.000000,0.487753,180.540000,0.220000,4.000000,0.010000,1.939000,10.977000,-6.939000,-0.590000,-2.700000,0.000000,0.000000,1.810000,1621678973760895252
82,36.000000,0.177732,120.000000,0.487753,180.540000,0.170000,4.000000,0.020000,1.621000,-7.239000,-16.539000,-0.620000,-2.700000,0.000000,0.000000,1.850000,1621678973780871267
83,36.000000,0.177732,120.000000,0.487753,180.540000,0.250000,4.000000,0.020000,1.211000,11.156000,-3.247000,-0.660000,-2.680000,0.000000,0.000000,1.780000,1621678973800731796
84,36.000000,0.177732,120.000000,0.487753,180.540000,0.140000,4.000000,0.020000,1.431000,-6.577000,-16.378000,-0.640000,-2.690000,0.000000,0.000000,1.830000,1621678973820860033
85,36.000000,0.177732,120.000000,0.487753,180.540000,0.130000,4.000000,0.010000,0.704000,-4.130000,-16.227000,-0.620000,-2.800000,0.000000,0.000000,1.830000,1621678973841267656
86,36.000000,0.177732,120.000000,0.487753,180.540000,0.490000,4.000000,0.010000,2.685000,3.244000,-11.862000,-0.570000,-2.840000,0.000000,0.000000,1.760000,1621678973860927965
87,36.000000,0.177732,120.000000,0.487753,180.540000,-0.050000,4.000000,0.010000,0.128000,-4.080000,-16.070000,-0.550000,-2.910000,0.000000,0.000000,1.740000,1621678973878978319
88,36.000000,0.177732,120.000000,0.487753,180.540000,0.360000,4.000000,0.020000,-2.507000,8.364000,2.958000,-0.490000,-2.810000,0.000000,0.000000,1.670000,1621678973901044440
89,36.000000,0.177732,120.000000,0.487753,180.540000,0.330000,4.000000,0.020000,-0.908000,7.096000,5.581000,-0.420000,-2.750000,0.000000,0.000000,1.610000,1621678973943578534
90,36.000000,0.177732,120.000000,0.487753,180.540000,0.330000,4.000000,0.020000,-0.908000,7.096000,5.581000,-0.420000,-2.750000,0.000000,0.000000,1.610000,1621678973945477955
91,36.000000,0.177732,120.000000,0.487753,180.540000,-0.340000,4.000000,0.020000,-0.462000,-8.664000,-15.046000,-0.400000,-2.810000,0.000000,0.000000,1.640000,1621678973961654808
92,36.000000,0.177732,120.000000,0.487753,180.540000,0.120000,4.000000,0.050000,-0.274000,7.336000,6.790000,-0.350000,-2.630000,0.000000,0.020000,1.610000,1621678973979710283
93,36.000000,0.177732,120.000000,0.487753,180.540000,-0.120000,4.000000,0.050000,-1.374000,-9.560000,-14.585000,-0.340000,-2.690000,0.000000,0.020000,1.640000,1621678973999642811
94,36.000000,0.177732,120.000000,0.487753,180.540000,0.000000,4.000000,0.050000,-2.932000,-8.238000,-14.260000,-0.300000,-2.630000,0.000000,0.020000,1.660000,1621678974021716645
95,36.000000,0.177732,120.000000,0.487753,180.540000,0.270000,4.000000,0.050000,1.539000,7.665000,7.037000,-0.290000,-2.630000,0.000000,0.020000,1.600000,1621678974039601692
96,36.000000,0.177732,120.000000,0.487753,180.540000,0.050000,4.000000,0.010000,-3.504000,-8.756000,-15.956000,-0.230000,-2.560000,0.000000,0.000000,1.640000,1621678974061400236
97,36.000000,0.177732,120.000000,0.487753,180.540000,0.000000,4.000000,0.050000,0.440000,-9.284000,-4.317000,-0.200000,-2.400000,0.000000,0.000000,1.580000,1621678974081486011
98,36.000000,0.177732,120.000000,0.487753,180.540000,0.060000,4.000000,0.050000,-1.045000,-11.412000,-15.539000,-0.160000,-2.420000,0.000000,0.000000,1.640000,1621678974101593994
99,36.000000,0.177732,120.000000,0.487753,180.540000,0.060000,4.000000,0.050000,-4.929000,-3.571000,-4.400000,-0.130000,-2.260000,0.000000,0.010000,1.640000,1621678974121708313
100,36.000000,0.177732,120.000000,0.487753,180.540000,0.100000,4.000000,0.020000,-3.841000,1.075000,1.901000,-0.170000,-2.090000,0.000000,0.000000,1.590000,1621678974139539729
101,36.000000,0.177732,120.000000,0.487753,180.540000,0.010000,4.000000,0.020000,-1.720000,3.911000,0.371000,-0.220000,-2.080000,0.000000,0.000000,1.610000,1621678974161596348
102,36.000000,0.177732,120.000000,0.487753,180.540000,0.020000,4.000000,0.020000,0.033000,-10.421000,-16.454000,-0.240000,-2.170000,0.000000,0.000000,1.670000,1621678974181582093
103,36.000000,0.177732,120.000000,0.487753,180.540000,-0.230000,4.000000,0.020000,-3.350000,-3.518000,-11.753000,-0.260000,-2.310000,0.000000,0.000000,1.660000,1621678974201584702
104,36.000000,0.177732,120.000000,0.487753,180.540000,0.140000,4.000000,0.020000,0.440000,0.960000,-7.281000,-0.320000,-2.190000,0.000000,0.000000,1.640000,1621678974225666980
105,36.000000,0.177732,120.000000,0.487753,180.540000,-0.310000,4.000000,0.020000,-2.844000,-2.622000,-13.360000,-0.340000,-2.260000,0.000000,0.000000,1.690000,1621678974240673456
106,36.000000,0.177732,120.000000,0.487753,180.540000,0.130000,4.000000,0.020000,0.434000,3.517000,-7.050000,-0.390000,-2.200000,0.000000,0.000000,1.690000,1621678974260699041
107,36.000000,0.177732,120.000000,0.487753,180.540000,-0.010000,4.000000,0.050000,-0.322000,-1.556000,-15.317000,-0.410000,-2.290000,0.000000,0.000000,1.670000,1621678974280712849
108,36.000000,0.177732,120.000000,0.487753,180.540000,0.130000,4.000000,0.050000,2.447000,4.394000,-4.912000,-0.460000,-2.350000,0.000000,0.010000,1.650000,1621678974300737505
109,36.000000,0.177732,120.000000,0.487753,180.540000,0.130000,4.000000,0.050000,2.447000,4.394000,-4.912000,-0.460000,-2.350000,0.000000,0.010000,1.650000,1621678974320761682
110,36.000000,0.177732,120.000000,0.487753,180.540000,-0.060000,4.000000,0.010000,0.703000,-5.264000,-16.241000,-0.510000,-2.600000,0.000000,0.000000,1.650000,1621678974340749091
111,36.000000,0.177732,120.000000,0.487753,180.540000,-0.260000,4.000000,0.010000,-1.201000,4.837000,0.295000,-0.530000,-2.520000,0.000000,0.000000,1.590000,1621678974360616950
112,36.000000,0.177732,120.000000,0.487753,180.540000,0.110000,4.000000,0.010000,1.421000,-1.033000,-12.709000,-0.580000,-2.580000,0.000000,0.000000,1.690000,1621678974380620647
113,36.000000,0.177732,120.000000,0.487753,180.540000,-0.130000,4.000000,0.080000,0.706000,-0.115000,-14.475000,-0.590000,-2.550000,0.000000,0.070000,1.630000,1621678974400684086
114,36.000000,0.177732,120.000000,0.487753,180.540000,-0.200000,4.000000,0.080000,-1.724000,-4.234000,-12.460000,-0.580000,-2.600000,0.000000,0.060000,1.680000,1621678974420842148
115,36.000000,0.177732,120.000000,0.487753,180.540000,-0.120000,4.000000,0.020000,-1.485000,0.059000,-11.177000,-0.520000,-2.580000,0.000000,0.000000,1.650000,1621678974440822805
116,36.000000,0.177732,120.000000,0.487753,180.540000,-0.200000,4.000000,0.020000,-2.100000,-7.566000,-15.318000,-0.490000,-2.650000,0.000000,0.000000,1.690000,1621678974460779943
117,36.000000,0.177732,120.000000,0.487753,180.540000,-0.440000,4.000000,0.020000,-0.688000,3.121000,-0.035000,-0.470000,-2.690000,0.000000,0.000000,1.730000,1621678974480757784
118,36.000000,0.177732,120.000000,0.487753,180.540000,0.040000,4.000000,0.020000,-1.575000,-10.510000,-11.909000,-0.420000,-2.380000,0.000000,0.000000,1.680000,1621678974503195388
119,36.000000,0.177732,120.000000,0.487753,180.540000,-0.320000,4.000000,0.020000,-3.840000,-1.058000,1.455000,-0.410000,-2.330000,0.000000,0.000000,1.720000,1621678974521111219
120,36.000000,0.177732,120.000000,0.487753,180.540000,0.040000,4.000000,0.020000,0.791000,-9.665000,-13.841000,-0.360000,-2.330000,0.000000,0.000000,1.690000,1621678974541153187
121,36.000000,0.177732,120.000000,0.487753,180.540000,0.180000,4.000000,0.020000,-3.034000,-2.254000,-4.085000,-0.350000,-2.300000,0.000000,0.000000,1.800000,1621678974561309425
122,36.000000,0.177732,120.000000,0.487753,180.540000,0.100000,4.000000,0.010000,1.075000,-5.493000,-11.845000,-0.390000,-2.320000,0.000000,0.000000,1.830000,1621678974581071078
123,36.000000,0.177732,120.000000,0.487753,180.540000,0.120000,4.000000,0.010000,-5.071000,-4.987000,-7.130000,-0.430000,-2.310000,0.000000,0.000000,1.930000,1621678974603223407
124,36.000000,0.177732,120.000000,0.487753,180.540000,0.090000,4.000000,0.010000,2.225000,0.066000,-10.243000,-0.470000,-2.350000,0.000000,0.000000,1.960000,1621678974621162694
125,36.000000,0.177732,120.000000,0.487753,180.540000,0.000000,4.000000,0.010000,-3.916000,5.124000,3.040000,-0.500000,-2.250000,0.000000,0.000000,2.010000,1621678974641273460
126,36.000000,0.177732,120.000000,0.487753,180.540000,0.220000,4.000000,0.010000,3.722000,9.987000,0.100000,-0.520000,-2.340000,0.000000,0.000000,2.050000,1621678974661377539
127,36.000000,0.177732,120.000000,0.487753,180.540000,0.000000,4.000000,0.010000,-2.554000,8.492000,3.593000,-0.570000,-2.200000,0.000000,0.000000,2.100000,1621678974681420947
128,36.000000,0.177732,120.000000,0.487753,180.540000,0.100000,4.000000,0.010000,4.576000,7.978000,-0.899000,-0.590000,-2.290000,0.000000,0.000000,2.150000,1621678974701399940
129,36.000000,0.177732,120.000000,0.487753,180.540000,-0.060000,4.000000,0.010000,0.069000,9.248000,4.005000,-0.640000,-2.220000,0.000000,0.000000,2.140000,1621678974721474420
130,36.000000,0.177732,120.000000,0.487753,180.540000,0.090000,4.000000,0.020000,3.863000,9.411000,-3.822000,-0.630000,-2.320000,0.000000,0.000000,2.070000,1621678974741392390
131,36.000000,0.177732,120.000000,0.487753,180.540000,-0.120000,4.000000,0.020000,1.861000,-10.635000,-16.742000,-0.640000,-2.280000,0.000000,0.000000,2.170000,1621678974761400631
132,36.000000,0.177732,120.000000,0.487753,180.540000,0.160000,4.000000,0.020000,0.872000,7.010000,-5.498000,-0.620000,-2.370000,0.000000,0.000000,2.100000,1621678974781202571
133,36.000000,0.177732,120.000000,0.487753,180.540000,0.170000,4.000000,0.050000,1.802000,-12.252000,-5.961000,-0.570000,-2.320000,0.000000,0.010000,2.220000,1621678974801393304
134,36.000000,0.177732,120.000000,0.487753,180.540000,0.220000,4.000000,0.050000,1.478000,7.097000,-6.058000,-0.560000,-2.310000,0.000000,0.010000,2.140000,1621678974821450952
135,36.000000,0.177732,120.000000,0.487753,180.540000,0.170000,4.000000,0.000000,6.334000,10.673000,-6.853000,-0.500000,-2.330000,0.000000,0.000000,2.210000,1621678974841360314
136,36.000000,0.177732,120.000000,0.487753,180.540000,-0.320000,4.000000,0.000000,1.269000,8.265000,-7.179000,-0.490000,-2.330000,0.000000,0.000000,2.140000,1621678974861231597
137,36.000000,0.177732,120.000000,0.487753,180.540000,0.410000,4.000000,0.020000,4.539000,8.111000,-6.761000,-0.440000,-2.500000,0.000000,0.000000,2.220000,1621678974881386299
138,36.000000,0.177732,120.000000,0.487753,180.540000,-0.260000,4.000000,0.020000,0.746000,7.875000,-3.881000,-0.420000,-2.460000,0.000000,0.000000,2.150000,1621678974901291790
139,36.000000,0.177732,120.000000,0.487753,180.540000,0.290000,4.000000,0.020000,2.645000,5.300000,-8.387000,-0.370000,-2.620000,0.000000,0.000000,2.180000,1621678974921416828
140,36.000000,0.177732,120.000000,0.487753,180.540000,-0.190000,4.000000,0.020000,0.007000,6.453000,-1.170000,-0.360000,-2.560000,0.000000,0.000000,2.110000,1621678974941594090
141,36.000000,0.177732,120.000000,0.487753,180.540000,0.230000,4.000000,0.020000,2.075000,2.547000,-7.650000,-0.300000,-2.580000,0.000000,0.000000,2.160000,1621678974961416382
142,36.000000,0.177732,120.000000,0.487753,180.540000,-0.260000,4.000000,0.020000,-0.735000,6.896000,1.684000,-0.290000,-2.490000,0.000000,0.000000,2.100000,1621678974981393967
143,36.000000,0.177732,120.000000,0.487753,180.540000,0.160000,4.000000,0.020000,1.574000,2.946000,-12.681000,-0.240000,-2.570000,0.000000,0.000000,2.080000,1621678975001457950
144,36.000000,0.177732,120.000000,0.487753,180.540000,-0.390000,4.000000,0.020000,-0.304000,-6.415000,-16.338000,-0.200000,-2.650000,0.000000,0.000000,2.040000,1621678975021308372
145,36.000000,0.177732,120.000000,0.487753,180.540000,0.220000,4.000000,0.040000,2.591000,1.704000,-16.017000,-0.170000,-2.760000,0.000000,0.010000,2.000000,1621678975041240584
146,36.000000,0.177732,120.000000,0.487753,180.540000,-0.570000,4.000000,0.040000,-0.096000,-9.692000,-16.412000,-0.140000,-2.840000,0.000000,0.010000,1.960000,1621678975059398588
147,36.000000,0.177732,120.000000,0.487753,180.540000,0.150000,4.000000,0.050000,0.931000,8.379000,7.655000,-0.110000,-2.630000,0.000000,0.010000,1.860000,1621678975081281805
148,36.000000,0.177732,120.000000,0.487753,180.540000,-0.560000,4.000000,0.050000,-0.898000,-9.317000,-15.528000,-0.070000,-2.700000,0.000000,0.010000,1.820000,1621678975104367975
149,36.000000,0.177732,120.000000,0.487753,180.540000,-0.130000,4.000000,0.050000,-2.003000,-0.514000,-12.628000,-0.060000,-2.610000,0.000000,0.010000,1.780000,1621678975120442914
150,36.000000,0.177732,120.000000,0.487753,180.540000,-0.560000,4.000000,0.010000,-2.056000,0.892000,1.671000,-0.010000,-2.280000,0.000000,0.000000,1.690000,1621678975140853773
151,36.000000,0.177732,120.000000,0.487753,180.540000,0.340000,4.000000,0.010000,-2.884000,-9.223000,-14.595000,0.010000,-2.350000,0.000000,0.000000,1.700000,1621678975160500711
152,36.000000,0.177732,120.000000,0.487753,180.540000,-0.200000,4.000000,0.040000,-0.638000,-9.632000,-12.790000,0.060000,-2.320000,0.000000,0.010000,1.580000,1621678975180478650
153,36.000000,0.177732,120.000000,0.487753,180.540000,0.410000,4.000000,0.040000,-1.593000,-10.409000,-14.790000,0.090000,-2.390000,0.000000,0.000000,1.530000,1621678975200460013
154,36.000000,0.177732,120.000000,0.487753,180.540000,-0.080000,4.000000,0.040000,-0.704000,-8.490000,-12.478000,0.110000,-2.260000,0.000000,0.010000,1.490000,1621678975220725051
155,36.000000,0.177732,120.000000,0.487753,180.540000,0.530000,4.000000,0.010000,-1.683000,-13.478000,-15.217000,0.160000,-2.300000,0.000000,0.000000,1.450000,1621678975242811496
156,36.000000,0.177732,120.000000,0.487753,180.540000,-0.070000,4.000000,0.010000,1.168000,-7.376000,-13.655000,0.180000,-2.230000,0.000000,0.000000,1.460000,1621678975258457386
157,36.000000,0.177732,120.000000,0.487753,180.540000,0.120000,4.000000,0.010000,-1.985000,-14.255000,-16.410000,0.200000,-2.310000,0.000000,0.000000,1.520000,1621678975280645045
158,36.000000,0.177732,120.000000,0.487753,180.540000,-0.010000,4.000000,0.010000,-4.827000,-4.948000,-8.538000,0.200000,-2.320000,0.000000,0.000000,1.520000,1621678975300784262
159,36.000000,0.177732,120.000000,0.487753,180.540000,0.240000,4.000000,0.010000,-0.190000,-14.017000,-16.418000,0.220000,-2.230000,0.000000,0.000000,1.580000,1621678975320812920
160,36.000000,0.177732,120.000000,0.487753,180.540000,-0.070000,4.000000,0.020000,2.190000,10.404000,7.384000,0.200000,-2.050000,0.000000,0.000000,1.550000,1621678975342772359
161,36.000000,0.177732,120.000000,0.487753,180.540000,0.040000,4.000000,0.020000,1.024000,-13.140000,-16.404000,0.180000,-2.080000,0.000000,0.000000,1.610000,1621678975358544071
162,36.000000,0.177732,120.000000,0.487753,180.540000,-0.620000,4.000000,0.000000,-1.146000,-2.580000,-15.007000,0.130000,-2.300000,0.000000,0.000000,1.680000,1621678975380390392
163,36.000000,0.177732,120.000000,0.487753,180.540000,0.100000,4.000000,0.000000,1.764000,-12.464000,-16.390000,0.090000,-2.390000,0.000000,0.000000,1.690000,1621678975400447914
164,36.000000,0.177732,120.000000,0.487753,180.540000,-0.560000,4.000000,0.000000,-0.442000,-1.976000,-15.307000,0.080000,-2.430000,0.000000,0.000000,1.750000,1621678975420409246
165,36.000000,0.177732,120.000000,0.487753,180.540000,0.140000,4.000000,0.010000,-3.133000,6.912000,-1.082000,0.020000,-2.390000,0.000000,0.000000,1.760000,1621678975440442288
166,36.000000,0.177732,120.000000,0.487753,180.540000,-0.010000,4.000000,0.010000,0.012000,-1.096000,-16.055000,0.010000,-2.500000,0.000000,0.000000,1.820000,1621678975460702046
167,36.000000,0.177732,120.000000,0.487753,180.540000,0.210000,4.000000,0.040000,3.266000,10.660000,2.715000,-0.050000,-2.260000,0.000000,0.010000,1.830000,1621678975480618130
168,36.000000,0.177732,120.000000,0.487753,180.540000,0.060000,4.000000,0.040000,0.252000,0.538000,-16.002000,-0.080000,-2.340000,0.000000,0.000000,1.950000,1621678975500738659
169,36.000000,0.177732,120.000000,0.487753,180.540000,0.240000,4.000000,0.040000,0.232000,1.795000,-6.974000,-0.050000,-2.360000,0.000000,0.010000,1.880000,1621678975520435196
170,36.000000,0.177732,120.000000,0.487753,180.540000,0.050000,4.000000,0.020000,-0.473000,-1.921000,-2.527000,-0.080000,-2.310000,0.000000,0.000000,1.950000,1621678975543072542
171,36.000000,0.177732,120.000000,0.487753,180.540000,0.350000,4.000000,0.020000,3.103000,8.079000,-2.515000,-0.100000,-2.400000,0.000000,0.000000,1.930000,1621678975560918968
172,36.000000,0.177732,120.000000,0.487753,180.540000,-0.260000,4.000000,0.020000,-0.005000,9.777000,-2.282000,-0.110000,-2.290000,0.000000,0.000000,1.860000,1621678975581125352
173,36.000000,0.177732,120.000000,0.487753,180.540000,-0.360000,4.000000,0.020000,2.378000,5.181000,-3.414000,-0.100000,-2.210000,0.000000,0.000000,1.910000,1621678975601053852
174,36.000000,0.177732,120.000000,0.487753,180.540000,0.140000,4.000000,0.020000,2.734000,-6.922000,-16.243000,-0.040000,-2.330000,0.000000,0.000000,1.850000,1621678975621023055
175,36.000000,0.177732,120.000000,0.487753,180.540000,-0.280000,4.000000,0.020000,2.728000,-6.928000,-16.242000,0.000000,-2.420000,0.000000,0.000000,1.830000,1621678975641577592
176,36.000000,0.177732,120.000000,0.487753,180.540000,-0.200000,4.000000,0.020000,4.182000,10.442000,-0.192000,0.020000,-2.500000,0.000000,0.000000,1.780000,1621678975660901463
177,36.000000,0.177732,120.000000,0.487753,180.540000,0.210000,4.000000,0.020000,-1.138000,7.385000,1.808000,0.060000,-2.420000,0.000000,0.000000,1.740000,1621678975680877514
178,36.000000,0.177732,120.000000,0.487753,180.540000,-0.080000,4.000000,0.020000,4.932000,13.896000,-0.729000,0.080000,-2.270000,0.000000,0.000000,1.760000,1621678975700971100
179,36.000000,0.177732,120.000000,0.487753,180.540000,-0.330000,4.000000,0.020000,-2.277000,-10.116000,-16.323000,0.130000,-2.330000,0.000000,0.000000,1.740000,1621678975721262121
180,36.000000,0.177732,120.000000,0.487753,180.540000,0.090000,4.000000,0.070000,-2.281000,-10.115000,-16.323000,0.160000,-2.420000,0.000000,0.010000,1.770000,1621678975741144414
181,36.000000,0.177732,120.000000,0.487753,180.540000,0.320000,4.000000,0.070000,-0.434000,10.925000,7.408000,0.180000,-2.470000,0.000000,0.020000,1.700000,1621678975761014771
182,36.000000,0.177732,120.000000,0.487753,180.540000,0.210000,4.000000,0.050000,5.613000,12.256000,-0.942000,0.210000,-2.350000,0.000000,0.080000,1.680000,1621678975781051174
183,36.000000,0.177732,120.000000,0.487753,180.540000,0.450000,4.000000,0.050000,1.120000,8.920000,9.384000,0.240000,-2.400000,0.000000,0.010000,1.630000,1621678975801041561
184,36.000000,0.177732,120.000000,0.487753,180.540000,0.330000,4.000000,0.050000,-0.159000,-3.608000,-16.122000,0.290000,-2.420000,0.000000,0.010000,1.730000,1621678975821108810
185,36.000000,0.177732,120.000000,0.487753,180.540000,-0.010000,4.000000,0.040000,-2.063000,-10.372000,-16.320000,0.280000,-2.380000,0.000000,0.000000,1.720000,1621678975851498688
186,36.000000,0.177732,120.000000,0.487753,180.540000,0.340000,4.000000,0.040000,1.523000,-2.977000,-16.115000,0.290000,-2.460000,0.000000,0.010000,1.770000,1621678975861626247
187,36.000000,0.177732,120.000000,0.487753,180.540000,0.570000,4.000000,0.040000,-0.538000,9.161000,10.722000,0.270000,-2.500000,0.000000,0.010000,1.700000,1621678975881505628
188,36.000000,0.177732,120.000000,0.487753,180.540000,0.340000,4.000000,0.050000,1.153000,-5.400000,-16.192000,0.320000,-2.330000,0.000000,0.000000,1.840000,1621678975901510254
189,36.000000,0.177732,120.000000,0.487753,180.540000,0.690000,4.000000,0.050000,-0.375000,10.548000,10.084000,0.300000,-2.200000,0.000000,0.010000,1.770000,1621678975921503937
190,36.000000,0.177732,120.000000,0.487753,180.540000,-0.020000,4.000000,0.020000,3.381000,14.195000,2.641000,0.280000,-2.110000,0.000000,0.010000,1.800000,1621678975941543860
191,36.000000,0.177732,120.000000,0.487753,180.540000,-0.320000,4.000000,0.020000,-1.414000,-14.495000,-16.501000,0.270000,-2.320000,0.000000,0.000000,1.920000,1621678975961422793
192,36.000000,0.177732,120.000000,0.487753,180.540000,0.340000,4.000000,0.020000,-1.690000,-1.301000,-9.182000,0.260000,-2.290000,0.000000,0.000000,1.940000,1621678975981510874
193,36.000000,0.177732,120.000000,0.487753,180.540000,-0.390000,4.000000,0.020000,-1.624000,-12.797000,-16.464000,0.270000,-2.400000,0.000000,0.000000,2.010000,1621678976001367279
194,36.000000,0.177732,120.000000,0.487753,180.540000,0.450000,4.000000,0.020000,-1.099000,6.599000,6.027000,0.260000,-2.360000,0.000000,0.000000,2.000000,1621678976021474562
195,36.000000,0.177732,120.000000,0.487753,180.540000,-0.390000,4.000000,0.020000,-0.187000,-12.447000,-16.470000,0.270000,-2.320000,0.000000,0.000000,2.060000,1621678976041693587
196,36.000000,0.177732,120.000000,0.487753,180.540000,0.450000,4.000000,0.020000,-0.290000,5.527000,7.190000,0.290000,-2.140000,0.000000,0.000000,2.110000,1621678976061430605
197,36.000000,0.177732,120.000000,0.487753,180.540000,-0.160000,4.000000,0.020000,-0.777000,-10.243000,-14.702000,0.300000,-2.220000,0.000000,0.000000,2.160000,1621678976081422210
198,36.000000,0.177732,120.000000,0.487753,180.540000,0.330000,4.000000,0.010000,0.631000,5.232000,3.843000,0.280000,-2.080000,0.000000,0.000000,2.210000,1621678976101585972
199,36.000000,0.177732,120.000000,0.487753,180.540000,-0.220000,4.000000,0.010000,-1.260000,-9.411000,-12.044000,0.250000,-2.130000,0.000000,0.000000,2.280000,1621678976121705543
200,36.000000,0.177732,120.000000,0.487753,180.540000,-0.080000,4.000000,0.020000,-3.153000,1.050000,0.887000,0.240000,-2.060000,0.000000,0.000000,2.310000,1621678976139679265
201,36.000000,0.177732,120.000000,0.487753,180.540000,-0.080000,4.000000,0.020000,-1.927000,-7.280000,-10.989000,0.180000,-1.940000,0.000000,0.000000,2.320000,1621678976161439926
202,36.000000,0.177732,120.000000,0.487753,180.540000,0.230000,4.000000,0.020000,-0.411000,-7.971000,-16.357000,0.170000,-2.010000,0.000000,0.000000,2.380000,1621678976181570184
203,36.000000,0.177732,120.000000,0.487753,180.540000,-0.140000,4.000000,0.020000,-3.298000,2.230000,0.095000,0.110000,-1.900000,0.000000,0.000000,2.420000,1621678976201553598
204,36.000000,0.177732,120.000000,0.487753,180.540000,0.510000,4.000000,0.020000,-0.590000,-8.593000,-16.400000,0.090000,-1.940000,0.000000,0.000000,2.490000,1621678976221429333
205,36.000000,0.177732,120.000000,0.487753,180.540000,-0.520000,4.000000,0.000000,-0.097000,7.773000,3.930000,0.070000,-1.850000,0.000000,0.000000,2.460000,1621678976241535336
206,36.000000,0.177732,120.000000,0.487753,180.540000,0.200000,4.000000,0.000000,1.150000,-11.265000,-16.529000,0.030000,-1.920000,0.000000,0.000000,2.540000,1621678976261852695
207,36.000000,0.177732,120.000000,0.487753,180.540000,-0.450000,4.000000,0.000000,-3.240000,-4.783000,-12.453000,-0.010000,-1.970000,0.000000,0.000000,2.560000,1621678976279481975
208,36.000000,0.177732,120.000000,0.487753,180.540000,0.200000,4.000000,0.010000,0.226000,-9.592000,-16.469000,-0.060000,-2.180000,0.000000,0.000000,2.640000,1621678976301433225
209,36.000000,0.177732,120.000000,0.487753,180.540000,-0.400000,4.000000,0.010000,-4.127000,-4.513000,-15.671000,-0.080000,-2.270000,0.000000,0.000000,2.700000,1621678976321384895
210,36.000000,0.177732,120.000000,0.487753,180.540000,0.200000,4.000000,0.040000,3.171000,4.272000,-5.729000,-0.130000,-2.050000,0.000000,0.010000,2.750000,1621678976341787916
211,36.000000,0.177732,120.000000,0.487753,180.540000,-0.260000,4.000000,0.040000,-1.388000,-2.119000,-16.139000,-0.150000,-2.140000,0.000000,0.010000,2.810000,1621678976359662440
212,36.000000,0.177732,120.000000,0.487753,180.540000,0.010000,4.000000,0.040000,1.699000,4.053000,-2.972000,-0.200000,-2.050000,0.000000,0.010000,2.830000,1621678976384757760
213,36.000000,0.177732,120.000000,0.487753,180.540000,-0.200000,4.000000,0.040000,-1.185000,-0.120000,-16.042000,-0.220000,-2.140000,0.000000,0.010000,2.820000,1621678976400687711
214,36.000000,0.177732,120.000000,0.487753,180.540000,-0.030000,4.000000,0.040000,1.616000,1.126000,-2.716000,-0.260000,-2.230000,0.000000,0.010000,2.860000,1621678976420759219
215,36.000000,0.177732,120.000000,0.487753,180.540000,-0.260000,4.000000,0.020000,2.051000,-4.053000,-14.754000,-0.310000,-2.090000,0.000000,0.000000,2.860000,1621678976440718569
216,36.000000,0.177732,120.000000,0.487753,180.540000,-0.100000,4.000000,0.020000,-1.264000,-1.659000,-4.736000,-0.330000,-2.150000,0.000000,0.000000,2.850000,1621678976460799228
217,36.000000,0.177732,120.000000,0.487753,180.540000,-0.260000,4.000000,0.040000,2.428000,-0.255000,-15.771000,-0.380000,-2.110000,0.000000,0.000000,2.880000,1621678976480672691
218,36.000000,0.177732,120.000000,0.487753,180.540000,0.080000,4.000000,0.040000,-1.365000,-1.667000,-9.327000,-0.400000,-2.220000,0.000000,0.010000,2.870000,1621678976500520747
219,36.000000,0.177732,120.000000,0.487753,180.540000,-0.260000,4.000000,0.040000,1.599000,0.776000,-14.740000,-0.420000,-2.170000,0.000000,0.010000,2.840000,1621678976520443426
220,36.000000,0.177732,120.000000,0.487753,180.540000,-0.290000,4.000000,0.040000,-1.436000,-3.777000,-10.873000,-0.440000,-2.290000,0.000000,0.010000,2.900000,1621678976540699154
221,36.000000,0.177732,120.000000,0.487753,180.540000,-0.570000,4.000000,0.040000,1.450000,2.607000,-6.439000,-0.440000,-2.280000,0.000000,0.000000,2.850000,1621678976560686503
222,36.000000,0.177732,120.000000,0.487753,180.540000,-0.090000,4.000000,0.040000,-1.053000,-3.358000,-14.598000,-0.470000,-2.390000,0.000000,0.010000,2.880000,1621678976580501343
223,36.000000,0.177732,120.000000,0.487753,180.540000,-0.500000,4.000000,0.040000,0.904000,-1.308000,-5.902000,-0.430000,-2.400000,0.000000,0.010000,2.840000,1621678976600535348
224,36.000000,0.177732,120.000000,0.487753,180.540000,0.450000,4.000000,0.040000,-0.918000,6.129000,0.939000,-0.430000,-2.320000,0.000000,0.010000,2.830000,1621678976620509673
225,36.000000,0.177732,120.000000,0.487753,180.540000,-0.450000,4.000000,0.020000,-2.090000,-3.549000,-5.057000,-0.400000,-2.330000,0.000000,0.010000,2.850000,1621678976640524286
226,36.000000,0.177732,120.000000,0.487753,180.540000,0.150000,4.000000,0.020000,0.788000,8.961000,0.821000,-0.350000,-2.230000,0.000000,0.000000,2.810000,1621678976660534515
227,36.000000,0.177732,120.000000,0.487753,180.540000,-0.390000,4.000000,0.020000,-2.497000,-4.226000,-4.654000,-0.330000,-2.250000,0.000000,0.000000,2.870000,1621678976680512072
228,36.000000,0.177732,120.000000,0.487753,180.540000,0.200000,4.000000,0.020000,2.860000,10.231000,-0.535000,-0.280000,-2.250000,0.000000,0.000000,2.860000,1621678976700758969
229,36.000000,0.177732,120.000000,0.487753,180.540000,-0.330000,4.000000,0.020000,-2.983000,-4.479000,-6.054000,-0.260000,-2.270000,0.000000,0.000000,2.920000,1621678976720820301
230,36.000000,0.177732,120.000000,0.487753,180.540000,0.200000,4.000000,0.000000,3.252000,0.915000,-11.786000,-0.280000,-2.440000,0.000000,0.000000,2.950000,1621678976741236442
231,36.000000,0.177732,120.000000,0.487753,180.540000,0.170000,4.000000,0.000000,-5.499000,1.876000,-0.387000,-0.300000,-2.410000,0.000000,0.000000,2.970000,1621678976760734968
232,36.000000,0.177732,120.000000,0.487753,180.540000,0.170000,4.000000,0.020000,1.866000,3.802000,-10.722000,-0.320000,-2.450000,0.000000,0.000000,3.030000,1621678976780763757
233,36.000000,0.177732,120.000000,0.487753,180.540000,0.010000,4.000000,0.020000,-3.687000,3.210000,0.045000,-0.330000,-2.410000,0.000000,0.000000,3.060000,1621678976800769889
234,36.000000,0.177732,120.000000,0.487753,180.540000,0.250000,4.000000,0.020000,5.170000,7.120000,-3.213000,-0.300000,-2.490000,0.000000,0.000000,3.040000,1621678976820826645
235,36.000000,0.177732,120.000000,0.487753,180.540000,-0.030000,4.000000,0.050000,-0.338000,-2.491000,-16.154000,-0.240000,-2.620000,0.000000,0.010000,3.060000,1621678976840426578
236,36.000000,0.177732,120.000000,0.487753,180.540000,0.280000,4.000000,0.050000,3.164000,5.304000,-4.431000,-0.230000,-2.660000,0.000000,0.050000,3.100000,1621678976860731297
237,36.000000,0.177732,120.000000,0.487753,180.540000,0.010000,4.000000,0.000000,0.122000,6.148000,-4.306000,-0.210000,-2.700000,0.000000,0.060000,3.130000,1621678976880465467
238,36.000000,0.177732,120.000000,0.487753,180.540000,0.240000,4.000000,0.000000,0.960000,3.743000,-1.405000,-0.200000,-2.700000,0.000000,0.000000,3.140000,1621678976900540366
239,36.000000,0.177732,120.000000,0.487753,180.540000,-0.120000,4.000000,0.000000,-1.202000,-1.249000,-15.135000,-0.180000,-2.770000,0.000000,0.000000,3.170000,1621678976920609602
240,36.000000,0.177732,120.000000,0.487753,180.540000,0.230000,4.000000,0.010000,-1.021000,-6.057000,-12.880000,-0.130000,-2.820000,0.000000,0.000000,3.200000,1621678976940542552
241,36.000000,0.177732,120.000000,0.487753,180.540000,-0.150000,4.000000,0.010000,2.335000,5.850000,-7.432000,-0.090000,-2.870000,0.000000,0.000000,3.260000,1621678976960880839
242,36.000000,0.177732,120.000000,0.487753,180.540000,0.300000,4.000000,0.010000,-1.914000,2.045000,4.143000,-0.060000,-2.720000,0.000000,0.000000,3.300000,1621678976980485859
243,36.000000,0.177732,120.000000,0.487753,180.540000,-0.220000,4.000000,0.000000,1.399000,4.684000,-5.910000,-0.020000,-2.740000,0.000000,0.000000,3.360000,1621678977000616054
244,36.000000,0.177732,120.000000,0.487753,180.540000,0.200000,4.000000,0.000000,-2.079000,2.609000,4.884000,0.010000,-2.610000,0.000000,0.000000,3.350000,1621678977020760746
245,36.000000,0.177732,120.000000,0.487753,180.540000,-0.210000,4.000000,0.010000,0.143000,1.103000,-11.828000,0.050000,-2.600000,0.000000,0.000000,3.400000,1621678977040542757
246,36.000000,0.177732,120.000000,0.487753,180.540000,-0.540000,4.000000,0.010000,-1.064000,4.089000,0.792000,0.030000,-2.620000,0.000000,0.000000,3.500000,1621678977060810647
247,36.000000,0.177732,120.000000,0.487753,180.540000,-0.250000,4.000000,0.010000,-2.481000,0.300000,-7.477000,0.010000,-2.570000,0.000000,0.000000,3.460000,1621678977080681585
248,36.000000,0.177732,120.000000,0.487753,180.540000,-0.570000,4.000000,0.020000,1.585000,5.114000,-1.934000,-0.040000,-2.580000,0.000000,0.000000,3.570000,1621678977100793958
249,36.000000,0.177732,120.000000,0.487753,180.540000,-0.220000,4.000000,0.020000,-4.599000,0.549000,-3.129000,-0.060000,-2.530000,0.000000,0.000000,3.530000,1621678977120646688
250,36.000000,0.177732,120.000000,0.487753,180.540000,-0.430000,4.000000,0.010000,-3.371000,-5.440000,-10.757000,-0.110000,-2.650000,0.000000,0.000000,3.590000,1621678977140521561
251,36.000000,0.177732,120.000000,0.487753,180.540000,-0.140000,4.000000,0.010000,-5.068000,1.268000,-2.165000,-0.120000,-2.620000,0.000000,0.000000,3.610000,1621678977160658222
252,36.000000,0.177732,120.000000,0.487753,180.540000,-0.220000,4.000000,0.020000,-3.386000,-2.618000,-15.552000,-0.180000,-2.630000,0.000000,0.000000,3.680000,1621678977180513479
253,36.000000,0.177732,120.000000,0.487753,180.540000,0.300000,4.000000,0.020000,-3.517000,0.811000,-2.321000,-0.190000,-2.640000,0.000000,0.000000,3.710000,1621678977200507039
254,36.000000,0.177732,120.000000,0.487753,180.540000,0.360000,4.000000,0.020000,0.579000,6.999000,0.203000,-0.230000,-2.640000,0.000000,0.000000,3.750000,1621678977220676883
255,36.000000,0.177732,120.000000,0.487753,180.540000,-0.080000,4.000000,0.040000,1.808000,1.603000,-7.619000,-0.260000,-2.640000,0.000000,0.010000,3.830000,1621678977240444110
256,36.000000,0.177732,120.000000,0.487753,180.540000,0.060000,4.000000,0.040000,-1.486000,-3.139000,-13.059000,-0.310000,-2.580000,0.000000,0.010000,3.850000,1621678977264357022
257,36.000000,0.177732,120.000000,0.487753,180.540000,0.020000,4.000000,0.020000,0.544000,2.800000,-7.399000,-0.340000,-2.570000,0.000000,0.010000,3.890000,1621678977280062275
258,36.000000,0.177732,120.000000,0.487753,180.540000,0.530000,4.000000,0.020000,0.838000,6.009000,4.326000,-0.360000,-2.450000,0.000000,0.000000,3.900000,1621678977300115897
259,36.000000,0.177732,120.000000,0.487753,180.540000,0.220000,4.000000,0.020000,-0.939000,-3.817000,-16.319000,-0.410000,-2.450000,0.000000,0.000000,3.930000,1621678977320387691
260,36.000000,0.177732,120.000000,0.487753,180.540000,0.220000,4.000000,0.070000,-0.935000,-3.819000,-16.319000,-0.430000,-2.610000,0.000000,0.010000,3.930000,1621678977340366627
261,36.000000,0.177732,120.000000,0.487753,180.540000,-0.080000,4.000000,0.070000,-4.078000,0.851000,-2.866000,-0.460000,-2.620000,0.000000,0.000000,3.940000,1621678977360157790
262,36.000000,0.177732,120.000000,0.487753,180.540000,0.430000,4.000000,0.070000,3.938000,6.739000,-5.494000,-0.500000,-2.600000,0.000000,0.070000,3.970000,1621678977380163573
263,36.000000,0.177732,120.000000,0.487753,180.540000,-0.140000,4.000000,0.010000,-4.928000,0.558000,-2.317000,-0.530000,-2.660000,0.000000,0.000000,3.990000,1621678977400253834
264,36.000000,0.177732,120.000000,0.487753,180.540000,-0.350000,4.000000,0.010000,4.164000,7.486000,-4.705000,-0.580000,-2.600000,0.000000,0.000000,4.070000,1621678977420082404
265,36.000000,0.177732,120.000000,0.487753,180.540000,-0.090000,4.000000,0.000000,-1.226000,-6.395000,-10.825000,-0.620000,-2.660000,0.000000,0.000000,4.080000,1621678977443691066
266,36.000000,0.177732,120.000000,0.487753,180.540000,-0.290000,4.000000,0.000000,0.485000,5.907000,1.193000,-0.660000,-2.580000,0.000000,0.000000,4.120000,1621678977461811859
267,36.000000,0.177732,120.000000,0.487753,180.540000,-0.260000,4.000000,0.000000,1.273000,6.428000,-6.450000,-0.670000,-2.640000,0.000000,0.000000,4.100000,1621678977479590514
268,36.000000,0.177732,120.000000,0.487753,180.540000,-0.100000,4.000000,0.020000,-1.089000,-1.994000,-13.541000,-0.730000,-2.500000,0.000000,0.000000,4.110000,1621678977501549606
269,36.000000,0.177732,120.000000,0.487753,180.540000,-0.380000,4.000000,0.020000,3.446000,6.014000,-9.939000,-0.740000,-2.580000,0.000000,0.000000,4.100000,1621678977521619004
270,36.000000,0.177732,120.000000,0.487753,180.540000,0.020000,4.000000,0.010000,-0.336000,-2.850000,-13.270000,-0.770000,-2.630000,0.000000,0.000000,4.130000,1621678977541562804
271,36.000000,0.177732,120.000000,0.487753,180.540000,0.080000,4.000000,0.010000,1.425000,4.924000,-9.494000,-0.830000,-2.660000,0.000000,0.000000,4.110000,1621678977561466125
272,36.000000,0.177732,120.000000,0.487753,180.540000,0.060000,4.000000,0.020000,0.603000,-3.524000,-3.875000,-0.870000,-2.640000,0.000000,0.000000,4.090000,1621678977584090805
273,36.000000,0.177732,120.000000,0.487753,180.540000,0.100000,4.000000,0.020000,-3.562000,3.435000,-5.167000,-0.860000,-2.620000,0.000000,0.000000,4.100000,1621678977597574689
274,36.000000,0.177732,120.000000,0.487753,180.540000,0.260000,4.000000,0.020000,5.284000,6.070000,-9.155000,-0.880000,-2.700000,0.000000,0.000000,4.130000,1621678977621484466
275,36.000000,0.177732,120.000000,0.487753,180.540000,0.040000,4.000000,0.010000,-4.182000,0.314000,-3.328000,-0.890000,-2.700000,0.000000,0.000000,4.070000,1621678977641508456
276,36.000000,0.177732,120.000000,0.487753,180.540000,0.200000,4.000000,0.010000,4.199000,0.720000,-7.483000,-0.910000,-2.700000,0.000000,0.000000,4.060000,1621678977661595550
277,36.000000,0.177732,120.000000,0.487753,180.540000,-0.030000,4.000000,0.020000,1.656000,2.515000,-7.612000,-0.890000,-2.770000,0.000000,0.000000,3.990000,1621678977681529014
278,36.000000,0.177732,120.000000,0.487753,180.540000,0.300000,4.000000,0.020000,-2.795000,4.968000,4.186000,-0.880000,-2.630000,0.000000,0.000000,3.950000,1621678977701517550
279,36.000000,0.177732,120.000000,0.487753,180.540000,0.160000,4.000000,0.020000,0.055000,1.937000,-6.708000,-0.860000,-2.730000,0.000000,0.000000,3.870000,1621678977721694913
280,36.000000,0.177732,120.000000,0.487753,180.540000,0.160000,4.000000,0.020000,0.053000,1.933000,-6.709000,-0.840000,-2.700000,0.000000,0.000000,3.830000,1621678977741822710
281,36.000000,0.177732,120.000000,0.487753,180.540000,-0.330000,4.000000,0.020000,-0.315000,-1.253000,-9.149000,-0.880000,-2.680000,0.000000,0.000000,3.850000,1621678977762062409
282,36.000000,0.177732,120.000000,0.487753,180.540000,0.320000,4.000000,0.020000,4.491000,4.978000,-5.290000,-0.840000,-2.730000,0.000000,0.000000,3.810000,1621678977779924327
283,36.000000,0.177732,120.000000,0.487753,180.540000,-0.020000,4.000000,0.020000,-5.331000,-5.311000,-3.385000,-0.810000,-2.700000,0.000000,0.000000,3.740000,1621678977800155898
284,36.000000,0.177732,120.000000,0.487753,180.540000,0.130000,4.000000,0.020000,5.827000,3.113000,-8.871000,-0.840000,-2.690000,0.000000,0.000000,3.760000,1621678977819885334
285,36.000000,0.177732,120.000000,0.487753,180.540000,-0.090000,4.000000,0.040000,0.827000,-0.678000,-5.629000,-0.810000,-2.700000,0.000000,0.000000,3.690000,1621678977840025034
286,36.000000,0.177732,120.000000,0.487753,180.540000,0.020000,4.000000,0.040000,-3.037000,-3.660000,-10.353000,-0.760000,-2.640000,0.000000,0.010000,3.720000,1621678977859961218
287,36.000000,0.177732,120.000000,0.487753,180.540000,-0.270000,4.000000,0.040000,2.786000,-1.277000,-11.873000,-0.740000,-2.670000,0.000000,0.010000,3.720000,1621678977879992057
288,36.000000,0.177732,120.000000,0.487753,180.540000,0.070000,4.000000,0.000000,-3.024000,-2.879000,-16.275000,-0.690000,-2.740000,0.000000,0.000000,3.730000,1621678977900039567
289,36.000000,0.177732,120.000000,0.487753,180.540000,-0.150000,4.000000,0.000000,-4.606000,-3.388000,-16.203000,-0.670000,-2.760000,0.000000,0.000000,3.780000,1621678977920014535
290,36.000000,0.177732,120.000000,0.487753,180.540000,0.190000,4.000000,0.020000,-2.695000,7.415000,-1.941000,-0.620000,-2.630000,0.000000,0.000000,3.780000,1621678977940035357
291,36.000000,0.177732,120.000000,0.487753,180.540000,0.090000,4.000000,0.020000,-2.971000,-3.016000,-16.281000,-0.610000,-2.650000,0.000000,0.000000,3.820000,1621678977962457897
292,36.000000,0.177732,120.000000,0.487753,180.540000,0.510000,4.000000,0.020000,-3.227000,4.485000,1.822000,-0.590000,-2.630000,0.000000,0.000000,3.800000,1621678977980460420
293,36.000000,0.177732,120.000000,0.487753,180.540000,0.270000,4.000000,0.020000,3.638000,-5.093000,-10.206000,-0.600000,-2.550000,0.000000,0.000000,3.830000,1621678978000430076
294,36.000000,0.177732,120.000000,0.487753,180.540000,0.350000,4.000000,0.020000,5.876000,-1.624000,-7.191000,-0.650000,-2.600000,0.000000,0.000000,3.810000,1621678978020425556
295,36.000000,0.177732,120.000000,0.487753,180.540000,0.160000,4.000000,0.010000,1.039000,0.259000,-2.710000,-0.670000,-2.540000,0.000000,0.000000,3.770000,1621678978040465581
296,36.000000,0.177732,120.000000,0.487753,180.540000,0.060000,4.000000,0.010000,1.732000,-2.330000,-2.676000,-0.690000,-2.470000,0.000000,0.000000,3.770000,1621678978063155158
297,36.000000,0.177732,120.000000,0.487753,180.540000,0.420000,4.000000,0.010000,2.796000,0.419000,-9.145000,-0.720000,-2.500000,0.000000,0.000000,3.780000,1621678978081255473
298,36.000000,0.177732,120.000000,0.487753,180.540000,0.350000,4.000000,0.010000,-0.618000,5.282000,1.351000,-0.750000,-2.560000,0.000000,0.000000,3.790000,1621678978101244202
299,36.000000,0.177732,120.000000,0.487753,180.540000,-0.090000,4.000000,0.010000,4.231000,4.771000,-3.878000,-0.800000,-2.490000,0.000000,0.000000,3.810000,1621678978121068487
300,36.000000,0.177732,120.000000,0.487753,180.540000,-0.090000,4.000000,0.010000,0.774000,1.984000,-14.548000,-0.780000,-2.620000,0.000000,0.000000,3.840000,1621678978141147166
301,36.000000,0.177732,120.000000,0.487753,180.540000,-0.060000,4.000000,0.010000,1.179000,-6.538000,-13.086000,-0.760000,-2.670000,0.000000,0.000000,3.820000,1621678978161291669
302,36.000000,0.177732,120.000000,0.487753,180.540000,0.290000,4.000000,0.010000,0.636000,-1.735000,-10.147000,-0.700000,-2.650000,0.000000,0.000000,3.810000,1621678978181078674
303,36.000000,0.177732,120.000000,0.487753,180.540000,-0.190000,4.000000,0.100000,-2.785000,-5.986000,-15.373000,-0.670000,-2.670000,0.000000,0.010000,3.830000,1621678978201002765
304,36.000000,0.177732,120.000000,0.487753,180.540000,0.030000,4.000000,0.100000,1.660000,3.866000,-14.092000,-0.630000,-2.800000,0.000000,0.040000,3.850000,1621678978221202242
305,36.000000,0.177732,120.000000,0.487753,180.540000,-0.200000,4.000000,0.110000,2.152000,2.808000,-4.089000,-0.590000,-2.810000,0.000000,0.060000,3.850000,1621678978241143356
306,36.000000,0.177732,120.000000,0.487753,180.280000,0.280000,4.000000,0.110000,4.466000,-0.793000,-9.436000,-0.510000,-2.810000,-0.010000,0.140000,3.840000,1621678978261315539
307,36.000000,0.177732,120.000000,0.487753,180.200000,0.230000,4.000000,0.110000,1.170000,1.146000,-11.993000,-0.490000,-2.790000,-0.010000,0.170000,3.810000,1621678978281119439
308,36.000000,0.177732,120.000000,0.487753,180.110000,-0.280000,4.000000,0.100000,0.403000,-2.544000,-10.812000,-0.430000,-2.840000,-0.010000,0.180000,3.820000,1621678978301156296
309,36.000000,0.177732,120.000000,0.487753,180.110000,-0.080000,4.000000,0.100000,1.420000,-4.322000,-13.215000,-0.430000,-2.850000,-0.010000,0.180000,3.880000,1621678978321177953
310,36.000000,0.177732,120.000000,0.487753,180.130000,-0.340000,4.000000,0.200000,-0.332000,8.325000,-7.243000,-0.350000,-2.900000,-0.010000,0.230000,3.820000,1621678978341135483
311,36.000000,0.177732,120.000000,0.487753,180.140000,-0.260000,4.000000,0.200000,2.478000,1.616000,-8.784000,-0.320000,-2.930000,-0.010000,0.220000,3.850000,1621678978361167763
312,36.000000,0.177732,120.000000,0.487753,180.190000,-0.030000,4.000000,0.200000,4.619000,10.780000,8.547000,-0.270000,-2.830000,-0.010000,0.250000,3.830000,1621678978381077230
313,36.000000,0.177732,120.000000,0.487753,180.230000,-0.590000,4.000000,0.200000,-1.752000,3.427000,-9.378000,-0.240000,-2.900000,-0.010000,0.240000,3.840000,1621678978401091975
314,36.000000,0.177731,120.000000,0.487753,180.330000,-0.020000,4.000000,0.200000,3.708000,6.205000,-3.334000,-0.190000,-2.870000,-0.010000,0.230000,3.900000,1621678978421021889
315,36.000000,0.177731,120.000000,0.487753,180.370000,-0.020000,4.000000,0.350000,3.708000,6.204000,-3.337000,-0.180000,-2.770000,-0.010000,0.290000,3.880000,1621678978441060794
316,36.000000,0.177731,120.000000,0.487753,180.360000,-0.520000,4.000000,0.350000,-0.035000,-1.504000,-8.151000,-0.150000,-2.750000,-0.010000,0.320000,3.830000,1621678978462060481
317,36.000000,0.177731,120.000000,0.487753,180.350000,-0.290000,4.000000,0.470000,1.304000,-4.941000,-12.681000,-0.100000,-2.700000,-0.010000,0.350000,3.800000,1621678978478930578
318,36.000000,0.177731,120.000000,0.487753,180.340000,-0.370000,4.000000,0.470000,1.373000,-0.480000,-10.329000,-0.090000,-2.760000,-0.010000,0.420000,3.850000,1621678978501188611
319,36.000000,0.177731,120.000000,0.487753,180.310000,-0.210000,4.000000,0.470000,0.966000,-1.413000,-9.957000,-0.050000,-2.710000,-0.010000,0.470000,3.810000,1621678978521063551
320,36.000000,0.177731,120.000000,0.487753,180.300000,-0.520000,4.000000,0.570000,-0.581000,-2.778000,-9.090000,-0.040000,-2.730000,-0.010000,0.460000,3.780000,1621678978540985657
321,36.000000,0.177731,120.000000,0.487753,180.250000,-0.330000,4.000000,0.570000,2.496000,-0.343000,-8.143000,-0.010000,-2.720000,-0.010000,0.460000,3.810000,1621678978561368555
322,36.000000,0.177731,120.000000,0.487753,180.230000,-0.530000,4.000000,0.570000,0.834000,-1.832000,-7.121000,-0.030000,-2.700000,-0.010000,0.510000,3.840000,1621678978581308646
323,36.000000,0.177731,120.000000,0.487753,180.200000,-0.380000,4.000000,0.590000,-1.504000,-3.308000,-12.792000,-0.070000,-2.700000,-0.010000,0.540000,3.860000,1621678978601189633
324,36.000000,0.177731,120.000000,0.487753,180.190000,-0.490000,4.000000,0.590000,0.528000,2.762000,-6.441000,-0.050000,-2.730000,-0.010000,0.560000,3.890000,1621678978621258553
325,36.000000,0.177731,120.000000,0.487753,180.160000,-0.310000,4.000000,0.700000,1.224000,2.081000,-9.836000,-0.020000,-2.740000,-0.010000,0.580000,3.870000,1621678978641089237
326,36.000000,0.177730,120.000000,0.487753,180.110000,0.030000,4.000000,0.700000,-1.184000,-1.845000,-8.393000,-0.080000,-2.790000,-0.010000,0.650000,3.930000,1621678978661234444
327,36.000000,0.177730,120.000000,0.487753,180.100000,-0.150000,4.000000,0.700000,-0.324000,2.318000,-5.324000,-0.100000,-2.740000,-0.010000,0.660000,3.900000,1621678978681131879
328,36.000000,0.177730,120.000000,0.487753,180.060000,-0.650000,4.000000,0.760000,2.065000,2.477000,-7.694000,-0.150000,-2.770000,-0.010000,0.700000,3.960000,1621678978701137056
329,36.000000,0.177730,120.000000,0.487753,180.050000,-0.870000,4.000000,0.760000,-1.175000,7.654000,-2.081000,-0.170000,-2.780000,-0.010000,0.720000,3.930000,1621678978721092666
330,36.000000,0.177730,120.000000,0.487753,179.990000,-0.850000,4.000000,0.720000,-0.264000,0.993000,-7.619000,-0.210000,-2.900000,0.000000,0.720000,3.980000,1621678978741081395
331,36.000000,0.177730,120.000000,0.487753,179.970000,-0.720000,4.000000,0.720000,-1.032000,5.500000,-5.070000,-0.230000,-2.850000,0.000000,0.720000,3.920000,1621678978761136555
332,36.000000,0.177729,120.000000,0.487753,179.900000,-0.320000,4.000000,0.770000,2.757000,3.587000,-6.972000,-0.280000,-2.980000,0.000000,0.730000,3.970000,1621678978781085830
333,36.000000,0.177729,120.000000,0.487753,179.880000,-0.070000,4.000000,0.770000,0.845000,3.198000,-1.417000,-0.300000,-2.880000,0.000000,0.770000,3.910000,1621678978806475742
334,36.000000,0.177729,120.000000,0.487753,179.840000,-0.530000,4.000000,0.770000,-1.705000,0.418000,-8.174000,-0.300000,-2.750000,0.000000,0.740000,3.960000,1621678978820499970
335,36.000000,0.177729,120.000000,0.487753,179.820000,0.240000,4.000000,0.830000,2.191000,2.969000,-5.402000,-0.320000,-2.720000,-0.010000,0.760000,3.920000,1621678978841132816
336,36.000000,0.177729,120.000000,0.487753,179.780000,-0.460000,4.000000,0.830000,-0.450000,3.654000,-7.138000,-0.350000,-2.740000,-0.010000,0.780000,3.930000,1621678978861005132
337,36.000000,0.177729,120.000000,0.487753,179.730000,-0.590000,4.000000,0.830000,3.592000,7.403000,-2.338000,-0.390000,-2.720000,-0.010000,0.860000,3.850000,1621678978880923878
