frame,pgsnh,gpsnl,gpseh,gpsel,heading_angle,yaw_rate,gps_state,gps_velocity,acceleration_forward,acceleration_lateral,acceleration_down,pitch_angle,velocity_down,velocity_lateral,velocity_forward,roll_angle,timestamp
1,36.000000,0.177778,120.000000,0.487609,181.830000,-0.520000,4.000000,0.020000,-1.822000,-4.283000,-5.142000,-8.280000,-3.190000,0.000000,0.000000,-3.050000,1616480997128826752
2,36.000000,0.177778,120.000000,0.487609,181.830000,1.150000,4.000000,0.020000,8.039000,1.738000,-10.927000,-9.720000,-3.210000,0.000000,0.000000,-3.080000,1616480997148983488
3,36.000000,0.177778,120.000000,0.487609,181.830000,-0.620000,4.000000,0.000000,-3.253000,-2.897000,-12.068000,-6.560000,-3.210000,0.000000,0.000000,-3.030000,1616480997168932768
4,36.000000,0.177778,120.000000,0.487609,181.830000,-0.290000,4.000000,0.000000,8.587000,0.362000,-11.768000,-10.870000,-3.240000,0.000000,0.000000,-3.060000,1616480997188904224
5,36.000000,0.177778,120.000000,0.487609,181.830000,-0.790000,4.000000,0.020000,3.657000,1.353000,-3.187000,-0.820000,-3.180000,0.000000,0.000000,-3.090000,1616480997208937952
6,36.000000,0.177778,120.000000,0.487609,181.830000,0.340000,4.000000,0.020000,5.803000,-0.496000,-11.439000,-2.280000,-3.150000,0.000000,0.000000,-3.100000,1616480997228808480
7,36.000000,0.177778,120.000000,0.487609,181.830000,-0.520000,4.000000,0.020000,-2.740000,-3.446000,-3.767000,4.780000,-3.080000,0.000000,0.000000,-3.100000,1616480997248878048
8,36.000000,0.177778,120.000000,0.487609,181.830000,0.760000,4.000000,0.020000,3.872000,-1.436000,-10.483000,0.770000,-3.090000,0.000000,0.000000,-3.130000,1616480997268973952
9,36.000000,0.177778,120.000000,0.487609,181.830000,-0.390000,4.000000,0.020000,-3.188000,-3.162000,-8.628000,1.410000,-3.170000,0.000000,0.000000,-3.120000,1616480997289028032
10,36.000000,0.177778,120.000000,0.487609,181.830000,1.060000,4.000000,0.010000,3.407000,-2.487000,-9.701000,-2.610000,-3.170000,0.000000,0.000000,-3.130000,1616480997309258176
11,36.000000,0.177778,120.000000,0.487609,181.830000,-0.490000,4.000000,0.010000,-5.086000,-2.326000,-12.695000,0.130000,-3.260000,0.000000,0.000000,-3.110000,1616480997329029344
12,36.000000,0.177778,120.000000,0.487609,181.830000,0.020000,4.000000,0.010000,1.182000,-3.371000,-6.513000,-6.130000,-3.230000,0.000000,0.000000,-3.110000,1616480997349121280
13,36.000000,0.177778,120.000000,0.487609,181.830000,-0.240000,4.000000,0.010000,-4.605000,-1.525000,-15.867000,-2.250000,-3.270000,0.000000,0.000000,-3.100000,1616480997369021888
14,36.000000,0.177778,120.000000,0.487609,181.830000,0.210000,4.000000,0.010000,-0.382000,-3.395000,-3.049000,-7.550000,-3.200000,0.000000,0.000000,-3.120000,1616480997388869760
15,36.000000,0.177778,120.000000,0.487609,181.830000,-0.250000,4.000000,0.020000,-4.888000,-0.984000,-17.642000,-3.000000,-3.260000,0.000000,0.000000,-3.100000,1616480997408968160
16,36.000000,0.177778,120.000000,0.487609,181.830000,0.710000,4.000000,0.020000,0.194000,-4.287000,-11.090000,-9.710000,-3.270000,0.000000,0.000000,-3.090000,1616480997428974048
17,36.000000,0.177778,120.000000,0.487609,181.830000,-0.020000,4.000000,0.020000,-5.674000,-0.769000,-16.302000,-0.350000,-3.310000,0.000000,0.000000,-3.080000,1616480997448953536
18,36.000000,0.177778,120.000000,0.487609,181.830000,-0.020000,4.000000,0.020000,-5.674000,-0.769000,-16.302000,-0.350000,-3.310000,0.000000,0.000000,-3.080000,1616480997468992768
19,36.000000,0.177778,120.000000,0.487609,181.830000,-0.710000,4.000000,0.000000,1.404000,2.065000,-2.762000,4.350000,-3.250000,0.000000,0.000000,-3.070000,1616480997488846016
20,36.000000,0.177778,120.000000,0.487609,181.830000,1.370000,4.000000,0.010000,0.685000,-3.329000,-4.536000,-1.030000,-3.250000,0.000000,0.000000,-3.020000,1616480997508994272
21,36.000000,0.177778,120.000000,0.487609,181.830000,-0.220000,4.000000,0.010000,3.480000,2.358000,-7.658000,6.420000,-3.240000,0.000000,0.000000,-3.040000,1616480997528920032
22,36.000000,0.177778,120.000000,0.487609,181.830000,1.240000,4.000000,0.010000,-1.102000,-5.355000,-3.474000,-1.280000,-3.230000,0.000000,0.000000,-2.990000,1616480997548897312
23,36.000000,0.177778,120.000000,0.487609,181.830000,0.330000,4.000000,0.010000,5.112000,1.495000,-10.254000,5.670000,-3.240000,0.000000,0.000000,-3.010000,1616480997569431072
24,36.000000,0.177778,120.000000,0.487609,181.830000,0.880000,4.000000,0.010000,4.229000,-2.393000,-10.952000,-3.660000,-3.280000,0.000000,0.000000,-2.950000,1616480997588997376
25,36.000000,0.177778,120.000000,0.487609,181.830000,-0.720000,4.000000,0.010000,1.474000,2.277000,-3.031000,1.300000,-3.210000,0.000000,0.000000,-2.980000,1616480997609235904
26,36.000000,0.177778,120.000000,0.487609,181.830000,-0.090000,4.000000,0.000000,2.160000,-2.546000,-7.257000,-9.390000,-3.250000,0.000000,0.000000,-2.880000,1616480997628891648
27,36.000000,0.177778,120.000000,0.487609,181.830000,-0.160000,4.000000,0.000000,3.631000,2.039000,-4.163000,-6.390000,-3.200000,0.000000,0.000000,-2.900000,1616480997649068064
28,36.000000,0.177778,120.000000,0.487609,181.830000,1.270000,4.000000,0.020000,6.285000,-1.219000,-9.142000,-11.610000,-3.270000,0.000000,0.000000,-2.830000,1616480997668943008
29,36.000000,0.177778,120.000000,0.487609,181.830000,-0.300000,4.000000,0.020000,5.963000,0.563000,-7.691000,-4.110000,-3.250000,0.000000,0.000000,-2.830000,1616480997688988096
30,36.000000,0.177778,120.000000,0.487609,181.830000,1.070000,4.000000,0.020000,4.085000,-2.130000,-10.551000,-5.180000,-3.330000,0.000000,0.000000,-2.770000,1616480997708971840
31,36.000000,0.177778,120.000000,0.487609,181.830000,1.070000,4.000000,0.020000,4.085000,-2.130000,-10.551000,-5.180000,-3.330000,0.000000,0.000000,-2.770000,1616480997728973312
32,36.000000,0.177778,120.000000,0.487609,181.830000,0.640000,4.000000,0.020000,1.791000,-1.953000,-10.287000,-2.680000,-3.270000,0.000000,0.000000,-2.730000,1616480997748816032
33,36.000000,0.177778,120.000000,0.487609,181.830000,-0.480000,4.000000,0.020000,5.926000,1.252000,-10.290000,-0.660000,-3.280000,0.000000,0.000000,-2.730000,1616480997768893056
34,36.000000,0.177778,120.000000,0.487609,181.830000,0.260000,4.000000,0.020000,0.025000,-3.707000,-8.333000,-0.360000,-3.210000,0.000000,0.000000,-2.660000,1616480997788807808
35,36.000000,0.177778,120.000000,0.487609,181.830000,-0.490000,4.000000,0.020000,6.119000,-0.367000,-9.817000,-0.380000,-3.210000,0.000000,0.000000,-2.670000,1616480997808887648
36,36.000000,0.177778,120.000000,0.487609,181.830000,-0.410000,4.000000,0.020000,-2.814000,-4.927000,-5.817000,1.120000,-3.250000,0.000000,0.000000,-2.590000,1616480997828846976
37,36.000000,0.177778,120.000000,0.487609,181.830000,-0.730000,4.000000,0.020000,4.531000,-2.560000,-9.469000,-2.360000,-3.240000,0.000000,0.000000,-2.570000,1616480997848923552
38,36.000000,0.177778,120.000000,0.487609,181.830000,-0.700000,4.000000,0.020000,-3.381000,-3.590000,-5.748000,-5.390000,-3.260000,0.000000,0.000000,-2.510000,1616480997869139424
39,36.000000,0.177778,120.000000,0.487609,181.830000,-0.720000,4.000000,0.020000,4.147000,-1.791000,-9.573000,-4.250000,-3.260000,0.000000,0.000000,-2.520000,1616480997889043616
40,36.000000,0.177778,120.000000,0.487609,181.830000,-0.820000,4.000000,0.020000,-4.021000,-2.271000,-10.219000,-8.990000,-3.260000,0.000000,0.000000,-2.420000,1616480997909699840
41,36.000000,0.177778,120.000000,0.487609,181.830000,-0.170000,4.000000,0.020000,8.701000,0.660000,-7.645000,-2.990000,-3.250000,0.000000,0.000000,-2.430000,1616480997928934880
42,36.000000,0.177778,120.000000,0.487609,181.830000,0.170000,4.000000,0.020000,-5.212000,-2.831000,-12.317000,-2.720000,-3.260000,0.000000,0.000000,-2.370000,1616480997949104480
43,36.000000,0.177778,120.000000,0.487609,181.830000,0.020000,4.000000,0.010000,7.519000,-0.723000,-9.197000,-0.210000,-3.260000,0.000000,0.000000,-2.400000,1616480997969151136
44,36.000000,0.177778,120.000000,0.487609,181.830000,-0.420000,4.000000,0.010000,-3.338000,2.105000,-12.130000,6.670000,-3.240000,0.000000,0.000000,-2.410000,1616480997988949728
45,36.000000,0.177778,120.000000,0.487609,181.830000,0.510000,4.000000,0.000000,3.933000,-1.811000,-10.403000,3.270000,-3.190000,0.000000,0.000000,-2.370000,1616480998008814144
46,36.000000,0.177778,120.000000,0.487609,181.830000,-0.730000,4.000000,0.000000,-0.964000,2.461000,-9.539000,11.370000,-3.190000,0.000000,0.000000,-2.400000,1616480998028949120
47,36.000000,0.177778,120.000000,0.487609,181.830000,0.940000,4.000000,0.000000,1.450000,-2.057000,-10.161000,4.220000,-3.170000,0.000000,0.000000,-2.340000,1616480998048994016
48,36.000000,0.177778,120.000000,0.487609,181.830000,-0.470000,4.000000,0.000000,-8.040000,0.689000,-12.431000,11.740000,-3.220000,0.000000,0.000000,-2.340000,1616480998069118688
49,36.000000,0.177778,120.000000,0.487609,181.830000,1.000000,4.000000,0.000000,6.965000,0.017000,-9.743000,-3.170000,-3.230000,0.000000,0.000000,-2.300000,1616480998089137120
50,36.000000,0.177778,120.000000,0.487609,181.830000,-0.170000,4.000000,0.010000,-5.060000,0.858000,-13.738000,5.670000,-3.270000,0.000000,0.000000,-2.330000,1616480998109094464
51,36.000000,0.177778,120.000000,0.487609,181.830000,-0.040000,4.000000,0.010000,5.624000,1.973000,-4.462000,-6.460000,-3.220000,0.000000,0.000000,-2.320000,1616480998129023296
52,36.000000,0.177778,120.000000,0.487609,181.830000,-0.600000,4.000000,0.010000,-2.222000,2.483000,-12.080000,1.100000,-3.240000,0.000000,0.000000,-2.340000,1616480998149036576
53,36.000000,0.177778,120.000000,0.487609,181.830000,0.590000,4.000000,0.010000,8.238000,1.063000,-8.370000,-12.130000,-3.250000,0.000000,0.000000,-2.290000,1616480998169931456
54,36.000000,0.177778,120.000000,0.487609,181.830000,-0.390000,4.000000,0.010000,1.336000,2.097000,-9.146000,-1.690000,-3.240000,0.000000,0.000000,-2.320000,1616480998189119232
55,36.000000,0.177778,120.000000,0.487609,181.830000,0.820000,4.000000,0.000000,7.077000,0.507000,-10.145000,-3.300000,-3.300000,0.000000,0.000000,-2.290000,1616480998209125568
56,36.000000,0.177778,120.000000,0.487609,181.830000,-0.410000,4.000000,0.000000,1.831000,1.988000,-4.957000,5.660000,-3.250000,0.000000,0.000000,-2.340000,1616480998229006688
57,36.000000,0.177778,120.000000,0.487609,181.830000,1.250000,4.000000,0.000000,6.781000,0.215000,-10.106000,-0.370000,-3.290000,0.000000,0.000000,-2.350000,1616480998249184032
58,36.000000,0.177778,120.000000,0.487609,181.830000,-0.800000,4.000000,0.000000,4.067000,1.769000,-4.511000,8.380000,-3.230000,0.000000,0.000000,-2.400000,1616480998268983040
59,36.000000,0.177778,120.000000,0.487609,181.830000,1.310000,4.000000,0.000000,4.345000,-1.431000,-11.030000,2.630000,-3.230000,0.000000,0.000000,-2.430000,1616480998289006688
60,36.000000,0.177778,120.000000,0.487609,181.830000,-0.710000,4.000000,0.010000,5.007000,2.003000,-7.227000,8.040000,-3.200000,0.000000,0.000000,-2.490000,1616480998308968896
61,36.000000,0.177778,120.000000,0.487609,181.830000,1.120000,4.000000,0.010000,2.690000,-3.290000,-10.621000,-3.510000,-3.240000,0.000000,0.000000,-2.510000,1616480998329068896
62,36.000000,0.177778,120.000000,0.487609,181.830000,-0.280000,4.000000,0.020000,6.888000,-0.139000,-10.031000,-0.410000,-3.240000,0.000000,0.000000,-2.540000,1616480998349161472
63,36.000000,0.177778,120.000000,0.487609,181.830000,0.270000,4.000000,0.020000,1.171000,-3.230000,-10.570000,-5.520000,-3.290000,0.000000,0.000000,-2.550000,1616480998368884768
64,36.000000,0.177778,120.000000,0.487609,181.830000,-0.350000,4.000000,0.020000,4.668000,1.335000,-3.800000,1.860000,-3.230000,0.000000,0.000000,-2.610000,1616480998389064512
65,36.000000,0.177778,120.000000,0.487609,181.830000,-0.160000,4.000000,0.010000,-0.447000,-2.446000,-8.656000,-9.660000,-3.270000,0.000000,0.000000,-2.590000,1616480998408924064
66,36.000000,0.177778,120.000000,0.487609,181.830000,-0.180000,4.000000,0.010000,6.046000,0.349000,-4.131000,-1.490000,-3.220000,0.000000,0.000000,-2.630000,1616480998429048544
67,36.000000,0.177778,120.000000,0.487609,181.830000,0.890000,4.000000,0.010000,5.224000,-0.698000,-10.979000,-8.670000,-3.310000,0.000000,0.000000,-2.620000,1616480998449055616
68,36.000000,0.177778,120.000000,0.487609,181.830000,-0.420000,4.000000,0.010000,5.674000,1.126000,-8.776000,4.320000,-3.300000,0.000000,0.000000,-2.660000,1616480998469217056
69,36.000000,0.177778,120.000000,0.487609,181.830000,-0.440000,4.000000,0.010000,-6.468000,-0.717000,-14.840000,2.770000,-3.340000,0.000000,0.000000,-2.630000,1616480998489021408
70,36.000000,0.177778,120.000000,0.487609,181.830000,-0.420000,4.000000,0.040000,6.012000,0.335000,-10.589000,6.020000,-3.350000,0.000000,0.000000,-2.670000,1616480998508990272
71,36.000000,0.177778,120.000000,0.487609,181.830000,-0.460000,4.000000,0.040000,-4.240000,-3.464000,-6.812000,6.740000,-3.300000,0.000000,0.010000,-2.630000,1616480998529246016
72,36.000000,0.177778,120.000000,0.487609,181.830000,-0.660000,4.000000,0.040000,4.518000,0.743000,-11.379000,8.250000,-3.310000,0.000000,0.010000,-2.690000,1616480998551506112
73,36.000000,0.177778,120.000000,0.487609,181.830000,-0.630000,4.000000,0.020000,-5.655000,-1.815000,-9.375000,8.320000,-3.250000,0.000000,0.000000,-2.660000,1616480998569484096
74,36.000000,0.177778,120.000000,0.487609,181.830000,-0.420000,4.000000,0.020000,1.272000,1.210000,-13.462000,7.610000,-3.280000,0.000000,0.000000,-2.700000,1616480998589677984
75,36.000000,0.177778,120.000000,0.487609,181.830000,-0.250000,4.000000,0.020000,-7.473000,-1.746000,-13.887000,9.620000,-3.330000,0.000000,0.000000,-2.660000,1616480998612700320
76,36.000000,0.177778,120.000000,0.487609,181.830000,-0.610000,4.000000,0.020000,-2.156000,1.856000,-8.154000,6.250000,-3.280000,0.000000,0.000000,-2.720000,1616480998628193536
77,36.000000,0.177778,120.000000,0.487609,181.830000,-0.260000,4.000000,0.020000,-7.126000,-0.599000,-17.523000,3.580000,-3.350000,0.000000,0.000000,-2.670000,1616480998650386688
78,36.000000,0.177778,120.000000,0.487609,181.830000,-0.730000,4.000000,0.020000,1.879000,1.659000,-4.644000,-2.160000,-3.270000,0.000000,0.000000,-2.670000,1616480998668243968
79,36.000000,0.177778,120.000000,0.487609,181.830000,-0.510000,4.000000,0.020000,-5.436000,0.763000,-17.191000,0.350000,-3.340000,0.000000,0.000000,-2.630000,1616480998691263392
80,36.000000,0.177778,120.000000,0.487609,181.830000,-0.510000,4.000000,0.020000,-5.436000,0.763000,-17.191000,0.350000,-3.340000,0.000000,0.000000,-2.630000,1616480998708475328
81,36.000000,0.177778,120.000000,0.487609,181.830000,-0.620000,4.000000,0.020000,-5.084000,2.038000,-12.787000,3.740000,-3.310000,0.000000,0.000000,-2.620000,1616480998728262624
82,36.000000,0.177778,120.000000,0.487609,181.830000,0.140000,4.000000,0.020000,5.001000,0.718000,-7.660000,-0.970000,-3.330000,0.000000,0.000000,-2.590000,1616480998750386624
83,36.000000,0.177778,120.000000,0.487609,181.830000,-0.350000,4.000000,0.050000,-3.097000,0.953000,-10.740000,1.670000,-3.330000,0.000000,0.010000,-2.560000,1616480998768598368
84,36.000000,0.177778,120.000000,0.487609,181.830000,0.990000,4.000000,0.050000,4.439000,-1.634000,-11.305000,-0.810000,-3.300000,0.000000,0.010000,-2.570000,1616480998788339680
85,36.000000,0.177778,120.000000,0.487609,181.830000,-0.830000,4.000000,0.020000,-1.141000,1.636000,-6.352000,10.950000,-3.250000,0.000000,0.000000,-2.620000,1616480998810413888
86,36.000000,0.177778,120.000000,0.487609,181.830000,0.450000,4.000000,0.020000,1.291000,-2.167000,-10.495000,2.850000,-3.220000,0.000000,0.000000,-2.580000,1616480998828565984
87,36.000000,0.177778,120.000000,0.487609,181.830000,-0.620000,4.000000,0.010000,-7.189000,0.863000,-13.414000,10.840000,-3.280000,0.000000,0.000000,-2.610000,1616480998848348192
88,36.000000,0.177778,120.000000,0.487609,181.830000,-0.100000,4.000000,0.010000,1.156000,-2.327000,-8.597000,-2.100000,-3.270000,0.000000,0.000000,-2.580000,1616480998870658944
89,36.000000,0.177778,120.000000,0.487609,181.830000,-0.230000,4.000000,0.010000,0.683000,-3.141000,-4.431000,-5.980000,-3.280000,0.000000,0.000000,-2.570000,1616480998901932896
90,36.000000,0.177778,120.000000,0.487609,181.830000,-0.230000,4.000000,0.010000,0.683000,-3.141000,-4.431000,-5.980000,-3.280000,0.000000,0.000000,-2.570000,1616480998912363904
91,36.000000,0.177778,120.000000,0.487609,181.830000,-0.130000,4.000000,0.020000,-5.260000,-1.417000,-18.158000,-1.520000,-3.250000,0.000000,0.000000,-2.570000,1616480998930346784
92,36.000000,0.177778,120.000000,0.487609,181.830000,-0.590000,4.000000,0.020000,-0.925000,-4.708000,-4.058000,-8.390000,-3.270000,0.000000,0.000000,-2.560000,1616480998950296448
93,36.000000,0.177778,120.000000,0.487609,181.830000,-0.390000,4.000000,0.020000,-5.690000,0.938000,-17.728000,-0.490000,-3.200000,0.000000,0.000000,-2.610000,1616480998970294240
94,36.000000,0.177778,120.000000,0.487609,181.830000,0.380000,4.000000,0.020000,-2.335000,-2.311000,-9.810000,-7.710000,-3.270000,0.000000,0.000000,-2.590000,1616480998990292672
95,36.000000,0.177778,120.000000,0.487609,181.830000,-0.480000,4.000000,0.010000,-4.710000,1.158000,-13.591000,1.910000,-3.220000,0.000000,0.000000,-2.660000,1616480999010913280
96,36.000000,0.177778,120.000000,0.487609,181.830000,-0.050000,4.000000,0.010000,0.914000,-3.935000,-6.278000,-3.620000,-3.220000,0.000000,0.000000,-2.630000,1616480999028346976
97,36.000000,0.177778,120.000000,0.487609,181.830000,-0.200000,4.000000,0.020000,-5.205000,1.054000,-14.728000,8.230000,-3.190000,0.000000,0.000000,-2.690000,1616480999050299328
98,36.000000,0.177778,120.000000,0.487609,181.830000,-0.350000,4.000000,0.020000,-1.080000,-3.926000,-2.800000,2.980000,-3.180000,0.000000,0.000000,-2.700000,1616480999070450208
99,36.000000,0.177778,120.000000,0.487609,181.830000,-0.020000,4.000000,0.020000,-8.641000,-0.883000,-14.876000,12.050000,-3.260000,0.000000,0.000000,-2.760000,1616480999088331776
100,36.000000,0.177778,120.000000,0.487609,181.830000,-0.460000,4.000000,0.000000,-2.749000,-3.900000,-5.384000,3.010000,-3.220000,0.000000,0.000000,-2.750000,1616480999110373792
101,36.000000,0.177778,120.000000,0.487609,181.830000,-0.150000,4.000000,0.000000,-6.681000,0.608000,-13.468000,8.220000,-3.280000,0.000000,0.000000,-2.780000,1616480999130274560
102,36.000000,0.177778,120.000000,0.487609,181.830000,-0.440000,4.000000,0.000000,-3.489000,-2.341000,-8.787000,0.850000,-3.270000,0.000000,0.000000,-2.760000,1616480999150058464
103,36.000000,0.177778,120.000000,0.487609,181.830000,-0.280000,4.000000,0.020000,-3.445000,1.504000,-13.140000,2.540000,-3.250000,0.000000,0.000000,-2.790000,1616480999170357088
104,36.000000,0.177778,120.000000,0.487609,181.830000,-0.340000,4.000000,0.020000,-3.873000,-1.387000,-12.122000,-1.380000,-3.270000,0.000000,0.000000,-2.770000,1616480999190286816
105,36.000000,0.177778,120.000000,0.487609,181.830000,-0.780000,4.000000,0.000000,-2.504000,1.122000,-12.443000,-1.250000,-3.230000,0.000000,0.000000,-2.790000,1616480999210351488
106,36.000000,0.177778,120.000000,0.487609,181.830000,0.890000,4.000000,0.000000,-4.002000,-1.220000,-15.702000,-9.820000,-3.280000,0.000000,0.000000,-2.760000,1616480999230355072
107,36.000000,0.177778,120.000000,0.487609,181.830000,-0.550000,4.000000,0.000000,-1.271000,0.422000,-7.763000,3.150000,-3.280000,0.000000,0.000000,-2.790000,1616480999250392864
108,36.000000,0.177778,120.000000,0.487609,181.830000,0.680000,4.000000,0.020000,-5.582000,-0.882000,-18.284000,1.520000,-3.360000,0.000000,0.000000,-2.770000,1616480999268356032
109,36.000000,0.177778,120.000000,0.487609,181.830000,-0.980000,4.000000,0.020000,-0.153000,1.537000,-3.195000,4.970000,-3.300000,0.000000,0.000000,-2.810000,1616480999291200352
110,36.000000,0.177778,120.000000,0.487609,181.830000,-0.050000,4.000000,0.020000,-4.483000,-2.123000,-8.616000,-1.400000,-3.290000,0.000000,0.000000,-2.770000,1616480999308352352
111,36.000000,0.177778,120.000000,0.487609,181.830000,1.300000,4.000000,0.020000,4.770000,0.909000,-12.043000,-0.040000,-3.290000,0.000000,0.000000,-2.770000,1616480999330383136
112,36.000000,0.177778,120.000000,0.487609,181.830000,-0.170000,4.000000,0.000000,-6.047000,-1.494000,-12.430000,0.680000,-3.260000,0.000000,0.000000,-2.760000,1616480999350429984
113,36.000000,0.177778,120.000000,0.487609,181.830000,1.300000,4.000000,0.000000,4.611000,0.029000,-13.221000,1.050000,-3.240000,0.000000,0.000000,-2.770000,1616480999368425952
114,36.000000,0.177778,120.000000,0.487609,181.830000,-0.340000,4.000000,0.000000,-1.166000,-3.829000,-2.786000,-5.050000,-3.300000,0.000000,0.000000,-2.750000,1616480999388386400
115,36.000000,0.177778,120.000000,0.487609,181.830000,1.120000,4.000000,0.020000,4.681000,-1.060000,-11.524000,-5.690000,-3.250000,0.000000,0.000000,-2.770000,1616480999408337280
116,36.000000,0.177778,120.000000,0.487609,181.830000,-0.270000,4.000000,0.020000,-0.549000,-2.695000,-7.306000,-7.970000,-3.280000,0.000000,0.000000,-2.740000,1616480999430333600
117,36.000000,0.177778,120.000000,0.487609,181.830000,1.330000,4.000000,0.020000,5.024000,-1.619000,-11.437000,-8.500000,-3.270000,0.000000,0.000000,-2.760000,1616480999450412640
118,36.000000,0.177778,120.000000,0.487609,181.830000,-0.320000,4.000000,0.010000,-2.035000,-2.281000,-11.916000,-6.050000,-3.240000,0.000000,0.000000,-2.710000,1616480999468338432
119,36.000000,0.177778,120.000000,0.487609,181.830000,1.130000,4.000000,0.010000,6.385000,-0.588000,-11.253000,-8.790000,-3.280000,0.000000,0.000000,-2.720000,1616480999490290208
120,36.000000,0.177778,120.000000,0.487609,181.830000,-0.410000,4.000000,0.020000,-3.402000,-1.825000,-14.523000,-2.380000,-3.250000,0.000000,0.000000,-2.670000,1616480999510182432
121,36.000000,0.177778,120.000000,0.487609,181.830000,0.880000,4.000000,0.020000,5.348000,-0.836000,-11.578000,-6.740000,-3.320000,0.000000,0.000000,-2.680000,1616480999530254272
122,36.000000,0.177778,120.000000,0.487609,181.830000,-0.640000,4.000000,0.020000,-0.603000,-3.066000,-3.745000,0.090000,-3.270000,0.000000,0.000000,-2.620000,1616480999550301024
123,36.000000,0.177778,120.000000,0.487609,181.830000,0.690000,4.000000,0.020000,3.514000,-0.724000,-11.090000,-0.630000,-3.230000,0.000000,0.000000,-2.630000,1616480999570348384
124,36.000000,0.177778,120.000000,0.487609,181.830000,-0.570000,4.000000,0.020000,-2.717000,-3.142000,-6.923000,4.840000,-3.150000,0.000000,0.000000,-2.560000,1616480999590144416
125,36.000000,0.177778,120.000000,0.487609,181.830000,0.260000,4.000000,0.020000,2.138000,-2.442000,-9.368000,1.370000,-3.150000,0.000000,0.000000,-2.560000,1616480999610456256
126,36.000000,0.177778,120.000000,0.487609,181.830000,-0.370000,4.000000,0.020000,-4.218000,-2.025000,-12.929000,1.510000,-3.250000,0.000000,0.000000,-2.520000,1616480999628283008
127,36.000000,0.177778,120.000000,0.487609,181.830000,-0.280000,4.000000,0.020000,1.104000,-3.858000,-4.760000,-3.530000,-3.200000,0.000000,0.000000,-2.510000,1616480999650515392
128,36.000000,0.177778,120.000000,0.487609,181.830000,-0.190000,4.000000,0.010000,-4.791000,-0.915000,-16.615000,-0.360000,-3.300000,0.000000,0.000000,-2.490000,1616480999668351392
129,36.000000,0.177778,120.000000,0.487609,181.830000,0.460000,4.000000,0.010000,-0.274000,-3.874000,-4.209000,-5.900000,-3.250000,0.000000,0.000000,-2.480000,1616480999690354112
130,36.000000,0.177778,120.000000,0.487609,181.830000,-0.270000,4.000000,0.020000,-4.858000,0.371000,-17.746000,-2.400000,-3.280000,0.000000,0.000000,-2.470000,1616480999710298688
131,36.000000,0.177778,120.000000,0.487609,181.830000,1.020000,4.000000,0.020000,-0.854000,-2.419000,-6.333000,-9.690000,-3.250000,0.000000,0.000000,-2.470000,1616480999730365088
132,36.000000,0.177778,120.000000,0.487609,181.830000,-0.160000,4.000000,0.010000,-4.937000,0.306000,-15.534000,-1.150000,-3.250000,0.000000,0.000000,-2.480000,1616480999750447200
133,36.000000,0.177778,120.000000,0.487609,181.830000,1.120000,4.000000,0.010000,3.039000,-2.737000,-9.038000,-7.520000,-3.240000,0.000000,0.000000,-2.470000,1616480999768223968
134,36.000000,0.177778,120.000000,0.487609,181.830000,-0.480000,4.000000,0.010000,-5.019000,1.205000,-12.601000,4.800000,-3.230000,0.000000,0.000000,-2.560000,1616480999790412544
135,36.000000,0.177778,120.000000,0.487609,181.830000,1.120000,4.000000,0.000000,0.070000,-2.870000,-4.816000,-0.760000,-3.180000,0.000000,0.000000,-2.570000,1616480999808404640
136,36.000000,0.177778,120.000000,0.487609,181.830000,0.140000,4.000000,0.000000,2.892000,0.957000,-8.482000,4.580000,-3.180000,0.000000,0.000000,-2.600000,1616480999828381632
137,36.000000,0.177778,120.000000,0.487609,181.830000,0.690000,4.000000,0.000000,-0.620000,-2.970000,-3.181000,0.310000,-3.180000,0.000000,0.000000,-2.620000,1616480999851489760
138,36.000000,0.177778,120.000000,0.487609,181.830000,0.330000,4.000000,0.020000,2.816000,0.922000,-11.402000,4.470000,-3.210000,0.000000,0.000000,-2.630000,1616480999869624736
139,36.000000,0.177778,120.000000,0.487609,181.830000,0.620000,4.000000,0.020000,3.438000,-1.570000,-10.636000,-2.150000,-3.230000,0.000000,0.000000,-2.610000,1616480999889544352
140,36.000000,0.177778,120.000000,0.487609,181.830000,-0.600000,4.000000,0.020000,4.542000,1.400000,-13.089000,1.790000,-3.270000,0.000000,0.000000,-2.630000,1616480999909660864
141,36.000000,0.177778,120.000000,0.487609,181.830000,0.010000,4.000000,0.020000,2.158000,-3.267000,-7.392000,-3.150000,-3.330000,0.000000,0.000000,-2.570000,1616480999929601120
142,36.000000,0.177778,120.000000,0.487609,181.830000,-0.470000,4.000000,0.020000,2.261000,1.484000,-3.423000,-0.570000,-3.240000,0.000000,0.000000,-2.600000,1616480999949604800
143,36.000000,0.177778,120.000000,0.487609,181.830000,1.830000,4.000000,0.020000,-0.061000,-4.335000,-2.797000,-8.560000,-3.320000,0.000000,0.000000,-2.550000,1616480999969577216
144,36.000000,0.177778,120.000000,0.487609,181.830000,0.460000,4.000000,0.020000,5.871000,1.212000,-8.578000,-7.380000,-3.240000,0.000000,0.000000,-2.560000,1616480999989541216
145,36.000000,0.177778,120.000000,0.487609,181.830000,-0.080000,4.000000,0.020000,-0.995000,1.338000,-6.813000,-0.230000,-3.210000,0.000000,0.000000,-2.590000,1616481000009583840
146,36.000000,0.177778,120.000000,0.487609,181.830000,-0.080000,4.000000,0.020000,-0.995000,1.338000,-6.813000,-0.230000,-3.210000,0.000000,0.000000,-2.590000,1616481000029419584
147,36.000000,0.177778,120.000000,0.487609,181.830000,0.140000,4.000000,0.020000,2.662000,-2.792000,-7.858000,-4.400000,-3.290000,0.000000,0.000000,-2.530000,1616481000049637568
148,36.000000,0.177778,120.000000,0.487609,181.830000,1.250000,4.000000,0.020000,5.411000,0.778000,-13.212000,-1.110000,-3.300000,0.000000,0.000000,-2.540000,1616481000071542016
149,36.000000,0.177778,120.000000,0.487609,181.830000,-0.350000,4.000000,0.020000,0.793000,-3.284000,-4.850000,0.130000,-3.220000,0.000000,0.000000,-2.560000,1616481000089573568
150,36.000000,0.177778,120.000000,0.487609,181.830000,1.130000,4.000000,0.020000,4.220000,-0.213000,-13.724000,1.040000,-3.260000,0.000000,0.000000,-2.570000,1616481000109537728
151,36.000000,0.177778,120.000000,0.487609,181.830000,-0.590000,4.000000,0.020000,-1.451000,-3.622000,-4.200000,0.350000,-3.230000,0.000000,0.000000,-2.540000,1616481000129563264
152,36.000000,0.177778,120.000000,0.487609,181.830000,0.820000,4.000000,0.020000,3.297000,-1.202000,-11.252000,-1.520000,-3.250000,0.000000,0.000000,-2.540000,1616481000149538240
153,36.000000,0.177778,120.000000,0.487609,181.830000,-0.400000,4.000000,0.020000,-1.169000,-3.099000,-6.913000,-4.560000,-3.250000,0.000000,0.000000,-2.500000,1616481000169504288
154,36.000000,0.177778,120.000000,0.487609,181.830000,-0.530000,4.000000,0.020000,3.620000,-1.618000,-10.818000,-1.770000,-3.260000,0.000000,0.000000,-2.520000,1616481000189475008
155,36.000000,0.177778,120.000000,0.487609,181.830000,-0.510000,4.000000,0.020000,-1.753000,-1.856000,-9.761000,-6.900000,-3.240000,0.000000,0.000000,-2.460000,1616481000209651968
156,36.000000,0.177778,120.000000,0.487609,181.830000,-0.470000,4.000000,0.020000,6.265000,1.199000,-11.454000,-2.110000,-3.260000,0.000000,0.000000,-2.490000,1616481000229664704
157,36.000000,0.177778,120.000000,0.487609,181.830000,-0.320000,4.000000,0.020000,-2.391000,-1.728000,-13.466000,-4.720000,-3.260000,0.000000,0.000000,-2.460000,1616481000249672480
158,36.000000,0.177778,120.000000,0.487609,181.830000,-0.040000,4.000000,0.020000,6.542000,0.149000,-13.049000,-0.930000,-3.290000,0.000000,0.000000,-2.510000,1616481000269603328
159,36.000000,0.177778,120.000000,0.487609,181.830000,-0.710000,4.000000,0.020000,-5.122000,-4.320000,-2.440000,-0.180000,-3.170000,0.000000,0.000000,-2.500000,1616481000289785920
160,36.000000,0.177778,120.000000,0.487609,181.830000,0.520000,4.000000,0.020000,4.689000,-1.266000,-11.151000,-1.380000,-3.190000,0.000000,0.000000,-2.550000,1616481000309605184
161,36.000000,0.177778,120.000000,0.487609,181.830000,-0.970000,4.000000,0.020000,-0.140000,1.264000,-4.814000,4.810000,-3.150000,0.000000,0.000000,-2.600000,1616481000329574688
162,36.000000,0.177778,120.000000,0.487609,181.830000,1.140000,4.000000,0.040000,2.637000,-2.360000,-9.423000,3.500000,-3.130000,0.000000,0.000000,-2.600000,1616481000349725408
163,36.000000,0.177778,120.000000,0.487609,181.830000,-0.590000,4.000000,0.040000,-1.118000,0.543000,-13.341000,8.770000,-3.200000,0.000000,0.010000,-2.630000,1616481000369383200
164,36.000000,0.177778,120.000000,0.487609,181.830000,0.830000,4.000000,0.040000,4.057000,1.401000,-13.493000,2.420000,-3.170000,0.000000,0.010000,-2.650000,1616481000389414752
165,36.000000,0.177778,120.000000,0.487609,181.830000,-0.540000,4.000000,0.020000,-5.364000,0.089000,-11.086000,7.730000,-3.220000,0.000000,0.000000,-2.660000,1616481000410593504
166,36.000000,0.177778,120.000000,0.487609,181.830000,1.000000,4.000000,0.020000,5.221000,-1.294000,-13.407000,-2.980000,-3.220000,0.000000,0.000000,-2.660000,1616481000427304896
167,36.000000,0.177778,120.000000,0.487609,181.830000,-0.180000,4.000000,0.020000,-2.502000,-0.106000,-8.967000,2.980000,-3.250000,0.000000,0.000000,-2.700000,1616481000449322784
168,36.000000,0.177778,120.000000,0.487609,181.830000,0.400000,4.000000,0.020000,4.129000,1.233000,-10.574000,-5.480000,-3.260000,0.000000,0.000000,-2.650000,1616481000469363392
169,36.000000,0.177778,120.000000,0.487609,181.830000,-0.660000,4.000000,0.020000,-1.197000,1.604000,-4.694000,-0.810000,-3.210000,0.000000,0.000000,-2.660000,1616481000489377568
170,36.000000,0.177778,120.000000,0.487609,181.830000,-0.660000,4.000000,0.020000,-1.197000,1.604000,-4.694000,-0.810000,-3.210000,0.000000,0.000000,-2.660000,1616481000509415168
171,36.000000,0.177778,120.000000,0.487609,181.830000,-0.410000,4.000000,0.050000,1.055000,1.451000,-4.245000,-2.300000,-3.190000,0.000000,0.060000,-2.630000,1616481000529660192
172,36.000000,0.177778,120.000000,0.487609,181.830000,1.060000,4.000000,0.040000,4.834000,-0.383000,-11.947000,-3.150000,-3.230000,0.000000,0.010000,-2.620000,1616481000549358336
173,36.000000,0.177778,120.000000,0.487609,181.830000,-0.170000,4.000000,0.040000,1.966000,-0.434000,-5.225000,2.330000,-3.180000,0.000000,0.010000,-2.630000,1616481000569360736
174,36.000000,0.177778,120.000000,0.487609,181.830000,1.250000,4.000000,0.040000,4.277000,-1.101000,-12.900000,0.310000,-3.180000,0.000000,0.010000,-2.610000,1616481000589401632
175,36.000000,0.177778,120.000000,0.487609,181.830000,-0.260000,4.000000,0.020000,2.606000,1.136000,-9.489000,5.320000,-3.180000,0.000000,0.000000,-2.620000,1616481000609394496
176,36.000000,0.177778,120.000000,0.487609,181.830000,0.510000,4.000000,0.020000,2.657000,-1.137000,-9.964000,-2.050000,-3.220000,0.000000,0.000000,-2.590000,1616481000629382176
177,36.000000,0.177778,120.000000,0.487609,181.830000,-0.530000,4.000000,0.020000,4.147000,1.554000,-11.234000,1.260000,-3.230000,0.000000,0.000000,-2.590000,1616481000649382304
178,36.000000,0.177778,120.000000,0.487609,181.830000,0.200000,4.000000,0.010000,2.269000,-2.632000,-8.041000,-2.720000,-3.270000,0.000000,0.000000,-2.550000,1616481000669517728
179,36.000000,0.177778,120.000000,0.487609,181.830000,-0.420000,4.000000,0.010000,4.866000,0.511000,-4.023000,6.080000,-3.210000,0.000000,0.000000,-2.560000,1616481000689355040
180,36.000000,0.177778,120.000000,0.487609,181.830000,-0.300000,4.000000,0.040000,1.092000,-3.453000,-4.639000,-5.520000,-3.230000,0.000000,0.010000,-2.520000,1616481000709356896
181,36.000000,0.177778,120.000000,0.487609,181.830000,-0.730000,4.000000,0.040000,4.492000,0.965000,-7.174000,1.330000,-3.200000,0.000000,0.010000,-2.560000,1616481000729338464
182,36.000000,0.177778,120.000000,0.487609,181.830000,-0.320000,4.000000,0.040000,-4.510000,-0.943000,-17.223000,-1.730000,-3.270000,0.000000,0.010000,-2.520000,1616481000755095264
183,36.000000,0.177778,120.000000,0.487609,181.830000,-0.970000,4.000000,0.010000,5.468000,2.085000,-9.300000,-1.410000,-3.270000,0.000000,0.000000,-2.550000,1616481000767826976
184,36.000000,0.177778,120.000000,0.487609,181.830000,-0.520000,4.000000,0.010000,-4.866000,0.779000,-16.931000,-1.980000,-3.270000,0.000000,0.000000,-2.520000,1616481000789868704
185,36.000000,0.177778,120.000000,0.487609,181.830000,-0.350000,4.000000,0.000000,6.056000,1.110000,-11.578000,3.160000,-3.280000,0.000000,0.000000,-2.540000,1616481000809827680
186,36.000000,0.177778,120.000000,0.487609,181.830000,-0.020000,4.000000,0.000000,-5.304000,0.408000,-12.618000,4.640000,-3.250000,0.000000,0.000000,-2.550000,1616481000829961920
187,36.000000,0.177778,120.000000,0.487609,181.830000,-0.100000,4.000000,0.000000,4.694000,-0.225000,-12.249000,6.040000,-3.250000,0.000000,0.000000,-2.600000,1616481000849938048
188,36.000000,0.177778,120.000000,0.487609,181.830000,-0.130000,4.000000,0.000000,-6.311000,-0.995000,-13.935000,7.620000,-3.260000,0.000000,0.000000,-2.580000,1616481000869976672
189,36.000000,0.177778,120.000000,0.487609,181.830000,0.210000,4.000000,0.000000,2.386000,1.410000,-9.583000,5.500000,-3.220000,0.000000,0.000000,-2.620000,1616481000889965344
190,36.000000,0.177778,120.000000,0.487609,181.830000,-0.140000,4.000000,0.020000,-7.544000,-0.583000,-16.277000,8.330000,-3.290000,0.000000,0.000000,-2.610000,1616481000909842080
191,36.000000,0.177778,120.000000,0.487609,181.830000,-0.480000,4.000000,0.020000,-0.222000,1.160000,-3.955000,3.270000,-3.200000,0.000000,0.000000,-2.640000,1616481000929881024
192,36.000000,0.177778,120.000000,0.487609,181.830000,-0.220000,4.000000,0.020000,-5.815000,0.033000,-15.859000,2.620000,-3.260000,0.000000,0.000000,-2.620000,1616481000950083456
193,36.000000,0.177778,120.000000,0.487609,181.830000,-0.540000,4.000000,0.020000,2.260000,0.440000,-2.840000,-3.770000,-3.180000,0.000000,0.000000,-2.630000,1616481000969858336
194,36.000000,0.177778,120.000000,0.487609,181.830000,-0.260000,4.000000,0.020000,-3.682000,1.025000,-13.812000,-0.580000,-3.220000,0.000000,0.000000,-2.630000,1616481000989902592
195,36.000000,0.177778,120.000000,0.487609,181.830000,-0.280000,4.000000,0.020000,3.017000,1.297000,-5.508000,-1.380000,-3.230000,0.000000,0.000000,-2.640000,1616481001009835072
196,36.000000,0.177778,120.000000,0.487609,181.830000,-0.370000,4.000000,0.020000,-3.833000,1.572000,-9.701000,2.330000,-3.230000,0.000000,0.000000,-2.670000,1616481001029931456
197,36.000000,0.177778,120.000000,0.487609,181.830000,0.460000,4.000000,0.020000,5.112000,1.077000,-10.798000,-2.160000,-3.320000,0.000000,0.000000,-2.670000,1616481001049919136
198,36.000000,0.177778,120.000000,0.487609,181.830000,-0.520000,4.000000,0.000000,-1.398000,0.441000,-4.891000,4.030000,-3.270000,0.000000,0.000000,-2.700000,1616481001069894368
199,36.000000,0.177778,120.000000,0.487609,181.830000,1.070000,4.000000,0.000000,4.851000,0.864000,-12.122000,2.840000,-3.260000,0.000000,0.000000,-2.700000,1616481001089886688
200,36.000000,0.177778,120.000000,0.487609,181.830000,-0.680000,4.000000,0.020000,0.849000,1.143000,-2.869000,9.050000,-3.190000,0.000000,0.000000,-2.740000,1616481001109912192
201,36.000000,0.177778,120.000000,0.487609,181.830000,1.370000,4.000000,0.020000,4.292000,0.300000,-13.481000,2.490000,-3.200000,0.000000,0.000000,-2.730000,1616481001129876192
202,36.000000,0.177778,120.000000,0.487609,181.830000,-0.310000,4.000000,0.020000,1.388000,0.988000,-12.189000,8.020000,-3.220000,0.000000,0.000000,-2.780000,1616481001149875936
203,36.000000,0.177778,120.000000,0.487609,181.830000,1.000000,4.000000,0.020000,3.792000,-0.315000,-12.759000,1.230000,-3.240000,0.000000,0.000000,-2.760000,1616481001169849824
204,36.000000,0.177778,120.000000,0.487609,181.830000,-0.080000,4.000000,0.020000,-2.744000,1.081000,-8.143000,2.410000,-3.220000,0.000000,0.000000,-2.750000,1616481001205316672
205,36.000000,0.177778,120.000000,0.487609,181.830000,0.580000,4.000000,0.010000,4.291000,-1.044000,-11.520000,-5.020000,-3.240000,0.000000,0.000000,-2.730000,1616481001209657760
206,36.000000,0.177778,120.000000,0.487609,181.830000,0.150000,4.000000,0.010000,-0.450000,-0.157000,-3.829000,-0.640000,-3.180000,0.000000,0.000000,-2.700000,1616481001229664352
207,36.000000,0.177778,120.000000,0.487609,181.830000,0.950000,4.000000,0.010000,5.704000,1.405000,-11.730000,-6.750000,-3.250000,0.000000,0.000000,-2.670000,1616481001249512640
208,36.000000,0.177778,120.000000,0.487609,181.830000,-0.350000,4.000000,0.010000,0.807000,1.312000,-2.195000,0.780000,-3.170000,0.000000,0.000000,-2.660000,1616481001269380928
209,36.000000,0.177778,120.000000,0.487609,181.830000,1.200000,4.000000,0.010000,5.515000,0.520000,-11.191000,-8.030000,-3.250000,0.000000,0.000000,-2.630000,1616481001289454592
210,36.000000,0.177778,120.000000,0.487609,181.830000,-0.600000,4.000000,0.010000,2.843000,1.129000,-6.158000,1.780000,-3.210000,0.000000,0.000000,-2.650000,1616481001309530528
211,36.000000,0.177778,120.000000,0.487609,181.830000,-0.160000,4.000000,0.010000,0.339000,-3.630000,-3.098000,-1.750000,-3.160000,0.000000,0.000000,-2.610000,1616481001331246368
212,36.000000,0.177778,120.000000,0.487609,181.830000,-0.610000,4.000000,0.010000,2.801000,0.832000,-9.982000,7.370000,-3.190000,0.000000,0.000000,-2.670000,1616481001347638368
213,36.000000,0.177778,120.000000,0.487609,181.830000,-0.400000,4.000000,0.010000,-1.224000,-3.890000,-3.984000,3.260000,-3.110000,0.000000,0.000000,-2.620000,1616481001369633216
214,36.000000,0.177778,120.000000,0.487609,181.830000,-0.160000,4.000000,0.010000,-7.976000,0.303000,-15.620000,9.800000,-3.220000,0.000000,0.000000,-2.670000,1616481001389677280
215,36.000000,0.177778,120.000000,0.487609,181.830000,-0.570000,4.000000,0.010000,-2.620000,-2.602000,-9.062000,1.400000,-3.220000,0.000000,0.000000,-2.640000,1616481001409437536
216,36.000000,0.177778,120.000000,0.487609,181.830000,-0.730000,4.000000,0.010000,-5.895000,1.588000,-12.453000,6.880000,-3.260000,0.000000,0.000000,-2.700000,1616481001429565472
217,36.000000,0.177778,120.000000,0.487609,181.830000,-0.440000,4.000000,0.010000,-4.808000,-1.556000,-14.294000,0.190000,-3.300000,0.000000,0.000000,-2.660000,1616481001449494848
218,36.000000,0.177778,120.000000,0.487609,181.830000,-0.730000,4.000000,0.020000,-2.020000,0.921000,-9.477000,1.550000,-3.220000,0.000000,0.000000,-2.710000,1616481001469483232
219,36.000000,0.177778,120.000000,0.487609,181.830000,-0.410000,4.000000,0.020000,-4.805000,-1.194000,-17.613000,-0.900000,-3.290000,0.000000,0.000000,-2.680000,1616481001489545408
220,36.000000,0.177778,120.000000,0.487609,181.830000,-0.790000,4.000000,0.020000,-0.817000,0.806000,-4.493000,0.140000,-3.180000,0.000000,0.000000,-2.720000,1616481001509619680
221,36.000000,0.177778,120.000000,0.487609,181.830000,0.320000,4.000000,0.020000,-5.348000,0.277000,-17.125000,-7.760000,-3.250000,0.000000,0.000000,-2.710000,1616481001529763872
222,36.000000,0.177778,120.000000,0.487609,181.830000,-0.590000,4.000000,0.000000,0.687000,0.862000,-2.318000,3.600000,-3.190000,0.000000,0.000000,-2.760000,1616481001549795840
223,36.000000,0.177778,120.000000,0.487609,181.830000,-0.170000,4.000000,0.000000,-5.811000,0.804000,-14.405000,-2.870000,-3.240000,0.000000,0.000000,-2.760000,1616481001569762848
224,36.000000,0.177778,120.000000,0.487609,181.830000,-0.040000,4.000000,0.000000,2.272000,1.266000,-5.821000,5.660000,-3.190000,0.000000,0.000000,-2.840000,1616481001589807936
225,36.000000,0.177778,120.000000,0.487609,181.830000,-0.530000,4.000000,0.020000,-4.632000,1.125000,-10.787000,2.400000,-3.210000,0.000000,0.000000,-2.860000,1616481001609875200
226,36.000000,0.177778,120.000000,0.487609,181.830000,1.060000,4.000000,0.020000,3.537000,-1.154000,-12.123000,0.940000,-3.140000,0.000000,0.000000,-2.900000,1616481001629841728
227,36.000000,0.177778,120.000000,0.487609,181.830000,-0.580000,4.000000,0.020000,-7.234000,-0.187000,-15.792000,1.200000,-3.240000,0.000000,0.000000,-2.970000,1616481001649380288
228,36.000000,0.177778,120.000000,0.487609,181.830000,0.500000,4.000000,0.010000,3.075000,-1.221000,-10.209000,-0.790000,-3.200000,0.000000,0.000000,-3.000000,1616481001669874752
229,36.000000,0.177778,120.000000,0.487609,181.830000,-0.500000,4.000000,0.010000,-2.156000,-1.663000,-9.131000,-0.740000,-3.270000,0.000000,0.000000,-3.060000,1616481001689539136
230,36.000000,0.177778,120.000000,0.487609,181.830000,0.070000,4.000000,0.000000,2.785000,-1.630000,-8.790000,-3.290000,-3.260000,0.000000,0.000000,-3.090000,1616481001709830112
231,36.000000,0.177778,120.000000,0.487609,181.830000,-0.130000,4.000000,0.000000,-2.249000,-2.274000,-13.318000,-4.180000,-3.250000,0.000000,0.000000,-3.100000,1616481001729958848
232,36.000000,0.177778,120.000000,0.487609,181.830000,-0.120000,4.000000,0.000000,2.203000,-3.557000,-5.298000,-7.160000,-3.210000,0.000000,0.000000,-3.110000,1616481001749628352
233,36.000000,0.177778,120.000000,0.487609,181.830000,-0.240000,4.000000,0.020000,-3.689000,-1.165000,-17.287000,-3.740000,-3.180000,0.000000,0.000000,-3.140000,1616481001770430848
234,36.000000,0.177778,120.000000,0.487609,181.830000,0.520000,4.000000,0.020000,5.059000,-1.083000,-11.016000,-9.090000,-3.270000,0.000000,0.000000,-3.150000,1616481001787667040
235,36.000000,0.177778,120.000000,0.487609,181.830000,-0.020000,4.000000,0.000000,-4.906000,-0.143000,-16.309000,0.220000,-3.230000,0.000000,0.000000,-3.180000,1616481001810861152
236,36.000000,0.177778,120.000000,0.487609,181.830000,0.950000,4.000000,0.000000,3.778000,-1.829000,-9.983000,-5.810000,-3.300000,0.000000,0.000000,-3.180000,1616481001827664832
237,36.000000,0.177778,120.000000,0.487609,181.830000,-0.190000,4.000000,0.020000,0.003000,0.874000,-2.751000,3.610000,-3.240000,0.000000,0.000000,-3.220000,1616481001849932544
238,36.000000,0.177778,120.000000,0.487609,181.830000,1.120000,4.000000,0.020000,1.842000,-2.855000,-8.399000,-1.010000,-3.230000,0.000000,0.000000,-3.240000,1616481001869619488
239,36.000000,0.177778,120.000000,0.487609,181.830000,-0.120000,4.000000,0.020000,-5.344000,-1.955000,-13.887000,6.890000,-3.240000,0.000000,0.000000,-3.270000,1616481001889542656
240,36.000000,0.177778,120.000000,0.487609,181.830000,-0.120000,4.000000,0.020000,-5.344000,-1.955000,-13.887000,6.890000,-3.240000,0.000000,0.000000,-3.270000,1616481001909434016
241,36.000000,0.177778,120.000000,0.487609,181.830000,-0.250000,4.000000,0.020000,-5.176000,-0.456000,-17.052000,1.390000,-3.280000,0.000000,0.000000,-3.270000,1616481001929521984
242,36.000000,0.177778,120.000000,0.487609,181.830000,0.690000,4.000000,0.020000,-1.119000,-3.384000,-4.092000,-5.040000,-3.220000,0.000000,0.000000,-3.250000,1616481001949629568
243,36.000000,0.177778,120.000000,0.487609,181.830000,-0.210000,4.000000,0.020000,-3.900000,-0.047000,-15.284000,-1.600000,-3.230000,0.000000,0.000000,-3.230000,1616481001970507840
244,36.000000,0.177778,120.000000,0.487609,181.830000,0.770000,4.000000,0.020000,-1.109000,-2.872000,-8.561000,-8.300000,-3.220000,0.000000,0.000000,-3.210000,1616481001987584160
245,36.000000,0.177778,120.000000,0.487609,181.830000,-0.290000,4.000000,0.010000,-3.437000,0.609000,-14.566000,-2.890000,-3.220000,0.000000,0.000000,-3.200000,1616481002009703776
246,36.000000,0.177778,120.000000,0.487609,181.830000,0.900000,4.000000,0.010000,-1.444000,-1.930000,-11.649000,-9.610000,-3.230000,0.000000,0.000000,-3.180000,1616481002029604832
247,36.000000,0.177778,120.000000,0.487609,181.830000,-0.480000,4.000000,0.010000,-3.382000,0.721000,-11.999000,0.020000,-3.230000,0.000000,0.000000,-3.200000,1616481002049608864
248,36.000000,0.177778,120.000000,0.487609,181.830000,0.950000,4.000000,0.010000,-2.620000,-1.392000,-15.792000,-7.720000,-3.290000,0.000000,0.000000,-3.190000,1616481002069772064
249,36.000000,0.177778,120.000000,0.487609,181.830000,-0.790000,4.000000,0.010000,-2.210000,1.274000,-6.967000,2.440000,-3.270000,0.000000,0.000000,-3.220000,1616481002089811072
250,36.000000,0.177778,120.000000,0.487609,181.830000,0.680000,4.000000,0.020000,-1.491000,-3.353000,-4.921000,-2.150000,-3.220000,0.000000,0.000000,-3.180000,1616481002110007424
251,36.000000,0.177778,120.000000,0.487609,181.830000,0.700000,4.000000,0.020000,4.085000,0.871000,-12.172000,1.520000,-3.230000,0.000000,0.000000,-3.190000,1616481002129570272
252,36.000000,0.177778,120.000000,0.487609,181.830000,-0.320000,4.000000,0.020000,-0.194000,0.835000,-4.669000,6.440000,-3.200000,0.000000,0.000000,-3.220000,1616481002151010912
253,36.000000,0.177778,120.000000,0.487609,181.830000,0.950000,4.000000,0.020000,3.640000,0.728000,-12.780000,3.690000,-3.190000,0.000000,0.000000,-3.200000,1616481002168371712
254,36.000000,0.177778,120.000000,0.487609,181.830000,-0.240000,4.000000,0.020000,-6.423000,0.861000,-12.721000,8.250000,-3.250000,0.000000,0.000000,-3.230000,1616481002189475584
255,36.000000,0.177778,120.000000,0.487609,181.830000,1.190000,4.000000,0.020000,4.676000,0.131000,-13.477000,-1.510000,-3.230000,0.000000,0.000000,-3.210000,1616481002209453888
256,36.000000,0.177778,120.000000,0.487609,181.830000,-0.410000,4.000000,0.020000,0.380000,-3.983000,-3.118000,-6.270000,-3.330000,0.000000,0.000000,-3.200000,1616481002229652160
257,36.000000,0.177778,120.000000,0.487609,181.830000,0.520000,4.000000,0.020000,4.920000,1.187000,-10.117000,-5.090000,-3.260000,0.000000,0.000000,-3.220000,1616481002249471072
258,36.000000,0.177778,120.000000,0.487609,181.830000,-0.580000,4.000000,0.020000,-1.361000,-3.739000,-6.422000,-7.750000,-3.280000,0.000000,0.000000,-3.200000,1616481002267539104
259,36.000000,0.177778,120.000000,0.487609,181.830000,-0.720000,4.000000,0.020000,6.763000,0.745000,-11.523000,-8.940000,-3.270000,0.000000,0.000000,-3.220000,1616481002289651712
260,36.000000,0.177778,120.000000,0.487609,181.830000,-0.050000,4.000000,0.040000,-4.284000,0.616000,-14.156000,-5.220000,-3.240000,0.000000,0.010000,-3.230000,1616481002309690464
261,36.000000,0.177778,120.000000,0.487609,181.830000,-0.350000,4.000000,0.040000,4.874000,0.088000,-11.939000,-2.620000,-3.250000,0.000000,0.010000,-3.250000,1616481002329632512
262,36.000000,0.177778,120.000000,0.487609,181.830000,-0.470000,4.000000,0.010000,-4.640000,1.047000,-12.613000,-1.040000,-3.220000,0.000000,0.010000,-3.300000,1616481002349457696
263,36.000000,0.177778,120.000000,0.487609,181.830000,0.090000,4.000000,0.010000,3.864000,-0.462000,-13.235000,-0.330000,-3.200000,0.000000,0.000000,-3.330000,1616481002369454144
264,36.000000,0.177778,120.000000,0.487609,181.830000,-0.530000,4.000000,0.010000,-0.466000,-3.675000,-3.249000,2.950000,-3.190000,0.000000,0.000000,-3.360000,1616481002389697600
265,36.000000,0.177778,120.000000,0.487609,181.830000,0.460000,4.000000,0.020000,2.857000,-1.300000,-12.447000,2.010000,-3.210000,0.000000,0.000000,-3.390000,1616481002412169824
266,36.000000,0.177778,120.000000,0.487609,181.830000,-0.630000,4.000000,0.020000,-2.369000,-2.805000,-6.986000,1.750000,-3.250000,0.000000,0.000000,-3.420000,1616481002430127744
267,36.000000,0.177778,120.000000,0.487609,181.830000,-0.530000,4.000000,0.000000,1.949000,-2.148000,-10.192000,-1.140000,-3.250000,0.000000,0.000000,-3.440000,1616481002450402048
268,36.000000,0.177778,120.000000,0.487609,181.830000,-0.240000,4.000000,0.000000,-2.602000,-2.125000,-10.921000,0.310000,-3.320000,0.000000,0.000000,-3.480000,1616481002468112736
269,36.000000,0.177778,120.000000,0.487609,181.830000,-0.350000,4.000000,0.000000,1.932000,-2.471000,-7.670000,-0.370000,-3.290000,0.000000,0.000000,-3.530000,1616481002490082624
270,36.000000,0.177778,120.000000,0.487609,181.830000,-0.490000,4.000000,0.000000,1.423000,0.952000,-4.697000,1.340000,-3.240000,0.000000,0.000000,-3.550000,1616481002510235488
271,36.000000,0.177778,120.000000,0.487609,181.830000,0.080000,4.000000,0.010000,1.082000,-3.169000,-2.920000,-5.200000,-3.240000,0.000000,0.000000,-3.560000,1616481002530297088
272,36.000000,0.177778,120.000000,0.487609,181.830000,-0.560000,4.000000,0.010000,-2.185000,0.443000,-8.348000,-0.390000,-3.210000,0.000000,0.000000,-3.590000,1616481002550180928
273,36.000000,0.177778,120.000000,0.487609,181.830000,0.640000,4.000000,0.020000,4.951000,-1.417000,-10.826000,-8.000000,-3.300000,0.000000,0.000000,-3.580000,1616481002570309600
274,36.000000,0.177778,120.000000,0.487609,181.830000,-0.850000,4.000000,0.020000,-0.896000,1.462000,-3.317000,3.120000,-3.240000,0.000000,0.000000,-3.640000,1616481002590355936
275,36.000000,0.177778,120.000000,0.487609,181.830000,1.190000,4.000000,0.010000,2.934000,-2.698000,-9.031000,-1.870000,-3.300000,0.000000,0.000000,-3.650000,1616481002608214272
276,36.000000,0.177778,120.000000,0.487609,181.830000,-0.600000,4.000000,0.010000,1.299000,1.082000,-3.537000,4.720000,-3.250000,0.000000,0.000000,-3.690000,1616481002630350496
277,36.000000,0.177778,120.000000,0.487609,181.830000,1.060000,4.000000,0.010000,1.103000,-3.368000,-5.913000,1.220000,-3.240000,0.000000,0.000000,-3.720000,1616481002650086240
278,36.000000,0.177778,120.000000,0.487609,181.830000,-0.040000,4.000000,0.010000,1.778000,0.713000,-6.986000,6.650000,-3.230000,0.000000,0.000000,-3.740000,1616481002670170592
279,36.000000,0.177778,120.000000,0.487609,181.830000,0.930000,4.000000,0.010000,3.604000,-1.113000,-13.115000,0.880000,-3.210000,0.000000,0.000000,-3.740000,1616481002691309600
280,36.000000,0.177778,120.000000,0.487609,181.830000,-0.490000,4.000000,0.010000,-2.345000,0.056000,-7.021000,5.290000,-3.220000,0.000000,0.000000,-3.760000,1616481002708061120
281,36.000000,0.177778,120.000000,0.487609,181.830000,0.620000,4.000000,0.010000,3.646000,-1.448000,-11.204000,-3.940000,-3.230000,0.000000,0.000000,-3.670000,1616481002730039200
282,36.000000,0.177778,120.000000,0.487609,181.830000,-0.540000,4.000000,0.010000,-0.171000,0.969000,-3.583000,0.260000,-3.190000,0.000000,0.000000,-3.680000,1616481002748250720
283,36.000000,0.177778,120.000000,0.487609,181.830000,-0.560000,4.000000,0.020000,-4.340000,0.318000,-14.069000,-5.250000,-3.230000,0.000000,0.000000,-3.590000,1616481002770038944
284,36.000000,0.177778,120.000000,0.487609,181.830000,-0.170000,4.000000,0.020000,1.986000,0.511000,-3.313000,-1.300000,-3.180000,0.000000,0.000000,-3.580000,1616481002790046080
285,36.000000,0.177778,120.000000,0.487609,181.830000,0.950000,4.000000,0.010000,5.061000,-0.273000,-11.563000,-7.060000,-3.230000,0.000000,0.000000,-3.550000,1616481002809951040
286,36.000000,0.177778,120.000000,0.487609,181.830000,-0.360000,4.000000,0.010000,2.117000,0.393000,-6.736000,1.250000,-3.220000,0.000000,0.000000,-3.560000,1616481002830117248
287,36.000000,0.177778,120.000000,0.487609,181.830000,0.880000,4.000000,0.010000,4.858000,-0.543000,-13.018000,-6.380000,-3.290000,0.000000,0.000000,-3.520000,1616481002850222560
288,36.000000,0.177778,120.000000,0.487609,181.830000,-0.610000,4.000000,0.020000,3.107000,0.785000,-10.180000,2.630000,-3.320000,0.000000,0.000000,-3.530000,1616481002870165984
289,36.000000,0.177778,120.000000,0.487609,181.830000,0.680000,4.000000,0.020000,3.266000,-1.373000,-10.833000,-0.750000,-3.240000,0.000000,0.000000,-3.490000,1616481002890442688
290,36.000000,0.177778,120.000000,0.487609,181.830000,-0.360000,4.000000,0.010000,3.412000,1.510000,-12.111000,7.420000,-3.260000,0.000000,0.000000,-3.510000,1616481002908206464
291,36.000000,0.177778,120.000000,0.487609,181.830000,-0.560000,4.000000,0.010000,-0.528000,1.281000,-2.689000,5.720000,-3.190000,0.000000,0.000000,-3.450000,1616481002930223616
292,36.000000,0.177778,120.000000,0.487609,181.830000,-0.550000,4.000000,0.020000,4.108000,0.552000,-13.097000,7.920000,-3.210000,0.000000,0.000000,-3.480000,1616481002950231776
293,36.000000,0.177778,120.000000,0.487609,181.830000,-0.110000,4.000000,0.020000,-5.306000,0.985000,-12.148000,2.020000,-3.230000,0.000000,0.000000,-3.440000,1616481002969988448
294,36.000000,0.177778,120.000000,0.487609,181.830000,-0.730000,4.000000,0.020000,4.618000,-0.471000,-12.807000,4.010000,-3.250000,0.000000,0.000000,-3.450000,1616481002990127168
295,36.000000,0.177778,120.000000,0.487609,181.830000,-0.180000,4.000000,0.010000,-3.829000,1.063000,-9.276000,-0.590000,-3.240000,0.000000,0.000000,-3.400000,1616481003010066368
296,36.000000,0.177778,120.000000,0.487609,181.830000,0.460000,4.000000,0.010000,0.028000,-3.102000,-3.754000,-6.580000,-3.240000,0.000000,0.000000,-3.370000,1616481003033726560
297,36.000000,0.177778,120.000000,0.487609,181.830000,-0.080000,4.000000,0.010000,-4.491000,-0.489000,-16.938000,-1.490000,-3.270000,0.000000,0.000000,-3.350000,1616481003049767520
298,36.000000,0.177778,120.000000,0.487609,181.830000,-0.480000,4.000000,0.020000,5.959000,1.160000,-11.213000,-0.550000,-3.260000,0.000000,0.000000,-3.330000,1616481003069720704
299,36.000000,0.177778,120.000000,0.487609,181.830000,-0.350000,4.000000,0.020000,-4.660000,0.642000,-14.147000,0.200000,-3.230000,0.000000,0.000000,-3.310000,1616481003089750880
300,36.000000,0.177778,120.000000,0.487609,181.830000,-0.230000,4.000000,0.040000,5.101000,-0.043000,-11.948000,2.830000,-3.230000,0.000000,0.010000,-3.310000,1616481003109777120
301,36.000000,0.177778,120.000000,0.487609,181.830000,-0.430000,4.000000,0.040000,-3.904000,0.971000,-12.039000,5.290000,-3.210000,0.000000,0.010000,-3.320000,1616481003129691680
302,36.000000,0.177778,120.000000,0.487609,181.830000,0.090000,4.000000,0.020000,3.361000,-0.673000,-12.527000,0.900000,-3.170000,0.000000,0.010000,-3.310000,1616481003149782528
303,36.000000,0.177778,120.000000,0.487609,181.830000,0.000000,4.000000,0.020000,-6.750000,-0.688000,-16.248000,7.490000,-3.240000,0.000000,0.000000,-3.320000,1616481003169702784
304,36.000000,0.177778,120.000000,0.487609,181.830000,0.580000,4.000000,0.020000,2.913000,0.822000,-13.134000,4.270000,-3.190000,0.000000,0.000000,-3.300000,1616481003189729568
305,36.000000,0.177778,120.000000,0.487609,181.830000,0.030000,4.000000,0.020000,-6.988000,-0.327000,-15.509000,8.290000,-3.280000,0.000000,0.000000,-3.300000,1616481003209866336
306,36.000000,0.177778,120.000000,0.487609,181.830000,-0.530000,4.000000,0.020000,4.064000,1.078000,-2.259000,2.390000,-3.260000,0.000000,0.000000,-3.300000,1616481003229656864
307,36.000000,0.177778,120.000000,0.487609,181.830000,-0.420000,4.000000,0.020000,-5.874000,0.959000,-13.752000,7.150000,-3.230000,0.000000,0.000000,-3.300000,1616481003249682848
308,36.000000,0.177778,120.000000,0.487609,181.830000,-0.160000,4.000000,0.020000,2.874000,0.876000,-6.537000,-1.560000,-3.220000,0.000000,0.000000,-3.270000,1616481003269743360
309,36.000000,0.177778,120.000000,0.487609,181.830000,0.000000,4.000000,0.020000,-3.070000,0.945000,-11.162000,2.150000,-3.200000,0.000000,0.000000,-3.280000,1616481003289686048
310,36.000000,0.177778,120.000000,0.487609,181.830000,0.270000,4.000000,0.020000,4.153000,0.908000,-10.265000,-4.410000,-3.190000,0.000000,0.000000,-3.250000,1616481003309781344
311,36.000000,0.177778,120.000000,0.487609,181.830000,-0.130000,4.000000,0.020000,-1.899000,0.855000,-7.227000,0.680000,-3.170000,0.000000,0.000000,-3.260000,1616481003329703520
312,36.000000,0.177778,120.000000,0.487609,181.830000,0.460000,4.000000,0.010000,4.021000,0.712000,-12.133000,-1.590000,-3.240000,0.000000,0.000000,-3.220000,1616481003349748992
313,36.000000,0.177778,120.000000,0.487609,181.830000,-0.450000,4.000000,0.010000,-0.854000,0.243000,-3.874000,1.900000,-3.200000,0.000000,0.000000,-3.210000,1616481003370103936
314,36.000000,0.177778,120.000000,0.487609,181.830000,0.830000,4.000000,0.010000,4.063000,1.048000,-12.001000,-0.150000,-3.270000,0.000000,0.000000,-3.200000,1616481003389739776
315,36.000000,0.177778,120.000000,0.487609,181.830000,-0.430000,4.000000,0.000000,0.415000,0.946000,-2.574000,4.530000,-3.200000,0.000000,0.000000,-3.180000,1616481003409777120
316,36.000000,0.177778,120.000000,0.487609,181.830000,-0.230000,4.000000,0.000000,-4.388000,-1.908000,-12.005000,-0.460000,-3.220000,0.000000,0.000000,-3.180000,1616481003429703840
317,36.000000,0.177778,120.000000,0.487609,181.830000,-0.130000,4.000000,0.000000,2.155000,0.893000,-6.579000,7.080000,-3.170000,0.000000,0.000000,-3.170000,1616481003449794560
318,36.000000,0.177778,120.000000,0.487609,181.830000,-0.230000,4.000000,0.000000,-5.639000,-1.478000,-15.116000,1.180000,-3.230000,0.000000,0.000000,-3.160000,1616481003469891264
319,36.000000,0.177778,120.000000,0.487609,181.830000,-0.010000,4.000000,0.000000,-2.297000,0.749000,-7.285000,1.420000,-3.170000,0.000000,0.000000,-3.150000,1616481003490332576
320,36.000000,0.177778,120.000000,0.487609,181.830000,-0.460000,4.000000,0.000000,-0.551000,-3.130000,-4.192000,1.420000,-3.180000,0.000000,0.000000,-3.150000,1616481003509785696
321,36.000000,0.177778,120.000000,0.487609,181.830000,-0.030000,4.000000,0.020000,-4.417000,0.145000,-16.119000,-0.720000,-3.130000,0.000000,0.000000,-3.080000,1616481003529768800
322,36.000000,0.177778,120.000000,0.487609,181.830000,-0.030000,4.000000,0.020000,-4.417000,0.145000,-16.119000,-0.720000,-3.130000,0.000000,0.000000,-3.080000,1616481003549883392
323,36.000000,0.177778,120.000000,0.487609,181.830000,-0.420000,4.000000,0.020000,-3.957000,1.202000,-13.695000,0.830000,-3.130000,0.000000,0.000000,-3.060000,1616481003569653408
324,36.000000,0.177778,120.000000,0.487609,181.830000,1.250000,4.000000,0.020000,-2.824000,-1.770000,-13.477000,-7.780000,-3.210000,0.000000,0.000000,-3.020000,1616481003589837376
325,36.000000,0.177778,120.000000,0.487609,181.830000,-0.610000,4.000000,0.020000,-2.537000,0.880000,-10.530000,2.390000,-3.210000,0.000000,0.000000,-3.040000,1616481003609877792
326,36.000000,0.177778,120.000000,0.487609,181.830000,0.870000,4.000000,0.020000,-0.316000,-3.779000,-2.875000,-0.660000,-3.150000,0.000000,0.000000,-2.990000,1616481003629741248
327,36.000000,0.177778,120.000000,0.487609,181.830000,-0.660000,4.000000,0.020000,-2.249000,0.619000,-5.550000,6.650000,-3.180000,0.000000,0.000000,-3.030000,1616481003649840928
328,36.000000,0.177778,120.000000,0.487609,181.830000,0.440000,4.000000,0.020000,-1.478000,-2.608000,-5.966000,3.340000,-3.110000,0.000000,0.000000,-2.980000,1616481003669905312
329,36.000000,0.177778,120.000000,0.487609,181.830000,-0.160000,4.000000,0.020000,-2.243000,-0.053000,-15.050000,8.190000,-3.190000,0.000000,0.000000,-3.000000,1616481003689713504
330,36.000000,0.177778,120.000000,0.487609,181.830000,0.070000,4.000000,0.020000,-3.241000,-2.350000,-9.962000,6.360000,-3.200000,0.000000,0.000000,-2.970000,1616481003710064480
331,36.000000,0.177778,120.000000,0.487609,181.830000,1.130000,4.000000,0.020000,1.772000,-2.619000,-8.445000,4.420000,-3.190000,0.000000,0.000000,-2.980000,1616481003729700064
332,36.000000,0.177778,120.000000,0.487609,181.830000,-0.350000,4.000000,0.020000,-4.650000,-1.772000,-13.987000,2.460000,-3.280000,0.000000,0.000000,-2.960000,1616481003749820384
333,36.000000,0.177778,120.000000,0.487609,181.830000,0.030000,4.000000,0.020000,0.363000,-3.782000,-3.926000,-2.330000,-3.220000,0.000000,0.000000,-2.980000,1616481003769677280
334,36.000000,0.177778,120.000000,0.487609,181.830000,-0.400000,4.000000,0.020000,-4.253000,-0.955000,-16.816000,-5.430000,-3.310000,0.000000,0.000000,-2.910000,1616481003789868704
335,36.000000,0.177778,120.000000,0.487609,181.830000,0.400000,4.000000,0.020000,-0.361000,-3.512000,-3.723000,-5.280000,-3.250000,0.000000,0.000000,-2.920000,1616481003809758432
