frame,pgsnh,gpsnl,gpseh,gpsel,heading_angle,yaw_rate,gps_state,gps_velocity,acceleration_forward,acceleration_lateral,acceleration_down,pitch_angle,velocity_down,velocity_lateral,velocity_forward,roll_angle,timestamp
1,36.000000,0.177765,120.000000,0.487603,168.000000,2.330000,4.000000,0.000000,3.387000,3.484000,-15.611000,-2.760000,-3.020000,0.000000,0.000000,4.180000,1615979277735670240
2,36.000000,0.177765,120.000000,0.487603,168.000000,-3.200000,4.000000,0.000000,-8.779000,-1.325000,-7.791000,-2.810000,-3.030000,0.000000,0.000000,4.260000,1615979277753491168
3,36.000000,0.177765,120.000000,0.487603,168.000000,2.060000,4.000000,0.010000,3.545000,2.694000,-10.703000,-2.830000,-2.960000,0.000000,0.000000,4.280000,1615979277775702688
4,36.000000,0.177765,120.000000,0.487603,168.000000,2.060000,4.000000,0.010000,3.545000,2.694000,-10.703000,-2.830000,-2.960000,0.000000,0.000000,4.280000,1615979277793631200
5,36.000000,0.177765,120.000000,0.487603,168.000000,1.840000,4.000000,0.020000,10.829000,-2.084000,-0.870000,-2.900000,-2.820000,0.000000,0.000000,4.410000,1615979277813551488
6,36.000000,0.177765,120.000000,0.487603,168.000000,0.310000,4.000000,0.020000,-8.249000,-0.391000,-12.650000,-2.940000,-2.890000,0.000000,0.000000,4.470000,1615979277835589952
7,36.000000,0.177765,120.000000,0.487603,168.000000,0.310000,4.000000,0.020000,-8.249000,-0.391000,-12.650000,-2.940000,-2.890000,0.000000,0.000000,4.470000,1615979277853585504
8,36.000000,0.177765,120.000000,0.487603,168.000000,-0.610000,4.000000,0.020000,-2.395000,-1.013000,-13.063000,-3.000000,-2.880000,0.000000,0.000000,4.570000,1615979277875579616
9,36.000000,0.177765,120.000000,0.487603,168.000000,1.270000,4.000000,0.020000,9.119000,0.436000,-0.820000,-2.990000,-2.790000,0.000000,0.000000,4.570000,1615979277895657280
10,36.000000,0.177765,120.000000,0.487603,168.000000,1.270000,4.000000,0.020000,9.119000,0.436000,-0.820000,-2.990000,-2.790000,0.000000,0.000000,4.570000,1615979277913528256
11,36.000000,0.177765,120.000000,0.487603,168.000000,1.680000,4.000000,0.000000,9.772000,1.655000,-4.466000,-2.960000,-2.830000,0.000000,0.000000,4.660000,1615979277935490784
12,36.000000,0.177765,120.000000,0.487603,168.000000,-1.800000,4.000000,0.000000,-5.917000,-1.047000,-8.819000,-2.960000,-2.850000,0.000000,0.000000,4.750000,1615979277955493568
13,36.000000,0.177765,120.000000,0.487603,168.000000,1.550000,4.000000,0.020000,9.972000,3.439000,-3.647000,-2.920000,-2.800000,0.000000,0.000000,4.760000,1615979277975522240
14,36.000000,0.177765,120.000000,0.487603,168.000000,-2.100000,4.000000,0.020000,-6.490000,-1.117000,-8.389000,-2.890000,-2.840000,0.000000,0.000000,4.790000,1615979277997755392
15,36.000000,0.177765,120.000000,0.487603,168.000000,1.840000,4.000000,0.020000,4.783000,-0.969000,-7.725000,-2.860000,-2.820000,0.000000,0.000000,4.820000,1615979278013736960
16,36.000000,0.177765,120.000000,0.487603,168.000000,1.840000,4.000000,0.020000,4.783000,-0.969000,-7.725000,-2.860000,-2.820000,0.000000,0.000000,4.820000,1615979278033752416
17,36.000000,0.177765,120.000000,0.487603,168.000000,-2.360000,4.000000,0.020000,-7.604000,-1.268000,-8.574000,-2.840000,-2.870000,0.000000,0.000000,4.850000,1615979278053798272
18,36.000000,0.177765,120.000000,0.487603,168.000000,-3.260000,4.000000,0.020000,0.960000,3.038000,-14.784000,-2.810000,-2.860000,0.000000,0.000000,4.890000,1615979278073521888
19,36.000000,0.177765,120.000000,0.487603,168.000000,1.880000,4.000000,0.020000,-7.730000,-0.450000,-9.643000,-2.810000,-2.980000,0.000000,0.000000,4.960000,1615979278095597152
20,36.000000,0.177765,120.000000,0.487603,168.000000,-2.590000,4.000000,0.020000,1.326000,2.342000,-14.664000,-2.810000,-3.010000,0.000000,0.000000,4.930000,1615979278113479136
21,36.000000,0.177765,120.000000,0.487603,168.000000,-2.100000,4.000000,0.010000,2.912000,3.296000,-14.254000,-2.860000,-3.170000,0.000000,0.000000,4.990000,1615979278137031872
22,36.000000,0.177765,120.000000,0.487603,168.000000,-2.100000,4.000000,0.010000,2.912000,3.296000,-14.254000,-2.860000,-3.170000,0.000000,0.000000,4.990000,1615979278153673952
23,36.000000,0.177765,120.000000,0.487603,168.000000,-3.150000,4.000000,0.010000,-8.432000,-1.187000,-8.404000,-2.900000,-3.190000,0.000000,0.000000,5.060000,1615979278173440384
24,36.000000,0.177765,120.000000,0.487603,168.000000,-1.980000,4.000000,0.010000,3.300000,3.038000,-13.627000,-2.930000,-3.210000,0.000000,0.000000,5.040000,1615979278195547072
25,36.000000,0.177765,120.000000,0.487603,168.000000,-1.780000,4.000000,0.020000,3.517000,2.663000,-12.738000,-3.000000,-3.160000,0.000000,0.000000,5.000000,1615979278215509568
26,36.000000,0.177765,120.000000,0.487603,168.000000,1.830000,4.000000,0.020000,-8.840000,-0.546000,-7.092000,-3.040000,-3.150000,0.000000,0.000000,5.080000,1615979278235460160
27,36.000000,0.177765,120.000000,0.487603,168.000000,-0.500000,4.000000,0.020000,5.401000,1.647000,-1.712000,-3.060000,-3.030000,0.000000,0.000000,5.000000,1615979278255546784
28,36.000000,0.177765,120.000000,0.487603,168.000000,2.300000,4.000000,0.020000,-1.621000,-1.360000,-12.165000,-3.100000,-3.090000,0.000000,0.000000,5.060000,1615979278275522336
29,36.000000,0.177765,120.000000,0.487603,168.000000,-0.080000,4.000000,0.020000,7.310000,1.626000,-1.262000,-3.120000,-2.980000,0.000000,0.000000,4.990000,1615979278295589088
30,36.000000,0.177765,120.000000,0.487603,168.000000,1.900000,4.000000,0.020000,-2.985000,-0.640000,-12.867000,-3.170000,-3.060000,0.000000,0.000000,5.040000,1615979278315538560
31,36.000000,0.177765,120.000000,0.487603,168.000000,1.900000,4.000000,0.020000,-2.985000,-0.640000,-12.867000,-3.170000,-3.060000,0.000000,0.000000,5.040000,1615979278335501568
32,36.000000,0.177765,120.000000,0.487603,168.000000,-3.700000,4.000000,0.020000,7.295000,0.576000,0.424000,-3.190000,-2.940000,0.000000,0.000000,4.960000,1615979278355538272
33,36.000000,0.177765,120.000000,0.487603,168.000000,-3.790000,4.000000,0.010000,9.014000,3.392000,-5.433000,-3.220000,-3.010000,0.000000,0.000000,4.960000,1615979278375686304
34,36.000000,0.177765,120.000000,0.487603,168.000000,-3.790000,4.000000,0.010000,9.014000,3.392000,-5.433000,-3.220000,-3.010000,0.000000,0.000000,4.960000,1615979278393693376
35,36.000000,0.177765,120.000000,0.487603,168.000000,2.330000,4.000000,0.010000,-5.204000,-1.087000,-12.528000,-3.220000,-3.040000,0.000000,0.000000,5.000000,1615979278413702304
36,36.000000,0.177765,120.000000,0.487603,168.000000,-3.200000,4.000000,0.010000,7.110000,-1.335000,-7.355000,-3.190000,-3.000000,0.000000,0.000000,5.040000,1615979278433760960
37,36.000000,0.177765,120.000000,0.487603,168.000000,2.010000,4.000000,0.010000,-6.398000,-1.135000,-10.720000,-3.160000,-3.020000,0.000000,0.000000,5.070000,1615979278453924800
38,36.000000,0.177765,120.000000,0.487603,168.000000,1.660000,4.000000,0.010000,8.995000,3.972000,-2.945000,-3.130000,-2.950000,0.000000,0.000000,5.040000,1615979278473779392
39,36.000000,0.177765,120.000000,0.487603,168.000000,1.770000,4.000000,0.010000,-6.937000,-0.374000,-9.512000,-3.140000,-2.900000,0.000000,0.000000,5.080000,1615979278493913536
40,36.000000,0.177765,120.000000,0.487603,168.000000,-2.930000,4.000000,0.010000,0.109000,2.278000,-12.566000,-3.140000,-2.920000,0.000000,0.000000,5.120000,1615979278513513376
41,36.000000,0.177765,120.000000,0.487603,168.000000,-1.680000,4.000000,0.020000,2.869000,2.526000,-13.039000,-3.180000,-2.970000,0.000000,0.000000,5.140000,1615979278535699776
42,36.000000,0.177765,120.000000,0.487603,168.000000,-1.680000,4.000000,0.020000,2.869000,2.526000,-13.039000,-3.180000,-2.970000,0.000000,0.000000,5.140000,1615979278553575936
43,36.000000,0.177765,120.000000,0.487603,168.000000,-2.160000,4.000000,0.020000,3.043000,3.100000,-13.118000,-3.190000,-3.020000,0.000000,0.000000,5.210000,1615979278575578336
44,36.000000,0.177765,120.000000,0.487603,168.000000,-2.160000,4.000000,0.020000,3.043000,3.100000,-13.118000,-3.180000,-3.020000,0.000000,0.000000,5.230000,1615979278595629472
45,36.000000,0.177765,120.000000,0.487603,168.000000,1.900000,4.000000,0.020000,-8.833000,-0.628000,-7.805000,-3.170000,-3.040000,0.000000,0.000000,5.270000,1615979278613485792
46,36.000000,0.177765,120.000000,0.487603,168.000000,2.150000,4.000000,0.010000,-8.012000,-0.155000,-10.101000,-3.200000,-2.990000,0.000000,0.000000,5.290000,1615979278635622336
47,36.000000,0.177765,120.000000,0.487603,168.000000,2.150000,4.000000,0.010000,-8.012000,-0.155000,-10.101000,-3.200000,-2.990000,0.000000,0.000000,5.290000,1615979278653437504
48,36.000000,0.177765,120.000000,0.487603,168.000000,-0.510000,4.000000,0.010000,5.321000,2.301000,-4.281000,-3.220000,-2.910000,0.000000,0.000000,5.280000,1615979278675597664
49,36.000000,0.177765,120.000000,0.487603,168.000000,2.110000,4.000000,0.010000,-1.277000,-1.421000,-12.497000,-3.270000,-2.970000,0.000000,0.000000,5.280000,1615979278693419488
50,36.000000,0.177765,120.000000,0.487603,168.000000,2.410000,4.000000,0.010000,-2.973000,-0.806000,-11.375000,-3.340000,-2.910000,0.000000,0.000000,5.270000,1615979278715754112
51,36.000000,0.177765,120.000000,0.487603,168.000000,2.410000,4.000000,0.010000,-2.973000,-0.806000,-11.375000,-3.340000,-2.910000,0.000000,0.000000,5.270000,1615979278733686944
52,36.000000,0.177765,120.000000,0.487603,168.000000,0.140000,4.000000,0.010000,7.297000,2.303000,-1.991000,-3.330000,-2.840000,0.000000,0.000000,5.250000,1615979278753913344
53,36.000000,0.177765,120.000000,0.487603,168.000000,2.470000,4.000000,0.020000,-3.311000,-0.544000,-12.011000,-3.340000,-2.920000,0.000000,0.000000,5.300000,1615979278773663648
54,36.000000,0.177765,120.000000,0.487603,168.000000,-3.480000,4.000000,0.020000,8.775000,2.746000,-8.802000,-3.290000,-2.910000,0.000000,0.000000,5.240000,1615979278793732768
55,36.000000,0.177765,120.000000,0.487603,168.000000,2.210000,4.000000,0.020000,-4.830000,-1.130000,-12.408000,-3.260000,-2.950000,0.000000,0.000000,5.270000,1615979278813774624
56,36.000000,0.177765,120.000000,0.487603,168.000000,-3.500000,4.000000,0.020000,8.996000,0.079000,-5.199000,-3.230000,-2.900000,0.000000,0.000000,5.310000,1615979278833795136
57,36.000000,0.177765,120.000000,0.487603,168.000000,2.000000,4.000000,0.020000,-6.242000,-0.779000,-11.732000,-3.200000,-2.940000,0.000000,0.000000,5.330000,1615979278853793152
58,36.000000,0.177765,120.000000,0.487603,168.000000,-3.570000,4.000000,0.020000,9.647000,3.484000,-1.908000,-3.160000,-2.860000,0.000000,0.000000,5.330000,1615979278873924800
59,36.000000,0.177765,120.000000,0.487603,168.000000,2.000000,4.000000,0.020000,-7.522000,-0.822000,-9.803000,-3.130000,-2.910000,0.000000,0.000000,5.360000,1615979278893987040
60,36.000000,0.177765,120.000000,0.487603,168.000000,-2.710000,4.000000,0.020000,1.763000,3.420000,-15.441000,-3.100000,-2.970000,0.000000,0.000000,5.330000,1615979278913950848
61,36.000000,0.177765,120.000000,0.487603,168.000000,1.590000,4.000000,0.000000,-8.166000,-1.342000,-7.871000,-3.110000,-3.000000,0.000000,0.000000,5.410000,1615979278933935744
62,36.000000,0.177765,120.000000,0.487603,168.000000,-1.690000,4.000000,0.000000,3.056000,2.347000,-12.605000,-3.100000,-3.030000,0.000000,0.000000,5.340000,1615979278953779040
63,36.000000,0.177765,120.000000,0.487603,168.000000,-3.230000,4.000000,0.020000,-8.683000,-0.941000,-8.312000,-3.150000,-3.060000,0.000000,0.000000,5.400000,1615979278973607168
64,36.000000,0.177765,120.000000,0.487603,168.000000,-1.660000,4.000000,0.020000,2.996000,1.872000,-8.078000,-3.170000,-3.050000,0.000000,0.000000,5.390000,1615979278993515616
65,36.000000,0.177765,120.000000,0.487603,168.000000,1.980000,4.000000,0.020000,-8.601000,-0.240000,-9.285000,-3.190000,-3.080000,0.000000,0.000000,5.430000,1615979279015905856
66,36.000000,0.177765,120.000000,0.487603,168.000000,1.980000,4.000000,0.020000,-8.601000,-0.240000,-9.285000,-3.190000,-3.080000,0.000000,0.000000,5.430000,1615979279033778048
67,36.000000,0.177765,120.000000,0.487603,168.000000,2.150000,4.000000,0.000000,-8.700000,-1.060000,-7.996000,-3.250000,-3.020000,0.000000,0.000000,5.470000,1615979279053652832
68,36.000000,0.177765,120.000000,0.487603,168.000000,-0.320000,4.000000,0.010000,6.284000,2.794000,-5.378000,-3.290000,-2.930000,0.000000,0.000000,5.410000,1615979279073639648
69,36.000000,0.177765,120.000000,0.487603,168.000000,2.300000,4.000000,0.010000,-9.431000,-1.095000,-7.223000,-3.310000,-2.960000,0.000000,0.000000,5.460000,1615979279093764320
70,36.000000,0.177765,120.000000,0.487603,168.000000,-0.620000,4.000000,0.010000,5.336000,1.878000,0.275000,-3.340000,-2.830000,0.000000,0.000000,5.430000,1615979279113510912
71,36.000000,0.177765,120.000000,0.487603,168.000000,0.260000,4.000000,0.100000,7.322000,2.326000,-1.812000,-3.370000,-2.830000,0.000000,0.160000,5.450000,1615979279135605792
72,36.000000,0.177765,120.000000,0.487603,168.000000,0.260000,4.000000,0.100000,7.322000,2.326000,-1.812000,-3.370000,-2.830000,0.000000,0.160000,5.450000,1615979279153564608
73,36.000000,0.177765,120.000000,0.487603,168.000000,2.320000,4.000000,0.000000,-3.074000,-0.437000,-13.202000,-3.400000,-2.920000,0.000000,0.090000,5.500000,1615979279173590944
74,36.000000,0.177765,120.000000,0.487603,168.000000,-3.550000,4.000000,0.000000,9.763000,0.489000,-1.035000,-3.400000,-2.830000,0.000000,0.000000,5.450000,1615979279193557216
75,36.000000,0.177765,120.000000,0.487603,168.000000,-3.830000,4.000000,0.020000,7.004000,-0.989000,-8.367000,-3.380000,-2.870000,0.000000,0.000000,5.530000,1615979279215551072
76,36.000000,0.177765,120.000000,0.487603,168.000000,-3.830000,4.000000,0.020000,7.004000,-0.989000,-8.367000,-3.380000,-2.870000,0.000000,0.000000,5.530000,1615979279235544480
77,36.000000,0.177765,120.000000,0.487603,168.000000,1.520000,4.000000,0.020000,12.531000,-2.877000,0.988000,-3.350000,-2.800000,0.000000,0.000000,5.550000,1615979279255532896
78,36.000000,0.177765,120.000000,0.487603,168.000000,1.740000,4.000000,0.020000,-6.846000,-0.488000,-8.573000,-3.290000,-2.710000,0.000000,0.000000,5.660000,1615979279275688288
79,36.000000,0.177765,120.000000,0.487603,168.000000,1.740000,4.000000,0.020000,-6.846000,-0.488000,-8.573000,-3.290000,-2.710000,0.000000,0.000000,5.660000,1615979279293495136
80,36.000000,0.177765,120.000000,0.487603,168.000000,1.560000,4.000000,0.010000,-7.957000,0.915000,-14.845000,-3.250000,-2.890000,0.000000,0.000000,5.730000,1615979279315773472
81,36.000000,0.177765,120.000000,0.487603,168.000000,1.560000,4.000000,0.010000,-7.957000,0.915000,-14.845000,-3.250000,-2.890000,0.000000,0.000000,5.730000,1615979279334025952
82,36.000000,0.177765,120.000000,0.487603,168.000000,-2.310000,4.000000,0.010000,2.304000,3.646000,-13.532000,-3.280000,-2.930000,0.000000,0.000000,5.800000,1615979279374627360
83,36.000000,0.177765,120.000000,0.487603,168.000000,-2.350000,4.000000,0.020000,3.185000,4.089000,-14.122000,-3.250000,-3.030000,0.000000,0.000000,5.830000,1615979279394487040
84,36.000000,0.177765,120.000000,0.487603,168.000000,1.880000,4.000000,0.020000,-8.363000,-0.367000,-8.853000,-3.210000,-3.060000,0.000000,0.000000,5.910000,1615979279414826464
85,36.000000,0.177765,120.000000,0.487603,168.000000,-1.060000,4.000000,0.010000,4.019000,2.746000,-7.838000,-3.210000,-2.980000,0.000000,0.000000,5.920000,1615979279434629984
86,36.000000,0.177765,120.000000,0.487603,168.000000,2.090000,4.000000,0.010000,-8.306000,-0.711000,-8.252000,-3.190000,-2.990000,0.000000,0.000000,5.910000,1615979279454484736
87,36.000000,0.177765,120.000000,0.487603,168.000000,1.520000,4.000000,0.010000,6.234000,2.770000,-5.566000,-3.180000,-2.920000,0.000000,0.000000,5.890000,1615979279474372992
88,36.000000,0.177765,120.000000,0.487603,168.000000,2.030000,4.000000,0.010000,-9.170000,-0.302000,-8.971000,-3.200000,-2.880000,0.000000,0.000000,5.930000,1615979279494414080
89,36.000000,0.177765,120.000000,0.487603,168.000000,0.010000,4.000000,0.010000,7.173000,1.802000,0.438000,-3.250000,-2.780000,0.000000,0.000000,5.910000,1615979279514393056
90,36.000000,0.177765,120.000000,0.487603,168.000000,2.390000,4.000000,0.000000,-3.731000,-0.556000,-10.918000,-3.290000,-2.850000,0.000000,0.000000,5.940000,1615979279534404160
91,36.000000,0.177765,120.000000,0.487603,168.000000,0.840000,4.000000,0.000000,9.836000,3.028000,-6.018000,-3.310000,-2.840000,0.000000,0.000000,5.890000,1615979279554745536
92,36.000000,0.177765,120.000000,0.487603,168.000000,2.160000,4.000000,0.020000,-5.415000,-1.107000,-10.344000,-3.300000,-2.860000,0.000000,0.000000,5.950000,1615979279574660896
93,36.000000,0.177765,120.000000,0.487603,168.000000,-2.080000,4.000000,0.020000,10.987000,2.856000,-5.293000,-3.260000,-2.840000,0.000000,0.000000,5.970000,1615979279594407520
94,36.000000,0.177765,120.000000,0.487603,168.000000,1.340000,4.000000,0.020000,-7.369000,-1.182000,-8.219000,-3.240000,-2.850000,0.000000,0.000000,5.950000,1615979279614460320
95,36.000000,0.177765,120.000000,0.487603,168.000000,-2.720000,4.000000,0.000000,11.691000,4.061000,-2.394000,-3.220000,-2.790000,0.000000,0.000000,5.970000,1615979279634541824
96,36.000000,0.177765,120.000000,0.487603,168.000000,-2.720000,4.000000,0.000000,11.691000,4.061000,-2.394000,-3.220000,-2.790000,0.000000,0.000000,5.970000,1615979279654498176
97,36.000000,0.177765,120.000000,0.487603,168.000000,1.770000,4.000000,0.010000,17.501000,4.399000,-1.049000,-3.150000,-2.750000,0.000000,0.000000,5.950000,1615979279674501728
98,36.000000,0.177765,120.000000,0.487603,168.000000,1.220000,4.000000,0.010000,-7.933000,-0.251000,-9.398000,-3.100000,-2.700000,0.000000,0.000000,5.950000,1615979279694533280
99,36.000000,0.177765,120.000000,0.487603,168.000000,-1.500000,4.000000,0.010000,17.449000,2.409000,-0.134000,-3.060000,-2.620000,0.000000,0.000000,5.970000,1615979279714660864
100,36.000000,0.177765,120.000000,0.487603,168.000000,0.780000,4.000000,0.020000,-8.579000,-0.958000,-8.658000,-3.030000,-2.670000,0.000000,0.000000,6.010000,1615979279734466944
101,36.000000,0.177765,120.000000,0.487603,168.000000,-1.610000,4.000000,0.020000,3.978000,2.981000,-8.795000,-3.030000,-2.690000,0.000000,0.000000,5.960000,1615979279754409920
102,36.000000,0.177765,120.000000,0.487603,168.000000,0.710000,4.000000,0.000000,-9.221000,-0.723000,-8.264000,-3.040000,-2.730000,0.000000,0.000000,5.990000,1615979279774483584
103,36.000000,0.177765,120.000000,0.487603,168.000000,-1.060000,4.000000,0.000000,5.220000,3.556000,-9.644000,-3.000000,-2.750000,0.000000,0.000000,5.940000,1615979279794423744
104,36.000000,0.177765,120.000000,0.487603,168.000000,2.100000,4.000000,0.000000,-9.116000,-0.647000,-9.303000,-2.970000,-2.780000,0.000000,0.000000,5.960000,1615979279814425664
105,36.000000,0.177765,120.000000,0.487603,168.000000,-0.690000,4.000000,0.020000,-1.706000,-1.541000,-2.036000,-2.970000,-2.650000,0.000000,0.000000,5.960000,1615979279834445568
106,36.000000,0.177765,120.000000,0.487603,168.000000,2.120000,4.000000,0.020000,-9.409000,-1.303000,-9.106000,-2.970000,-2.700000,0.000000,0.000000,6.050000,1615979279854928128
107,36.000000,0.177765,120.000000,0.487603,168.000000,1.950000,4.000000,0.010000,7.614000,3.354000,-3.462000,-2.980000,-2.610000,0.000000,0.000000,5.970000,1615979279874624160
108,36.000000,0.177765,120.000000,0.487603,168.000000,2.400000,4.000000,0.010000,-9.544000,-0.970000,-8.935000,-3.020000,-2.580000,0.000000,0.000000,6.060000,1615979279894594400
109,36.000000,0.177765,120.000000,0.487603,168.000000,0.550000,4.000000,0.010000,-3.949000,2.507000,-13.316000,-3.050000,-2.490000,0.000000,0.000000,6.060000,1615979279914582464
110,36.000000,0.177765,120.000000,0.487603,168.000000,2.250000,4.000000,0.000000,7.988000,-1.117000,-6.176000,-3.090000,-2.590000,0.000000,0.000000,6.100000,1615979279934696096
111,36.000000,0.177765,120.000000,0.487603,168.000000,0.890000,4.000000,0.000000,-3.112000,2.494000,-12.360000,-3.120000,-2.560000,0.000000,0.000000,6.110000,1615979279954342176
112,36.000000,0.177765,120.000000,0.487603,168.000000,-1.610000,4.000000,0.000000,-5.291000,-0.614000,-11.271000,-3.160000,-2.630000,0.000000,0.000000,6.150000,1615979279974517888
113,36.000000,0.177765,120.000000,0.487603,168.000000,1.590000,4.000000,0.000000,-1.298000,2.622000,-11.936000,-3.150000,-2.610000,0.000000,0.000000,6.110000,1615979279994729856
114,36.000000,0.177765,120.000000,0.487603,168.000000,1.880000,4.000000,0.000000,4.271000,-1.182000,-7.786000,-3.120000,-2.650000,0.000000,0.000000,6.210000,1615979280014692832
115,36.000000,0.177765,120.000000,0.487603,168.000000,-2.670000,4.000000,0.010000,-9.093000,4.254000,-15.877000,-3.130000,-2.640000,0.000000,0.000000,6.210000,1615979280034435584
116,36.000000,0.177765,120.000000,0.487603,168.000000,1.630000,4.000000,0.010000,2.131000,-1.705000,-8.049000,-3.100000,-2.700000,0.000000,0.000000,6.240000,1615979280054747744
117,36.000000,0.177765,120.000000,0.487603,168.000000,1.820000,4.000000,0.020000,17.493000,1.703000,-3.155000,-3.050000,-2.660000,0.000000,0.000000,6.270000,1615979280074481184
118,36.000000,0.177765,120.000000,0.487603,168.000000,0.250000,4.000000,0.020000,0.559000,-0.988000,-8.912000,-3.050000,-2.630000,0.000000,0.000000,6.290000,1615979280094494336
119,36.000000,0.177765,120.000000,0.487603,168.000000,-0.830000,4.000000,0.020000,-6.408000,2.318000,-13.916000,-3.060000,-2.600000,0.000000,0.000000,6.340000,1615979280116866208
120,36.000000,0.177765,120.000000,0.487603,168.000000,-0.240000,4.000000,0.020000,-1.030000,-1.041000,-10.824000,-3.030000,-2.670000,0.000000,0.000000,6.370000,1615979280134882880
121,36.000000,0.177765,120.000000,0.487603,168.000000,-0.750000,4.000000,0.020000,-5.296000,2.790000,-14.851000,-3.060000,-2.590000,0.000000,0.000000,6.370000,1615979280155114912
122,36.000000,0.177765,120.000000,0.487603,168.000000,-0.050000,4.000000,0.020000,-2.036000,-0.703000,-10.801000,-3.060000,-2.660000,0.000000,0.000000,6.400000,1615979280174984480
123,36.000000,0.177765,120.000000,0.487603,168.000000,-0.150000,4.000000,0.020000,-5.281000,2.504000,-13.680000,-3.030000,-2.620000,0.000000,0.000000,6.410000,1615979280194996864
124,36.000000,0.177765,120.000000,0.487603,168.000000,-0.420000,4.000000,0.020000,-2.839000,-0.383000,-12.067000,-3.000000,-2.680000,0.000000,0.000000,6.440000,1615979280215068704
125,36.000000,0.177765,120.000000,0.487603,168.000000,0.460000,4.000000,0.000000,-4.201000,2.731000,-13.598000,-2.990000,-2.690000,0.000000,0.000000,6.460000,1615979280235101344
126,36.000000,0.177765,120.000000,0.487603,168.000000,2.500000,4.000000,0.000000,8.105000,-0.880000,-7.128000,-2.990000,-2.740000,0.000000,0.000000,6.490000,1615979280254960032
127,36.000000,0.177765,120.000000,0.487603,168.000000,1.560000,4.000000,0.000000,9.084000,2.961000,-5.103000,-3.010000,-2.710000,0.000000,0.000000,6.440000,1615979280274927584
128,36.000000,0.177765,120.000000,0.487603,168.000000,2.240000,4.000000,0.000000,6.995000,-0.813000,-6.906000,-3.050000,-2.690000,0.000000,0.000000,6.470000,1615979280294933344
129,36.000000,0.177765,120.000000,0.487603,168.000000,1.090000,4.000000,0.000000,-2.068000,3.183000,-10.697000,-3.080000,-2.640000,0.000000,0.000000,6.370000,1615979280315015616
130,36.000000,0.177765,120.000000,0.487603,168.000000,1.810000,4.000000,0.010000,5.593000,-0.711000,-8.578000,-3.130000,-2.700000,0.000000,0.000000,6.410000,1615979280334958144
131,36.000000,0.177765,120.000000,0.487603,168.000000,1.110000,4.000000,0.010000,-0.086000,3.373000,-12.358000,-3.150000,-2.590000,0.000000,0.000000,6.370000,1615979280354967136
132,36.000000,0.177765,120.000000,0.487603,168.000000,1.420000,4.000000,0.020000,3.466000,-0.682000,-10.315000,-3.160000,-2.630000,0.000000,0.000000,6.400000,1615979280374973984
133,36.000000,0.177765,120.000000,0.487603,168.000000,1.280000,4.000000,0.020000,2.656000,3.805000,-14.409000,-3.150000,-2.560000,0.000000,0.000000,6.370000,1615979280394916352
134,36.000000,0.177765,120.000000,0.487603,168.000000,0.700000,4.000000,0.020000,1.087000,-0.015000,-10.322000,-3.120000,-2.620000,0.000000,0.000000,6.390000,1615979280414921088
135,36.000000,0.177765,120.000000,0.487603,168.000000,-1.730000,4.000000,0.020000,3.086000,2.528000,-9.530000,-3.130000,-2.660000,0.000000,0.000000,6.370000,1615979280435422976
136,36.000000,0.177765,120.000000,0.487603,168.000000,0.750000,4.000000,0.020000,0.060000,-0.233000,-11.570000,-3.100000,-2.670000,0.000000,0.000000,6.450000,1615979280455143680
137,36.000000,0.177765,120.000000,0.487603,168.000000,1.540000,4.000000,0.020000,10.736000,-1.952000,-0.465000,-3.050000,-2.630000,0.000000,0.000000,6.470000,1615979280475012064
138,36.000000,0.177765,120.000000,0.487603,168.000000,0.460000,4.000000,0.020000,-1.413000,-0.548000,-12.468000,-3.020000,-2.550000,0.000000,0.000000,6.550000,1615979280495194272
139,36.000000,0.177765,120.000000,0.487603,168.000000,-0.480000,4.000000,0.020000,-5.441000,2.826000,-13.574000,-2.990000,-2.550000,0.000000,0.000000,6.590000,1615979280515206624
140,36.000000,0.177765,120.000000,0.487603,168.000000,-0.250000,4.000000,0.020000,-2.137000,-0.025000,-13.806000,-2.970000,-2.660000,0.000000,0.000000,6.630000,1615979280535145280
141,36.000000,0.177765,120.000000,0.487603,168.000000,-0.290000,4.000000,0.020000,-5.240000,3.125000,-15.603000,-2.960000,-2.680000,0.000000,0.000000,6.640000,1615979280555105472
142,36.000000,0.177765,120.000000,0.487603,168.000000,-0.230000,4.000000,0.010000,-2.870000,0.242000,-12.635000,-2.960000,-2.730000,0.000000,0.000000,6.720000,1615979280575293984
143,36.000000,0.177765,120.000000,0.487603,168.000000,0.430000,4.000000,0.010000,-4.388000,2.621000,-14.328000,-2.920000,-2.710000,0.000000,0.000000,6.730000,1615979280593046624
144,36.000000,0.177765,120.000000,0.487603,168.000000,-0.250000,4.000000,0.010000,-3.595000,-0.506000,-12.088000,-2.880000,-2.780000,0.000000,0.000000,6.820000,1615979280615133984
145,36.000000,0.177765,120.000000,0.487603,168.000000,0.900000,4.000000,0.000000,-3.792000,2.774000,-13.953000,-2.840000,-2.770000,0.000000,0.000000,6.830000,1615979280635015392
146,36.000000,0.177765,120.000000,0.487603,168.000000,2.360000,4.000000,0.000000,-4.905000,-0.500000,-7.633000,-2.850000,-2.830000,0.000000,0.000000,6.910000,1615979280655030368
147,36.000000,0.177765,120.000000,0.487603,168.000000,1.520000,4.000000,0.010000,9.831000,0.113000,-1.919000,-2.830000,-2.750000,0.000000,0.000000,6.920000,1615979280675016160
148,36.000000,0.177765,120.000000,0.487603,168.000000,2.300000,4.000000,0.010000,6.343000,-0.381000,-8.623000,-2.870000,-2.730000,0.000000,0.000000,6.950000,1615979280694973024
149,36.000000,0.177765,120.000000,0.487603,168.000000,1.360000,4.000000,0.010000,-1.067000,3.219000,-12.271000,-2.900000,-2.670000,0.000000,0.000000,6.910000,1615979280714984288
150,36.000000,0.177765,120.000000,0.487603,168.000000,1.580000,4.000000,0.010000,5.040000,-0.944000,-7.331000,-2.940000,-2.750000,0.000000,0.000000,6.910000,1615979280734992192
151,36.000000,0.177765,120.000000,0.487603,168.000000,0.710000,4.000000,0.010000,0.183000,3.210000,-14.755000,-2.960000,-2.670000,0.000000,0.000000,6.830000,1615979280754935520
152,36.000000,0.177765,120.000000,0.487603,168.000000,0.950000,4.000000,0.020000,3.996000,-0.524000,-7.880000,-3.010000,-2.740000,0.000000,0.000000,6.810000,1615979280775178048
153,36.000000,0.177765,120.000000,0.487603,168.000000,1.770000,4.000000,0.020000,0.784000,3.732000,-13.082000,-3.000000,-2.640000,0.000000,0.000000,6.760000,1615979280795113120
154,36.000000,0.177765,120.000000,0.487603,168.000000,1.360000,4.000000,0.020000,2.820000,-0.749000,-8.085000,-2.970000,-2.700000,0.000000,0.000000,6.790000,1615979280815145856
155,36.000000,0.177765,120.000000,0.487603,168.000000,1.440000,4.000000,0.010000,1.322000,3.565000,-13.616000,-2.940000,-2.700000,0.000000,0.000000,6.720000,1615979280835427200
156,36.000000,0.177765,120.000000,0.487603,168.000000,0.880000,4.000000,0.010000,2.151000,-0.775000,-9.373000,-2.910000,-2.750000,0.000000,0.000000,6.810000,1615979280855122144
157,36.000000,0.177765,120.000000,0.487603,168.000000,0.870000,4.000000,0.010000,17.284000,9.032000,3.097000,-2.860000,-2.670000,0.000000,0.000000,6.810000,1615979280875264672
158,36.000000,0.177765,120.000000,0.487603,168.000000,0.870000,4.000000,0.010000,17.284000,9.032000,3.097000,-2.860000,-2.670000,0.000000,0.000000,6.810000,1615979280895269824
159,36.000000,0.177765,120.000000,0.487603,168.000000,-2.140000,4.000000,0.010000,-7.048000,1.901000,-14.500000,-2.800000,-2.510000,0.000000,0.000000,6.830000,1615979280915119648
160,36.000000,0.177765,120.000000,0.487603,168.000000,0.680000,4.000000,0.020000,0.342000,-0.162000,-10.932000,-2.770000,-2.580000,0.000000,0.000000,6.850000,1615979280935255232
161,36.000000,0.177765,120.000000,0.487603,168.000000,-2.060000,4.000000,0.020000,-6.398000,2.037000,-14.303000,-2.770000,-2.520000,0.000000,0.000000,6.830000,1615979280955266528
162,36.000000,0.177765,120.000000,0.487603,168.000000,-3.380000,4.000000,0.020000,-8.652000,-0.455000,-8.280000,-2.770000,-2.580000,0.000000,0.000000,6.850000,1615979280975139360
163,36.000000,0.177765,120.000000,0.487603,168.000000,-0.620000,4.000000,0.020000,-6.100000,2.301000,-14.000000,-2.730000,-2.560000,0.000000,0.000000,6.800000,1615979280995167744
164,36.000000,0.177765,120.000000,0.487603,168.000000,0.710000,4.000000,0.020000,-1.825000,-0.904000,-13.097000,-2.700000,-2.620000,0.000000,0.000000,6.880000,1615979281015000352
165,36.000000,0.177765,120.000000,0.487603,168.000000,0.190000,4.000000,0.020000,-5.775000,2.746000,-13.351000,-2.710000,-2.710000,0.000000,0.000000,6.870000,1615979281034951136
166,36.000000,0.177765,120.000000,0.487603,168.000000,2.550000,4.000000,0.020000,-2.270000,-0.044000,-13.042000,-2.710000,-2.750000,0.000000,0.000000,6.880000,1615979281055401344
167,36.000000,0.177765,120.000000,0.487603,168.000000,2.270000,4.000000,0.010000,5.700000,2.497000,-0.862000,-2.690000,-2.720000,0.000000,0.000000,6.860000,1615979281075306816
168,36.000000,0.177765,120.000000,0.487603,168.000000,2.540000,4.000000,0.010000,8.996000,-1.508000,-4.808000,-2.730000,-2.680000,0.000000,0.000000,6.940000,1615979281095299136
169,36.000000,0.177765,120.000000,0.487603,168.000000,0.410000,4.000000,0.010000,-4.070000,2.401000,-12.635000,-2.760000,-2.580000,0.000000,0.000000,6.940000,1615979281115288064
170,36.000000,0.177765,120.000000,0.487603,168.000000,2.380000,4.000000,0.020000,8.740000,-1.341000,-6.017000,-2.800000,-2.670000,0.000000,0.000000,6.950000,1615979281135077184
171,36.000000,0.177765,120.000000,0.487603,168.000000,0.350000,4.000000,0.020000,-4.151000,2.135000,-13.565000,-2.830000,-2.630000,0.000000,0.000000,6.900000,1615979281155124544
172,36.000000,0.177765,120.000000,0.487603,168.000000,2.030000,4.000000,0.020000,7.852000,-1.067000,-5.057000,-2.870000,-2.720000,0.000000,0.000000,6.880000,1615979281174997920
173,36.000000,0.177765,120.000000,0.487603,168.000000,0.420000,4.000000,0.020000,-3.673000,2.298000,-13.148000,-2.900000,-2.670000,0.000000,0.000000,6.830000,1615979281195071520
174,36.000000,0.177765,120.000000,0.487603,168.000000,1.350000,4.000000,0.020000,8.118000,-0.743000,-3.249000,-2.900000,-2.760000,0.000000,0.000000,6.850000,1615979281214966528
175,36.000000,0.177765,120.000000,0.487603,168.000000,-0.180000,4.000000,0.010000,-2.368000,2.582000,-15.812000,-2.890000,-2.640000,0.000000,0.000000,6.810000,1615979281234965568
176,36.000000,0.177765,120.000000,0.487603,168.000000,1.560000,4.000000,0.010000,6.325000,-1.723000,-8.480000,-2.870000,-2.740000,0.000000,0.000000,6.820000,1615979281254969088
177,36.000000,0.177765,120.000000,0.487603,168.000000,-0.130000,4.000000,0.000000,10.609000,2.895000,-3.598000,-2.840000,-2.700000,0.000000,0.000000,6.790000,1615979281275005952
178,36.000000,0.177765,120.000000,0.487603,168.000000,1.690000,4.000000,0.000000,5.593000,-1.107000,-4.242000,-2.810000,-2.680000,0.000000,0.000000,6.770000,1615979281295302016
179,36.000000,0.177765,120.000000,0.487603,168.000000,-5.020000,4.000000,0.000000,-9.062000,0.360000,-12.929000,-2.810000,-2.610000,0.000000,0.000000,6.740000,1615979281315473376
180,36.000000,0.177765,120.000000,0.487603,168.000000,1.590000,4.000000,0.010000,4.758000,-1.431000,-5.195000,-2.780000,-2.690000,0.000000,0.000000,6.730000,1615979281335315584
181,36.000000,0.177765,120.000000,0.487603,168.000000,-2.590000,4.000000,0.010000,-8.237000,0.048000,-10.813000,-2.740000,-2.630000,0.000000,0.000000,6.780000,1615979281355406784
182,36.000000,0.177765,120.000000,0.487603,168.000000,1.470000,4.000000,0.000000,4.136000,-0.554000,-8.216000,-2.710000,-2.660000,0.000000,0.000000,6.760000,1615979281375528384
183,36.000000,0.177765,120.000000,0.487603,168.000000,-2.820000,4.000000,0.000000,-7.445000,0.794000,-13.172000,-2.690000,-2.710000,0.000000,0.000000,6.780000,1615979281395427040
184,36.000000,0.177765,120.000000,0.487603,168.000000,1.310000,4.000000,0.000000,2.566000,-1.057000,-7.136000,-2.660000,-2.790000,0.000000,0.000000,6.830000,1615979281415394496
185,36.000000,0.177765,120.000000,0.487603,168.000000,-2.050000,4.000000,0.020000,-7.856000,0.801000,-13.340000,-2.680000,-2.760000,0.000000,0.000000,6.850000,1615979281435025600
186,36.000000,0.177765,120.000000,0.487603,168.000000,1.440000,4.000000,0.020000,1.617000,-0.556000,-9.396000,-2.650000,-2.820000,0.000000,0.000000,6.880000,1615979281455278560
187,36.000000,0.177765,120.000000,0.487603,168.000000,2.720000,4.000000,0.010000,2.130000,4.213000,-10.299000,-2.640000,-2.850000,0.000000,0.000000,6.840000,1615979281474971136
188,36.000000,0.177765,120.000000,0.487603,168.000000,1.570000,4.000000,0.010000,17.434000,7.907000,0.020000,-2.630000,-2.890000,0.000000,0.000000,6.900000,1615979281495050720
189,36.000000,0.177765,120.000000,0.487603,168.000000,-2.360000,4.000000,0.010000,-7.797000,0.205000,-13.782000,-2.670000,-2.850000,0.000000,0.000000,6.930000,1615979281515223296
190,36.000000,0.177765,120.000000,0.487603,168.000000,1.480000,4.000000,0.010000,17.429000,7.873000,0.160000,-2.690000,-2.910000,0.000000,0.000000,6.990000,1615979281535297504
191,36.000000,0.177765,120.000000,0.487603,168.000000,-2.240000,4.000000,0.010000,-7.313000,0.910000,-13.479000,-2.730000,-2.870000,0.000000,0.000000,7.000000,1615979281555262784
192,36.000000,0.177765,120.000000,0.487603,168.000000,1.480000,4.000000,0.010000,17.207000,5.500000,4.792000,-2.760000,-2.910000,0.000000,0.000000,7.010000,1615979281573237312
193,36.000000,0.177765,120.000000,0.487603,168.000000,-2.960000,4.000000,0.010000,-6.979000,1.971000,-15.203000,-2.790000,-2.850000,0.000000,0.000000,6.960000,1615979281595273792
194,36.000000,0.177765,120.000000,0.487603,168.000000,1.660000,4.000000,0.010000,10.655000,-2.894000,0.767000,-2.750000,-2.910000,0.000000,0.000000,7.000000,1615979281615463488
195,36.000000,0.177765,120.000000,0.487603,168.000000,-0.680000,4.000000,0.000000,-5.296000,2.383000,-12.281000,-2.790000,-2.820000,0.000000,0.000000,6.950000,1615979281635619040
196,36.000000,0.177765,120.000000,0.487603,168.000000,1.720000,4.000000,0.000000,10.312000,-2.022000,-0.995000,-2.750000,-2.890000,0.000000,0.000000,6.920000,1615979281653381952
197,36.000000,0.177765,120.000000,0.487603,168.000000,1.610000,4.000000,0.000000,5.490000,2.159000,-4.695000,-2.770000,-2.780000,0.000000,0.000000,6.900000,1615979281675281664
198,36.000000,0.177765,120.000000,0.487603,168.000000,1.560000,4.000000,0.000000,9.608000,-1.473000,-3.690000,-2.740000,-2.770000,0.000000,0.000000,6.940000,1615979281695304064
199,36.000000,0.177765,120.000000,0.487603,168.000000,-4.570000,4.000000,0.000000,-9.462000,-0.561000,-9.243000,-2.760000,-2.680000,0.000000,0.000000,6.920000,1615979281715238784
200,36.000000,0.177765,120.000000,0.487603,168.000000,2.160000,4.000000,0.010000,9.763000,-1.128000,-4.910000,-2.730000,-2.690000,0.000000,0.000000,6.940000,1615979281735859776
201,36.000000,0.177765,120.000000,0.487603,168.000000,-4.200000,4.000000,0.010000,-9.352000,-0.558000,-9.114000,-2.690000,-2.620000,0.000000,0.000000,6.930000,1615979281753152512
202,36.000000,0.177765,120.000000,0.487603,168.000000,2.090000,4.000000,0.010000,8.984000,-1.421000,-5.550000,-2.660000,-2.670000,0.000000,0.000000,6.960000,1615979281775096448
203,36.000000,0.177765,120.000000,0.487603,168.000000,-4.030000,4.000000,0.010000,-10.317000,-0.579000,-10.206000,-2.630000,-2.580000,0.000000,0.000000,7.010000,1615979281795194112
204,36.000000,0.177765,120.000000,0.487603,168.000000,2.440000,4.000000,0.010000,9.160000,-0.821000,-6.287000,-2.600000,-2.640000,0.000000,0.000000,7.040000,1615979281815291520
205,36.000000,0.177765,120.000000,0.487603,168.000000,-4.630000,4.000000,0.040000,-10.070000,0.178000,-10.964000,-2.610000,-2.610000,0.000000,0.010000,7.120000,1615979281835222880
206,36.000000,0.177765,120.000000,0.487603,168.000000,2.340000,4.000000,0.040000,8.200000,-1.215000,-5.625000,-2.580000,-2.660000,0.000000,0.010000,7.200000,1615979281855206816
207,36.000000,0.177765,120.000000,0.487603,168.000000,-4.150000,4.000000,0.020000,-9.817000,-0.024000,-10.169000,-2.620000,-2.690000,0.000000,0.010000,7.240000,1615979281875286368
208,36.000000,0.177765,120.000000,0.487603,168.000000,1.930000,4.000000,0.020000,7.813000,-1.409000,-6.285000,-2.570000,-2.740000,0.000000,0.000000,7.290000,1615979281895219104
209,36.000000,0.177765,120.000000,0.487603,168.000000,-4.050000,4.000000,0.020000,-10.059000,0.431000,-12.111000,-2.610000,-2.760000,0.000000,0.000000,7.320000,1615979281915179872
210,36.000000,0.177765,120.000000,0.487603,168.000000,1.720000,4.000000,0.000000,10.570000,3.007000,-0.603000,-2.570000,-2.820000,0.000000,0.000000,7.380000,1615979281935117888
211,36.000000,0.177765,120.000000,0.487603,168.000000,-3.760000,4.000000,0.000000,-9.133000,1.170000,-12.566000,-2.610000,-2.800000,0.000000,0.000000,7.400000,1615979281955173952
212,36.000000,0.177765,120.000000,0.487603,168.000000,1.700000,4.000000,0.000000,12.865000,-3.584000,2.797000,-2.590000,-2.840000,0.000000,0.000000,7.460000,1615979281975139904
213,36.000000,0.177765,120.000000,0.487603,168.000000,-3.400000,4.000000,0.000000,-8.600000,1.449000,-15.528000,-2.630000,-2.770000,0.000000,0.000000,7.480000,1615979281995030304
214,36.000000,0.177765,120.000000,0.487603,168.000000,1.480000,4.000000,0.000000,7.843000,-2.918000,-0.962000,-2.660000,-2.840000,0.000000,0.000000,7.550000,1615979282015415456
215,36.000000,0.177765,120.000000,0.487603,168.000000,-3.150000,4.000000,0.020000,-8.307000,0.796000,-14.902000,-2.680000,-2.690000,0.000000,0.000000,7.600000,1615979282035022656
216,36.000000,0.177765,120.000000,0.487603,168.000000,1.570000,4.000000,0.020000,17.378000,7.265000,1.242000,-2.710000,-2.740000,0.000000,0.000000,7.610000,1615979282054975680
217,36.000000,0.177765,120.000000,0.487603,168.000000,1.570000,4.000000,0.020000,17.378000,7.265000,1.242000,-2.710000,-2.740000,0.000000,0.000000,7.610000,1615979282075293728
218,36.000000,0.177765,120.000000,0.487604,168.000000,1.740000,4.000000,0.020000,17.237000,7.027000,4.124000,-2.790000,-2.770000,0.000000,0.000000,7.640000,1615979282095176768
219,36.000000,0.177765,120.000000,0.487604,168.000000,-4.050000,4.000000,0.020000,-8.702000,-0.414000,-7.957000,-2.820000,-2.740000,0.000000,0.000000,7.650000,1615979282115255616
220,36.000000,0.177765,120.000000,0.487604,168.000000,1.960000,4.000000,0.010000,11.203000,-2.206000,-0.216000,-2.820000,-2.730000,0.000000,0.000000,7.680000,1615979282135227360
221,36.000000,0.177765,120.000000,0.487604,168.000000,-3.620000,4.000000,0.010000,-8.902000,-1.105000,-7.830000,-2.850000,-2.680000,0.000000,0.000000,7.720000,1615979282155543552
222,36.000000,0.177765,120.000000,0.487604,168.000000,2.230000,4.000000,0.020000,10.751000,-1.697000,-1.593000,-2.810000,-2.690000,0.000000,0.000000,7.750000,1615979282175675456
223,36.000000,0.177765,120.000000,0.487604,168.000000,-4.070000,4.000000,0.020000,-9.498000,-0.574000,-9.145000,-2.770000,-2.610000,0.000000,0.000000,7.780000,1615979282193279648
224,36.000000,0.177765,120.000000,0.487604,168.000000,2.130000,4.000000,0.020000,10.579000,-1.096000,-2.633000,-2.740000,-2.660000,0.000000,0.000000,7.850000,1615979282215287840
225,36.000000,0.177765,120.000000,0.487604,168.000000,-4.430000,4.000000,0.020000,-9.852000,-0.787000,-8.711000,-2.720000,-2.650000,0.000000,0.000000,7.910000,1615979282235209056
226,36.000000,0.177765,120.000000,0.487604,168.000000,2.120000,4.000000,0.020000,9.971000,-1.233000,-4.245000,-2.690000,-2.700000,0.000000,0.000000,7.940000,1615979282255231712
227,36.000000,0.177765,120.000000,0.487604,168.000000,-0.400000,4.000000,0.020000,-5.330000,2.905000,-12.829000,-2.670000,-2.710000,0.000000,0.000000,7.960000,1615979282275303072
228,36.000000,0.177765,120.000000,0.487604,168.000000,2.490000,4.000000,0.020000,9.503000,-1.882000,-4.300000,-2.630000,-2.800000,0.000000,0.000000,8.060000,1615979282295085696
229,36.000000,0.177765,120.000000,0.487604,168.000000,-3.990000,4.000000,0.020000,-10.290000,-0.527000,-10.356000,-2.640000,-2.810000,0.000000,0.000000,8.110000,1615979282314972160
230,36.000000,0.177765,120.000000,0.487604,168.000000,2.130000,4.000000,0.000000,7.913000,0.815000,-0.235000,-2.600000,-2.830000,0.000000,0.000000,8.140000,1615979282335083232
231,36.000000,0.177765,120.000000,0.487604,168.000000,-4.490000,4.000000,0.000000,-10.285000,0.351000,-11.076000,-2.640000,-2.790000,0.000000,0.000000,8.180000,1615979282355108320
232,36.000000,0.177765,120.000000,0.487604,168.000000,2.260000,4.000000,0.020000,8.174000,3.162000,-4.717000,-2.630000,-2.850000,0.000000,0.000000,8.220000,1615979282375073408
233,36.000000,0.177765,120.000000,0.487604,168.000000,-4.420000,4.000000,0.020000,-9.707000,0.082000,-10.289000,-2.670000,-2.850000,0.000000,0.000000,8.260000,1615979282395038592
234,36.000000,0.177765,120.000000,0.487604,168.000000,1.620000,4.000000,0.020000,9.269000,1.653000,-4.950000,-2.660000,-2.890000,0.000000,0.000000,8.310000,1615979282415010368
235,36.000000,0.177765,120.000000,0.487604,168.000000,-3.510000,4.000000,0.020000,-9.178000,0.529000,-11.417000,-2.700000,-2.900000,0.000000,0.000000,8.350000,1615979282434966176
236,36.000000,0.177765,120.000000,0.487604,168.000000,1.790000,4.000000,0.020000,13.961000,-2.816000,-0.889000,-2.730000,-2.890000,0.000000,0.000000,8.350000,1615979282454980576
237,36.000000,0.177765,120.000000,0.487604,168.000000,1.930000,4.000000,0.020000,-1.268000,2.954000,-11.483000,-2.770000,-2.840000,0.000000,0.000000,8.330000,1615979282475618944
238,36.000000,0.177765,120.000000,0.487604,168.000000,1.700000,4.000000,0.020000,12.359000,-1.438000,1.442000,-2.800000,-2.850000,0.000000,0.000000,8.320000,1615979282493376800
239,36.000000,0.177765,120.000000,0.487604,168.000000,1.700000,4.000000,0.020000,12.359000,-1.438000,1.442000,-2.800000,-2.850000,0.000000,0.000000,8.320000,1615979282515016640
240,36.000000,0.177765,120.000000,0.487604,168.000000,1.760000,4.000000,0.050000,8.072000,-0.777000,-1.489000,-2.860000,-2.900000,0.000000,0.010000,8.310000,1615979282535294624
241,36.000000,0.177765,120.000000,0.487604,168.000000,-3.080000,4.000000,0.050000,-8.167000,-0.708000,-11.048000,-2.900000,-2.870000,0.000000,0.010000,8.230000,1615979282555063040
242,36.000000,0.177765,120.000000,0.487604,168.000000,1.700000,4.000000,0.010000,17.416000,8.851000,0.455000,-2.860000,-2.870000,0.000000,0.010000,8.190000,1615979282575222080
243,36.000000,0.177765,120.000000,0.487604,168.000000,-3.590000,4.000000,0.010000,-8.502000,-0.926000,-9.812000,-2.820000,-2.840000,0.000000,0.000000,8.110000,1615979282595009312
244,36.000000,0.177765,120.000000,0.487604,168.000000,1.690000,4.000000,0.010000,17.328000,6.747000,2.266000,-2.780000,-2.840000,0.000000,0.000000,8.060000,1615979282615056160
245,36.000000,0.177765,120.000000,0.487604,168.000000,-4.050000,4.000000,0.010000,-8.661000,-0.248000,-9.204000,-2.790000,-2.820000,0.000000,0.000000,8.010000,1615979282635039968
246,36.000000,0.177765,120.000000,0.487604,168.000000,1.740000,4.000000,0.010000,17.396000,10.917000,0.863000,-2.760000,-2.810000,0.000000,0.000000,7.970000,1615979282654987072
247,36.000000,0.177765,120.000000,0.487604,168.000000,-2.300000,4.000000,0.000000,-7.650000,1.053000,-12.448000,-2.800000,-2.780000,0.000000,0.000000,7.920000,1615979282675018848
248,36.000000,0.177765,120.000000,0.487604,168.000000,2.110000,4.000000,0.000000,16.918000,0.148000,0.814000,-2.760000,-2.820000,0.000000,0.000000,7.890000,1615979282695222176
249,36.000000,0.177765,120.000000,0.487604,168.000000,-4.030000,4.000000,0.000000,-9.379000,-0.911000,-9.426000,-2.770000,-2.770000,0.000000,0.000000,7.830000,1615979282714996928
250,36.000000,0.177765,120.000000,0.487604,168.000000,2.780000,4.000000,0.010000,5.134000,4.968000,-10.971000,-2.740000,-2.790000,0.000000,0.000000,7.740000,1615979282735464896
251,36.000000,0.177765,120.000000,0.487604,168.000000,-4.650000,4.000000,0.010000,-9.499000,-1.028000,-8.083000,-2.710000,-2.850000,0.000000,0.000000,7.690000,1615979282755034336
252,36.000000,0.177765,120.000000,0.487604,168.000000,2.280000,4.000000,0.010000,5.334000,2.221000,-3.344000,-2.670000,-2.870000,0.000000,0.000000,7.610000,1615979282775469920
253,36.000000,0.177765,120.000000,0.487604,168.000000,-4.100000,4.000000,0.010000,-8.870000,-0.697000,-9.469000,-2.710000,-2.860000,0.000000,0.000000,7.610000,1615979282795500736
254,36.000000,0.177765,120.000000,0.487604,168.000000,1.920000,4.000000,0.010000,7.087000,3.037000,-4.653000,-2.670000,-2.900000,0.000000,0.000000,7.530000,1615979282815477952
255,36.000000,0.177765,120.000000,0.487604,168.000000,-3.980000,4.000000,0.020000,-9.863000,-1.219000,-8.824000,-2.700000,-2.830000,0.000000,0.000000,7.510000,1615979282835422528
256,36.000000,0.177765,120.000000,0.487604,168.000000,2.170000,4.000000,0.020000,7.670000,1.004000,0.374000,-2.720000,-2.780000,0.000000,0.000000,7.430000,1615979282857321984
257,36.000000,0.177765,120.000000,0.487604,168.000000,0.210000,4.000000,0.020000,-4.209000,3.070000,-14.719000,-2.770000,-2.760000,0.000000,0.000000,7.380000,1615979282875211232
258,36.000000,0.177765,120.000000,0.487604,168.000000,1.650000,4.000000,0.010000,10.375000,0.544000,-2.451000,-2.830000,-2.810000,0.000000,0.000000,7.270000,1615979282918592928
259,36.000000,0.177765,120.000000,0.487604,168.000000,1.650000,4.000000,0.010000,10.375000,0.544000,-2.451000,-2.830000,-2.810000,0.000000,0.000000,7.270000,1615979282920788192
260,36.000000,0.177765,120.000000,0.487604,168.000000,1.650000,4.000000,0.010000,10.375000,0.544000,-2.451000,-2.830000,-2.810000,0.000000,0.000000,7.270000,1615979282934848832
261,36.000000,0.177765,120.000000,0.487604,168.000000,-1.740000,4.000000,0.010000,-5.647000,-0.520000,-11.259000,-2.840000,-2.810000,0.000000,0.000000,7.210000,1615979282954708128
262,36.000000,0.177765,120.000000,0.487604,168.000000,1.510000,4.000000,0.020000,7.668000,2.394000,-5.121000,-2.790000,-2.800000,0.000000,0.000000,7.150000,1615979282974873920
263,36.000000,0.177765,120.000000,0.487604,168.000000,-2.120000,4.000000,0.020000,-6.558000,-0.416000,-11.278000,-2.800000,-2.820000,0.000000,0.000000,7.140000,1615979282995024544
264,36.000000,0.177765,120.000000,0.487604,168.000000,1.910000,4.000000,0.020000,8.152000,2.695000,-5.032000,-2.760000,-2.810000,0.000000,0.000000,7.070000,1615979283014935360
265,36.000000,0.177765,120.000000,0.487604,168.000000,-2.620000,4.000000,0.020000,-7.589000,-0.648000,-9.508000,-2.750000,-2.760000,0.000000,0.000000,7.070000,1615979283034989056
266,36.000000,0.177765,120.000000,0.487604,168.000000,1.520000,4.000000,0.020000,7.890000,-3.205000,-0.308000,-2.710000,-2.750000,0.000000,0.000000,7.020000,1615979283054955040
267,36.000000,0.177765,120.000000,0.487604,168.000000,-3.030000,4.000000,0.010000,-8.751000,1.384000,-15.925000,-2.680000,-2.740000,0.000000,0.000000,6.960000,1615979283075141472
268,36.000000,0.177765,120.000000,0.487604,168.000000,2.020000,4.000000,0.010000,17.404000,9.158000,0.691000,-2.640000,-2.800000,0.000000,0.000000,6.990000,1615979283094810400
269,36.000000,0.177765,120.000000,0.487604,168.000000,-3.540000,4.000000,0.010000,-8.939000,-1.322000,-7.163000,-2.620000,-2.790000,0.000000,0.000000,6.940000,1615979283114820512
270,36.000000,0.177765,120.000000,0.487604,168.000000,2.210000,4.000000,0.020000,17.418000,9.762000,0.362000,-2.580000,-2.750000,0.000000,0.000000,6.860000,1615979283134748256
271,36.000000,0.177765,120.000000,0.487604,168.000000,-3.670000,4.000000,0.020000,-8.625000,-0.223000,-9.279000,-2.550000,-2.730000,0.000000,0.000000,6.870000,1615979283154783488
272,36.000000,0.177765,120.000000,0.487604,168.000000,-3.900000,4.000000,0.020000,-8.443000,-0.665000,-8.568000,-2.550000,-2.790000,0.000000,0.000000,6.800000,1615979283194827392
273,36.000000,0.177765,120.000000,0.487604,168.000000,1.630000,4.000000,0.020000,5.012000,2.365000,-6.760000,-2.550000,-2.790000,0.000000,0.000000,6.780000,1615979283214712128
274,36.000000,0.177765,120.000000,0.487604,168.000000,-3.560000,4.000000,0.010000,-8.852000,-1.059000,-8.684000,-2.590000,-2.810000,0.000000,0.000000,6.780000,1615979283234691872
275,36.000000,0.177765,120.000000,0.487604,168.000000,1.920000,4.000000,0.010000,4.987000,2.729000,-6.171000,-2.620000,-2.750000,0.000000,0.000000,6.680000,1615979283254631776
276,36.000000,0.177765,120.000000,0.487604,168.000000,-0.860000,4.000000,0.000000,-5.848000,1.733000,-12.713000,-2.670000,-2.780000,0.000000,0.000000,6.710000,1615979283274924352
277,36.000000,0.177765,120.000000,0.487604,168.000000,2.040000,4.000000,0.000000,5.296000,2.156000,-4.045000,-2.690000,-2.760000,0.000000,0.000000,6.670000,1615979283294804704
278,36.000000,0.177765,120.000000,0.487604,168.000000,-4.150000,4.000000,0.000000,-8.888000,-0.945000,-9.901000,-2.740000,-2.770000,0.000000,0.000000,6.670000,1615979283314823616
279,36.000000,0.177765,120.000000,0.487604,168.000000,1.650000,4.000000,0.020000,7.110000,3.045000,-1.955000,-2.760000,-2.730000,0.000000,0.000000,6.590000,1615979283335011648
280,36.000000,0.177765,120.000000,0.487604,168.000000,-0.710000,4.000000,0.020000,-9.496000,-0.365000,-14.252000,-2.810000,-2.720000,0.000000,0.000000,6.590000,1615979283355003936
281,36.000000,0.177765,120.000000,0.487604,168.000000,1.860000,4.000000,0.010000,7.230000,2.905000,-3.166000,-2.830000,-2.730000,0.000000,0.000000,6.510000,1615979283374978368
282,36.000000,0.177765,120.000000,0.487604,168.000000,-1.310000,4.000000,0.010000,-3.868000,-0.427000,-12.951000,-2.840000,-2.740000,0.000000,0.000000,6.500000,1615979283395099264
283,36.000000,0.177765,120.000000,0.487604,168.000000,1.660000,4.000000,0.010000,7.252000,2.723000,-4.647000,-2.830000,-2.750000,0.000000,0.000000,6.470000,1615979283415080640
284,36.000000,0.177765,120.000000,0.487604,168.000000,-1.120000,4.000000,0.020000,-4.333000,-0.692000,-11.349000,-2.840000,-2.770000,0.000000,0.000000,6.460000,1615979283435079584
285,36.000000,0.177765,120.000000,0.487604,168.000000,1.610000,4.000000,0.020000,8.615000,2.662000,-2.416000,-2.790000,-2.760000,0.000000,0.000000,6.390000,1615979283454913216
286,36.000000,0.177765,120.000000,0.487604,168.000000,-3.230000,4.000000,0.020000,-3.537000,-0.350000,-10.655000,-2.790000,-2.730000,0.000000,0.000000,6.410000,1615979283475099968
287,36.000000,0.177765,120.000000,0.487604,168.000000,1.480000,4.000000,0.020000,7.662000,2.424000,-3.758000,-2.750000,-2.710000,0.000000,0.000000,6.400000,1615979283494984704
288,36.000000,0.177765,120.000000,0.487604,168.000000,-1.750000,4.000000,0.020000,-5.683000,-0.939000,-12.341000,-2.750000,-2.690000,0.000000,0.000000,6.430000,1615979283515142272
289,36.000000,0.177765,120.000000,0.487604,168.000000,-1.750000,4.000000,0.020000,-5.683000,-0.939000,-12.341000,-2.750000,-2.690000,0.000000,0.000000,6.430000,1615979283534984864
290,36.000000,0.177765,120.000000,0.487604,168.000000,-1.980000,4.000000,0.020000,-6.108000,-1.178000,-10.732000,-2.680000,-2.740000,0.000000,0.000000,6.510000,1615979283555015968
291,36.000000,0.177765,120.000000,0.487604,168.000000,1.640000,4.000000,0.020000,-1.506000,2.062000,-11.162000,-2.650000,-2.730000,0.000000,0.000000,6.440000,1615979283575487008
292,36.000000,0.177765,120.000000,0.487604,168.000000,-2.230000,4.000000,0.020000,-6.220000,-1.072000,-10.463000,-2.630000,-2.810000,0.000000,0.000000,6.540000,1615979283595059648
293,36.000000,0.177765,120.000000,0.487604,168.000000,1.470000,4.000000,0.020000,-0.169000,2.336000,-11.176000,-2.600000,-2.790000,0.000000,0.000000,6.530000,1615979283615006016
294,36.000000,0.177765,120.000000,0.487604,168.000000,-2.510000,4.000000,0.020000,-6.550000,-1.179000,-10.014000,-2.640000,-2.870000,0.000000,0.000000,6.570000,1615979283634972096
295,36.000000,0.177765,120.000000,0.487604,168.000000,1.740000,4.000000,0.020000,0.300000,2.260000,-10.236000,-2.650000,-2.850000,0.000000,0.000000,6.540000,1615979283655015360
296,36.000000,0.177765,120.000000,0.487604,168.000000,-2.300000,4.000000,0.020000,-7.461000,1.655000,-17.075000,-2.700000,-2.950000,0.000000,0.000000,6.610000,1615979283674943712
297,36.000000,0.177765,120.000000,0.487604,168.000000,1.560000,4.000000,0.020000,2.188000,2.288000,-10.157000,-2.720000,-2.950000,0.000000,0.000000,6.520000,1615979283695042144
298,36.000000,0.177765,120.000000,0.487604,168.000000,-3.110000,4.000000,0.020000,-7.951000,-1.611000,-6.756000,-2.760000,-3.030000,0.000000,0.000000,6.530000,1615979283714869408
299,36.000000,0.177765,120.000000,0.487604,168.000000,0.890000,4.000000,0.020000,4.375000,2.274000,-7.861000,-2.790000,-2.970000,0.000000,0.000000,6.460000,1615979283734894720
300,36.000000,0.177765,120.000000,0.487604,168.000000,-0.260000,4.000000,0.020000,-8.249000,-1.229000,-8.315000,-2.840000,-3.000000,0.000000,0.000000,6.470000,1615979283754982528
301,36.000000,0.177765,120.000000,0.487604,168.000000,1.540000,4.000000,0.010000,4.232000,1.541000,-4.053000,-2.860000,-2.950000,0.000000,0.000000,6.380000,1615979283774894816
302,36.000000,0.177765,120.000000,0.487604,168.000000,-0.250000,4.000000,0.010000,-0.654000,-0.810000,-10.143000,-2.900000,-2.930000,0.000000,0.000000,6.370000,1615979283795060896
303,36.000000,0.177765,120.000000,0.487604,168.000000,1.300000,4.000000,0.010000,6.144000,2.641000,-6.888000,-2.930000,-2.920000,0.000000,0.000000,6.290000,1615979283815007328
304,36.000000,0.177765,120.000000,0.487604,168.000000,-0.560000,4.000000,0.020000,-1.146000,-0.873000,-11.739000,-2.950000,-2.890000,0.000000,0.000000,6.280000,1615979283835038432
305,36.000000,0.177765,120.000000,0.487604,168.000000,0.690000,4.000000,0.020000,7.036000,2.365000,-3.849000,-2.980000,-2.910000,0.000000,0.000000,6.200000,1615979283854992672
306,36.000000,0.177765,120.000000,0.487604,168.000000,-1.010000,4.000000,0.010000,-2.946000,-1.275000,-11.703000,-3.020000,-2.900000,0.000000,0.000000,6.180000,1615979283874954144
307,36.000000,0.177765,120.000000,0.487604,168.000000,1.180000,4.000000,0.010000,7.328000,2.878000,-3.832000,-3.050000,-2.910000,0.000000,0.000000,6.100000,1615979283894877248
308,36.000000,0.177765,120.000000,0.487604,168.000000,-1.250000,4.000000,0.010000,-3.372000,-0.712000,-10.532000,-3.050000,-2.860000,0.000000,0.000000,6.070000,1615979283914890368
309,36.000000,0.177765,120.000000,0.487604,168.000000,0.750000,4.000000,0.050000,7.250000,2.860000,-5.557000,-3.010000,-2.850000,0.000000,0.010000,5.990000,1615979283934684160
310,36.000000,0.177765,120.000000,0.487604,168.000000,-1.190000,4.000000,0.050000,-2.781000,-0.832000,-11.210000,-2.980000,-2.830000,0.000000,0.010000,5.970000,1615979283954850432
311,36.000000,0.177765,120.000000,0.487604,168.000000,0.390000,4.000000,0.020000,8.898000,1.252000,-12.413000,-2.960000,-2.830000,0.000000,0.010000,5.900000,1615979283974773280
312,36.000000,0.177765,120.000000,0.487604,168.000000,-1.230000,4.000000,0.020000,-3.541000,-1.056000,-10.816000,-2.930000,-2.880000,0.000000,0.000000,5.940000,1615979283994730656
313,36.000000,0.177765,120.000000,0.487604,168.000000,0.640000,4.000000,0.020000,-1.792000,2.301000,-12.881000,-2.900000,-2.880000,0.000000,0.000000,5.870000,1615979284014714784
314,36.000000,0.177765,120.000000,0.487604,168.000000,-1.540000,4.000000,0.010000,-4.093000,-0.938000,-10.675000,-2.870000,-2.960000,0.000000,0.000000,5.860000,1615979284034798080
315,36.000000,0.177765,120.000000,0.487604,168.000000,0.660000,4.000000,0.010000,-1.671000,1.960000,-11.929000,-2.840000,-2.950000,0.000000,0.000000,5.790000,1615979284054709600
316,36.000000,0.177765,120.000000,0.487604,168.000000,-1.400000,4.000000,0.020000,-4.348000,-1.302000,-9.510000,-2.840000,-3.000000,0.000000,0.000000,5.770000,1615979284074904064
317,36.000000,0.177765,120.000000,0.487604,168.000000,0.800000,4.000000,0.020000,-0.735000,2.158000,-11.115000,-2.800000,-2.980000,0.000000,0.000000,5.670000,1615979284094746432
318,36.000000,0.177765,120.000000,0.487604,168.000000,-1.660000,4.000000,0.020000,-4.802000,-1.375000,-9.769000,-2.810000,-3.010000,0.000000,0.000000,5.710000,1615979284114708288
319,36.000000,0.177765,120.000000,0.487604,168.000000,1.060000,4.000000,0.050000,-0.383000,1.625000,-9.597000,-2.770000,-3.020000,0.000000,0.010000,5.640000,1615979284134932896
320,36.000000,0.177765,120.000000,0.487604,168.000000,-1.980000,4.000000,0.050000,-5.814000,-1.488000,-8.720000,-2.780000,-3.060000,0.000000,0.010000,5.620000,1615979284154740768
321,36.000000,0.177765,120.000000,0.487604,168.000000,0.830000,4.000000,0.010000,15.123000,8.622000,-2.042000,-2.770000,-2.940000,0.000000,0.000000,5.550000,1615979284174898240
322,36.000000,0.177765,120.000000,0.487604,168.000000,0.590000,4.000000,0.010000,2.532000,-0.275000,-9.188000,-2.780000,-2.990000,0.000000,0.000000,5.500000,1615979284194914752
323,36.000000,0.177765,120.000000,0.487604,168.000000,0.700000,4.000000,0.020000,2.903000,2.672000,-11.369000,-2.770000,-2.950000,0.000000,0.000000,5.410000,1615979284214831392
324,36.000000,0.177765,120.000000,0.487604,168.000000,0.300000,4.000000,0.020000,1.724000,-1.283000,-9.669000,-2.820000,-3.000000,0.000000,0.000000,5.430000,1615979284234843936
325,36.000000,0.177765,120.000000,0.487604,168.000000,0.160000,4.000000,0.020000,4.237000,2.610000,-9.328000,-2.840000,-2.950000,0.000000,0.000000,5.340000,1615979284255078752
326,36.000000,0.177765,120.000000,0.487604,168.000000,-0.750000,4.000000,0.020000,-5.883000,1.383000,-11.530000,-2.890000,-2.990000,0.000000,0.000000,5.270000,1615979284274776800
327,36.000000,0.177765,120.000000,0.487604,168.000000,1.320000,4.000000,0.020000,3.841000,2.534000,-11.799000,-2.840000,-2.960000,0.000000,0.000000,5.170000,1615979284294786880
328,36.000000,0.177765,120.000000,0.487604,168.000000,0.220000,4.000000,0.020000,0.582000,-0.308000,-10.187000,-2.810000,-2.930000,0.000000,0.000000,5.150000,1615979284314774304
329,36.000000,0.177765,120.000000,0.487604,168.000000,1.260000,4.000000,0.020000,4.231000,2.914000,-12.225000,-2.770000,-2.980000,0.000000,0.000000,5.070000,1615979284334602976
330,36.000000,0.177765,120.000000,0.487604,168.000000,0.340000,4.000000,0.020000,0.294000,-1.169000,-10.279000,-2.750000,-2.960000,0.000000,0.000000,5.060000,1615979284355045696
331,36.000000,0.177765,120.000000,0.487604,168.000000,1.360000,4.000000,0.020000,9.499000,-1.236000,-2.431000,-2.700000,-2.840000,0.000000,0.000000,5.010000,1615979284374923200
332,36.000000,0.177765,120.000000,0.487604,168.000000,-0.220000,4.000000,0.020000,-0.338000,-0.876000,-12.012000,-2.710000,-2.850000,0.000000,0.000000,5.050000,1615979284394959552
333,36.000000,0.177765,120.000000,0.487604,168.000000,-0.710000,4.000000,0.050000,-5.485000,1.190000,-10.900000,-2.680000,-2.820000,0.000000,0.010000,5.040000,1615979284414945472
334,36.000000,0.177765,120.000000,0.487604,168.000000,-0.280000,4.000000,0.050000,-0.346000,-0.380000,-11.251000,-2.660000,-2.840000,0.000000,0.020000,5.120000,1615979284435079296
335,36.000000,0.177765,120.000000,0.487604,168.000000,-0.640000,4.000000,0.050000,-5.364000,1.258000,-11.382000,-2.660000,-2.830000,0.000000,0.050000,5.170000,1615979284455160160
336,36.000000,0.177765,120.000000,0.487604,168.000000,-0.640000,4.000000,0.050000,-5.364000,1.258000,-11.382000,-2.660000,-2.830000,0.000000,0.050000,5.170000,1615979284475279968
